{"pitch": "0.020696150139", "lat": 29.7132928, "timestamp": 1603394589.090398, "alt": 8.04, "yaw": "1.48638808727", "lon": -95.4045752, "heading": 85, "speed": 0.03800000250339508, "roll": "-0.0159985721111"}
{"pitch": "0.0206008460373", "lat": 29.7132927, "timestamp": 1603394589.598828, "alt": 8.02, "yaw": "1.48616921902", "lon": -95.4045747, "heading": 85, "speed": 0.02200000174343586, "roll": "-0.0164672229439"}
{"pitch": "0.020380532369", "lat": 29.7132927, "timestamp": 1603394590.100438, "alt": 8.03, "yaw": "1.48606741428", "lon": -95.4045744, "heading": 85, "speed": 0.01100000087171793, "roll": "-0.0167454481125"}
{"pitch": "0.0202814228833", "lat": 29.7132927, "timestamp": 1603394590.602562, "alt": 8.03, "yaw": "1.48592400551", "lon": -95.4045739, "heading": 85, "speed": 0.052000001072883606, "roll": "-0.016927877441"}
{"pitch": "0.0201488975435", "lat": 29.7132928, "timestamp": 1603394591.103727, "alt": 8.04, "yaw": "1.48583614826", "lon": -95.4045735, "heading": 85, "speed": 0.007000000216066837, "roll": "-0.0170371793211"}
{"pitch": "0.0200711730868", "lat": 29.7132928, "timestamp": 1603394591.604954, "alt": 8.04, "yaw": "1.4858250618", "lon": -95.4045727, "heading": 85, "speed": 0.029000001028180122, "roll": "-0.0170752629638"}
{"pitch": "0.0202915426344", "lat": 29.713293, "timestamp": 1603394592.106139, "alt": 8.04, "yaw": "1.48569011688", "lon": -95.4045724, "heading": 85, "speed": 0.06700000166893005, "roll": "-0.0174126178026"}
{"pitch": "0.0203403867781", "lat": 29.7132932, "timestamp": 1603394592.613853, "alt": 8.05, "yaw": "1.48561739922", "lon": -95.4045721, "heading": 85, "speed": 0.023000001907348633, "roll": "-0.0174533762038"}
{"pitch": "0.0205316040665", "lat": 29.7132933, "timestamp": 1603394593.115313, "alt": 8.05, "yaw": "1.48555111885", "lon": -95.4045718, "heading": 85, "speed": 0.06599999964237213, "roll": "-0.0173377711326"}
{"pitch": "0.0207789931446", "lat": 29.7132935, "timestamp": 1603394593.618809, "alt": 8.05, "yaw": "1.48539960384", "lon": -95.4045715, "heading": 85, "speed": 0.05100000277161598, "roll": "-0.0174216721207"}
{"pitch": "0.0208965595812", "lat": 29.7132935, "timestamp": 1603394594.12169, "alt": 8.06, "yaw": "1.48539829254", "lon": -95.4045713, "heading": 85, "speed": 0.01600000075995922, "roll": "-0.0172541122884"}
{"pitch": "0.0208034794778", "lat": 29.7132936, "timestamp": 1603394594.622814, "alt": 8.08, "yaw": "1.48550438881", "lon": -95.4045711, "heading": 85, "speed": 0.036000002175569534, "roll": "-0.0169557314366"}
{"pitch": "0.0208870582283", "lat": 29.7132936, "timestamp": 1603394595.123977, "alt": 8.08, "yaw": "1.48554837704", "lon": -95.4045709, "heading": 85, "speed": 0.01600000075995922, "roll": "-0.0168807450682"}
{"pitch": "0.0210446175188", "lat": 29.7132936, "timestamp": 1603394595.625138, "alt": 8.06, "yaw": "1.48555338383", "lon": -95.4045705, "heading": 85, "speed": 0.02500000037252903, "roll": "-0.0167166851461"}
{"pitch": "0.0209387689829", "lat": 29.7132936, "timestamp": 1603394596.126329, "alt": 8.05, "yaw": "1.48556482792", "lon": -95.4045701, "heading": 85, "speed": 0.006000000052154064, "roll": "-0.0166543237865"}
{"pitch": "0.0208888016641", "lat": 29.7132937, "timestamp": 1603394596.62745, "alt": 8.03, "yaw": "1.48549485207", "lon": -95.4045697, "heading": 85, "speed": 0.032999999821186066, "roll": "-0.0165739189833"}
{"pitch": "0.020835570991", "lat": 29.7132937, "timestamp": 1603394597.128708, "alt": 8.02, "yaw": "1.4854747057", "lon": -95.4045694, "heading": 85, "speed": 0.03100000135600567, "roll": "-0.0164129771292"}
{"pitch": "0.020927881822", "lat": 29.7132937, "timestamp": 1603394597.629908, "alt": 8.01, "yaw": "1.48542118073", "lon": -95.404569, "heading": 85, "speed": 0.032999999821186066, "roll": "-0.0163267236203"}
{"pitch": "0.0210704561323", "lat": 29.7132938, "timestamp": 1603394598.131326, "alt": 8.01, "yaw": "1.4854003191", "lon": -95.4045687, "heading": 85, "speed": 0.03100000135600567, "roll": "-0.0164673347026"}
{"pitch": "0.0213403087109", "lat": 29.7132939, "timestamp": 1603394598.635212, "alt": 8.01, "yaw": "1.48548877239", "lon": -95.4045684, "heading": 85, "speed": 0.055000003427267075, "roll": "-0.0165624413639"}
{"pitch": "0.0214462671429", "lat": 29.7132942, "timestamp": 1603394599.139953, "alt": 8.01, "yaw": "1.48553931713", "lon": -95.4045681, "heading": 85, "speed": 0.009000000543892384, "roll": "-0.0166031625122"}
{"pitch": "0.0216465890408", "lat": 29.7132942, "timestamp": 1603394599.643338, "alt": 8.01, "yaw": "1.48557972908", "lon": -95.4045681, "heading": 85, "speed": 0.03200000151991844, "roll": "-0.0164807774127"}
{"pitch": "0.0217410605401", "lat": 29.7132943, "timestamp": 1603394600.149254, "alt": 8.01, "yaw": "1.48553299904", "lon": -95.4045679, "heading": 85, "speed": 0.027000000700354576, "roll": "-0.0162819493562"}
{"pitch": "0.02170666866", "lat": 29.7132942, "timestamp": 1603394600.651002, "alt": 8.01, "yaw": "1.48562157154", "lon": -95.4045678, "heading": 85, "speed": 0.020000001415610313, "roll": "-0.0161193646491"}
{"pitch": "0.0218757167459", "lat": 29.7132941, "timestamp": 1603394601.152432, "alt": 8.01, "yaw": "1.48560142517", "lon": -95.4045678, "heading": 85, "speed": 0.039000000804662704, "roll": "-0.016096515581"}
{"pitch": "0.0219959560782", "lat": 29.7132941, "timestamp": 1603394601.655802, "alt": 8.03, "yaw": "1.4857032299", "lon": -95.4045678, "heading": 85, "speed": 0.005000000353902578, "roll": "-0.0161364171654"}
{"pitch": "0.0219661351293", "lat": 29.713294, "timestamp": 1603394602.156938, "alt": 8.03, "yaw": "1.4856184721", "lon": -95.4045678, "heading": 85, "speed": 0.05100000277161598, "roll": "-0.0161392819136"}
{"pitch": "0.0218646228313", "lat": 29.7132938, "timestamp": 1603394602.65807, "alt": 8.04, "yaw": "1.4856300354", "lon": -95.4045677, "heading": 85, "speed": 0.026000000536441803, "roll": "-0.0160731971264"}
{"pitch": "0.0217889286578", "lat": 29.7132937, "timestamp": 1603394603.159149, "alt": 8.05, "yaw": "1.48559641838", "lon": -95.4045677, "heading": 85, "speed": 0.02200000174343586, "roll": "-0.0160675346851"}
{"pitch": "0.0218592230231", "lat": 29.7132937, "timestamp": 1603394603.659999, "alt": 8.04, "yaw": "1.48547911644", "lon": -95.4045678, "heading": 85, "speed": 0.08300000429153442, "roll": "-0.0161786209792"}
{"pitch": "0.0219586640596", "lat": 29.7132937, "timestamp": 1603394604.161034, "alt": 8.03, "yaw": "1.48548209667", "lon": -95.404568, "heading": 85, "speed": 0.04800000041723251, "roll": "-0.0163038540632"}
{"pitch": "0.021971816197", "lat": 29.7132938, "timestamp": 1603394604.662186, "alt": 8.02, "yaw": "1.48565816879", "lon": -95.4045683, "heading": 85, "speed": 0.06599999964237213, "roll": "-0.0163106191903"}
{"pitch": "0.0219726897776", "lat": 29.7132938, "timestamp": 1603394605.163427, "alt": 8.03, "yaw": "1.48581302166", "lon": -95.4045685, "heading": 85, "speed": 0.0430000014603138, "roll": "-0.0163197461516"}
{"pitch": "0.0219028610736", "lat": 29.7132939, "timestamp": 1603394605.665358, "alt": 8.04, "yaw": "1.4858956337", "lon": -95.4045688, "heading": 85, "speed": 0.02800000086426735, "roll": "-0.0163174699992"}
{"pitch": "0.0217958521098", "lat": 29.7132938, "timestamp": 1603394606.166595, "alt": 8.05, "yaw": "1.48594176769", "lon": -95.4045691, "heading": 85, "speed": 0.032999999821186066, "roll": "-0.0161003805697"}
{"pitch": "0.0217071212828", "lat": 29.7132937, "timestamp": 1603394606.667889, "alt": 8.05, "yaw": "1.48616015911", "lon": -95.4045692, "heading": 85, "speed": 0.032999999821186066, "roll": "-0.0159179326147"}
{"pitch": "0.0215651616454", "lat": 29.7132936, "timestamp": 1603394607.169843, "alt": 8.07, "yaw": "1.48626351357", "lon": -95.4045694, "heading": 85, "speed": 0.017000000923871994, "roll": "-0.0159114189446"}
{"pitch": "0.0212832447141", "lat": 29.7132937, "timestamp": 1603394607.671187, "alt": 8.08, "yaw": "1.48598670959", "lon": -95.4045696, "heading": 85, "speed": 0.02200000174343586, "roll": "-0.0159219652414"}
{"pitch": "0.0210690051317", "lat": 29.7132937, "timestamp": 1603394608.172363, "alt": 8.1, "yaw": "1.4861240387", "lon": -95.4045697, "heading": 85, "speed": 0.039000000804662704, "roll": "-0.0159668941051"}
{"pitch": "0.0209055431187", "lat": 29.7132938, "timestamp": 1603394608.673481, "alt": 8.12, "yaw": "1.48625719547", "lon": -95.4045698, "heading": 85, "speed": 0.003000000026077032, "roll": "-0.0161468759179"}
{"pitch": "0.0208746660501", "lat": 29.7132938, "timestamp": 1603394609.174676, "alt": 8.14, "yaw": "1.48630905151", "lon": -95.40457, "heading": 85, "speed": 0.03500000014901161, "roll": "-0.0162386074662"}
{"pitch": "0.020680192858", "lat": 29.7132939, "timestamp": 1603394609.675809, "alt": 8.16, "yaw": "1.48655819893", "lon": -95.4045702, "heading": 85, "speed": 0.01100000087171793, "roll": "-0.0163988489658"}
{"pitch": "0.0205676946789", "lat": 29.713294, "timestamp": 1603394610.177119, "alt": 8.18, "yaw": "1.48660516739", "lon": -95.4045704, "heading": 85, "speed": 0.03400000184774399, "roll": "-0.0163159836084"}
{"pitch": "0.020595125854", "lat": 29.713294, "timestamp": 1603394610.678265, "alt": 8.21, "yaw": "1.4866001606", "lon": -95.4045706, "heading": 85, "speed": 0.021000001579523087, "roll": "-0.0163575485349"}
{"pitch": "0.0205054786056", "lat": 29.713294, "timestamp": 1603394611.179364, "alt": 8.24, "yaw": "1.48664617538", "lon": -95.4045708, "heading": 85, "speed": 0.01600000075995922, "roll": "-0.016126351431"}
{"pitch": "0.0205186977983", "lat": 29.7132939, "timestamp": 1603394611.682332, "alt": 8.27, "yaw": "1.48660039902", "lon": -95.404571, "heading": 85, "speed": 0.04200000315904617, "roll": "-0.0160684883595"}
{"pitch": "0.020375430584", "lat": 29.7132938, "timestamp": 1603394612.18416, "alt": 8.31, "yaw": "1.48653566837", "lon": -95.4045711, "heading": 85, "speed": 0.02200000174343586, "roll": "-0.0158604048193"}
{"pitch": "0.0203470345587", "lat": 29.7132937, "timestamp": 1603394612.685549, "alt": 8.37, "yaw": "1.48649227619", "lon": -95.4045713, "heading": 85, "speed": 0.026000000536441803, "roll": "-0.0156951304525"}
{"pitch": "0.0201665386558", "lat": 29.7132936, "timestamp": 1603394613.186704, "alt": 8.38, "yaw": "1.4866822958", "lon": -95.4045713, "heading": 85, "speed": 0.04700000211596489, "roll": "-0.0155379073694"}
{"pitch": "0.0199654363096", "lat": 29.7132934, "timestamp": 1603394613.68788, "alt": 8.39, "yaw": "1.48682069778", "lon": -95.4045712, "heading": 85, "speed": 0.03700000047683716, "roll": "-0.0154788950458"}
{"pitch": "0.0199732556939", "lat": 29.713293, "timestamp": 1603394614.189345, "alt": 8.39, "yaw": "1.48691380024", "lon": -95.4045714, "heading": 85, "speed": 0.014000000432133675, "roll": "-0.0153077440336"}
{"pitch": "0.0200308263302", "lat": 29.7132929, "timestamp": 1603394614.691225, "alt": 8.39, "yaw": "1.48692584038", "lon": -95.4045714, "heading": 85, "speed": 0.01100000087171793, "roll": "-0.0152829317376"}
{"pitch": "0.0201981253922", "lat": 29.7132927, "timestamp": 1603394615.192449, "alt": 8.4, "yaw": "1.48707473278", "lon": -95.4045717, "heading": 85, "speed": 0.023000001907348633, "roll": "-0.0155093045905"}
{"pitch": "0.0202697552741", "lat": 29.7132925, "timestamp": 1603394615.693681, "alt": 8.41, "yaw": "1.4870672226", "lon": -95.4045719, "heading": 85, "speed": 0.029000001028180122, "roll": "-0.015695547685"}
{"pitch": "0.0201491806656", "lat": 29.7132923, "timestamp": 1603394616.19478, "alt": 8.41, "yaw": "1.48708128929", "lon": -95.404572, "heading": 85, "speed": 0.04100000113248825, "roll": "-0.0158326253295"}
{"pitch": "0.0200137961656", "lat": 29.7132921, "timestamp": 1603394616.695956, "alt": 8.4, "yaw": "1.48697662354", "lon": -95.4045721, "heading": 85, "speed": 0.07300000637769699, "roll": "-0.0158429276198"}
{"pitch": "0.0199110284448", "lat": 29.7132919, "timestamp": 1603394617.197116, "alt": 8.39, "yaw": "1.48700618744", "lon": -95.4045721, "heading": 85, "speed": 0.013000000268220901, "roll": "-0.0158436447382"}
{"pitch": "0.0198793783784", "lat": 29.7132918, "timestamp": 1603394617.69822, "alt": 8.39, "yaw": "1.48716771603", "lon": -95.4045721, "heading": 85, "speed": 0.029000001028180122, "roll": "-0.0160439684987"}
{"pitch": "0.0197043083608", "lat": 29.7132918, "timestamp": 1603394618.19916, "alt": 8.39, "yaw": "1.48701918125", "lon": -95.404572, "heading": 85, "speed": 0.03700000047683716, "roll": "-0.0161639451981"}
{"pitch": "0.0197169482708", "lat": 29.7132917, "timestamp": 1603394618.700303, "alt": 8.4, "yaw": "1.48699402809", "lon": -95.4045719, "heading": 85, "speed": 0.013000000268220901, "roll": "-0.0161482635885"}
{"pitch": "0.0197651274502", "lat": 29.7132916, "timestamp": 1603394619.201405, "alt": 8.4, "yaw": "1.48706865311", "lon": -95.4045718, "heading": 85, "speed": 0.04000000283122063, "roll": "-0.0162172522396"}
{"pitch": "0.0197818763554", "lat": 29.7132916, "timestamp": 1603394619.702568, "alt": 8.4, "yaw": "1.48697984219", "lon": -95.4045718, "heading": 85, "speed": 0.032999999821186066, "roll": "-0.0162533149123"}
{"pitch": "0.0197750516236", "lat": 29.7132916, "timestamp": 1603394620.203729, "alt": 8.41, "yaw": "1.48701071739", "lon": -95.4045716, "heading": 85, "speed": 0.018000001087784767, "roll": "-0.0162151046097"}
{"pitch": "0.0197133421898", "lat": 29.7132916, "timestamp": 1603394620.704976, "alt": 8.42, "yaw": "1.48697507381", "lon": -95.4045714, "heading": 85, "speed": 0.021000001579523087, "roll": "-0.0161920506507"}
{"pitch": "0.0198801998049", "lat": 29.7132917, "timestamp": 1603394621.206353, "alt": 8.42, "yaw": "1.48691618443", "lon": -95.4045712, "heading": 85, "speed": 0.036000002175569534, "roll": "-0.0162263754755"}
{"pitch": "0.0199327450246", "lat": 29.7132921, "timestamp": 1603394621.707606, "alt": 8.4, "yaw": "1.48692786694", "lon": -95.404571, "heading": 85, "speed": 0.021000001579523087, "roll": "-0.0162299983203"}
{"pitch": "0.0200402401388", "lat": 29.7132923, "timestamp": 1603394622.2282, "alt": 8.39, "yaw": "1.48692202568", "lon": -95.4045708, "heading": 85, "speed": 0.05900000408291817, "roll": "-0.0164690874517"}
{"pitch": "0.0200259499252", "lat": 29.7132926, "timestamp": 1603394622.729522, "alt": 8.38, "yaw": "1.48671615124", "lon": -95.4045707, "heading": 85, "speed": 0.04200000315904617, "roll": "-0.0164480507374"}
{"pitch": "0.0200299378484", "lat": 29.7132929, "timestamp": 1603394623.230802, "alt": 8.37, "yaw": "1.48672997952", "lon": -95.4045704, "heading": 85, "speed": 0.03400000184774399, "roll": "-0.0164829604328"}
{"pitch": "0.0200893785805", "lat": 29.7132931, "timestamp": 1603394623.732315, "alt": 8.36, "yaw": "1.48662602901", "lon": -95.4045702, "heading": 85, "speed": 0.046000003814697266, "roll": "-0.0164132807404"}
{"pitch": "0.0202204436064", "lat": 29.7132934, "timestamp": 1603394624.233417, "alt": 8.34, "yaw": "1.48664295673", "lon": -95.4045701, "heading": 85, "speed": 0.05000000074505806, "roll": "-0.0163736809045"}
{"pitch": "0.0204820483923", "lat": 29.7132937, "timestamp": 1603394624.734615, "alt": 8.32, "yaw": "1.48673689365", "lon": -95.40457, "heading": 85, "speed": 0.032999999821186066, "roll": "-0.0165133792907"}
{"pitch": "0.0205326434225", "lat": 29.713294, "timestamp": 1603394625.236215, "alt": 8.35, "yaw": "1.48684823513", "lon": -95.4045699, "heading": 85, "speed": 0.039000000804662704, "roll": "-0.0165002699941"}
{"pitch": "0.0207110587507", "lat": 29.7132944, "timestamp": 1603394625.737302, "alt": 8.39, "yaw": "1.48693394661", "lon": -95.4045698, "heading": 85, "speed": 0.012000000104308128, "roll": "-0.0164722483605"}
{"pitch": "0.0206482242793", "lat": 29.7132947, "timestamp": 1603394626.23839, "alt": 8.46, "yaw": "1.48709380627", "lon": -95.4045698, "heading": 85, "speed": 0.021000001579523087, "roll": "-0.0163617189974"}
{"pitch": "0.0221655424684", "lat": 29.713295, "timestamp": 1603394626.739627, "alt": 8.49, "yaw": "1.48726010323", "lon": -95.4045697, "heading": 85, "speed": 0.003000000026077032, "roll": "-0.0158231370151"}
{"pitch": "0.0184849351645", "lat": 29.7132952, "timestamp": 1603394627.240806, "alt": 8.52, "yaw": "1.48713350296", "lon": -95.4045698, "heading": 85, "speed": 0.04200000315904617, "roll": "-0.0150650842115"}
{"pitch": "0.014397257939", "lat": 29.7132955, "timestamp": 1603394627.742393, "alt": 8.57, "yaw": "1.4877872467", "lon": -95.40457, "heading": 85, "speed": 0.052000001072883606, "roll": "-0.0136742414907"}
{"pitch": "0.0189795717597", "lat": 29.7132959, "timestamp": 1603394628.243744, "alt": 8.62, "yaw": "1.48672223091", "lon": -95.4045703, "heading": 85, "speed": 0.049000002443790436, "roll": "-0.0154583966359"}
{"pitch": "0.0202394556254", "lat": 29.7132963, "timestamp": 1603394628.74598, "alt": 8.67, "yaw": "1.48787534237", "lon": -95.4045706, "heading": 85, "speed": 0.05100000277161598, "roll": "-0.0147733287886"}
{"pitch": "0.0112493559718", "lat": 29.7132967, "timestamp": 1603394629.248546, "alt": 8.71, "yaw": "1.48988652229", "lon": -95.4045713, "heading": 85, "speed": 0.04100000113248825, "roll": "-0.014340669848"}
{"pitch": "0.0105092953891", "lat": 29.713297, "timestamp": 1603394629.74972, "alt": 8.75, "yaw": "1.48815214634", "lon": -95.4045717, "heading": 85, "speed": 0.02200000174343586, "roll": "-0.0146404290572"}
{"pitch": "0.0172988064587", "lat": 29.713297, "timestamp": 1603394630.250876, "alt": 8.77, "yaw": "1.48752701283", "lon": -95.4045722, "heading": 85, "speed": 0.08100000023841858, "roll": "-0.0146430926397"}
{"pitch": "0.0197862219065", "lat": 29.713297, "timestamp": 1603394630.752754, "alt": 8.8, "yaw": "1.48750936985", "lon": -95.4045724, "heading": 85, "speed": 0.03100000135600567, "roll": "-0.0143202831969"}
{"pitch": "0.0195872318", "lat": 29.713297, "timestamp": 1603394631.254383, "alt": 8.82, "yaw": "1.4868106842", "lon": -95.4045726, "heading": 85, "speed": 0.013000000268220901, "roll": "-0.0144223319367"}
{"pitch": "0.0177215635777", "lat": 29.7132968, "timestamp": 1603394631.75548, "alt": 8.84, "yaw": "1.48721003532", "lon": -95.4045727, "heading": 85, "speed": 0.0430000014603138, "roll": "-0.0143378851935"}
{"pitch": "0.0118262860924", "lat": 29.7132967, "timestamp": 1603394632.256759, "alt": 8.87, "yaw": "1.48803901672", "lon": -95.4045727, "heading": 85, "speed": 0.026000000536441803, "roll": "-0.0134408129379"}
{"pitch": "0.0174152590334", "lat": 29.7132964, "timestamp": 1603394632.758389, "alt": 8.91, "yaw": "1.48777115345", "lon": -95.4045728, "heading": 85, "speed": 0.0430000014603138, "roll": "-0.0141575941816"}
{"pitch": "0.0162626300007", "lat": 29.7132961, "timestamp": 1603394633.259474, "alt": 8.95, "yaw": "1.4884827137", "lon": -95.4045727, "heading": 85, "speed": 0.036000002175569534, "roll": "-0.0140317166224"}
{"pitch": "0.00588316330686", "lat": 29.7132958, "timestamp": 1603394633.760596, "alt": 8.99, "yaw": "1.49053227901", "lon": -95.4045725, "heading": 85, "speed": 0.055000003427267075, "roll": "-0.0141576873139"}
{"pitch": "0.0164202284068", "lat": 29.7132955, "timestamp": 1603394634.261738, "alt": 9.01, "yaw": "1.48805224895", "lon": -95.4045726, "heading": 85, "speed": 0.01600000075995922, "roll": "-0.0144001310691"}
{"pitch": "0.017564823851", "lat": 29.7132952, "timestamp": 1603394634.762809, "alt": 9.04, "yaw": "1.48779797554", "lon": -95.4045726, "heading": 85, "speed": 0.03700000047683716, "roll": "-0.0145473564044"}
{"pitch": "0.01841981709", "lat": 29.7132949, "timestamp": 1603394635.264119, "alt": 9.07, "yaw": "1.48810219765", "lon": -95.4045726, "heading": 85, "speed": 0.020000001415610313, "roll": "-0.0146580403671"}
{"pitch": "0.0182586107403", "lat": 29.7132947, "timestamp": 1603394635.76538, "alt": 9.08, "yaw": "1.48815882206", "lon": -95.4045727, "heading": 85, "speed": 0.04800000041723251, "roll": "-0.0148294037208"}
{"pitch": "0.0183429103345", "lat": 29.7132943, "timestamp": 1603394636.266565, "alt": 9.14, "yaw": "1.48811364174", "lon": -95.4045729, "heading": 85, "speed": 0.023000001907348633, "roll": "-0.0150468209758"}
{"pitch": "0.0182980168611", "lat": 29.7132942, "timestamp": 1603394636.767789, "alt": 9.16, "yaw": "1.48833525181", "lon": -95.404573, "heading": 85, "speed": 0.03500000014901161, "roll": "-0.015145114623"}
{"pitch": "0.0182263106108", "lat": 29.7132938, "timestamp": 1603394637.269097, "alt": 9.2, "yaw": "1.48827898502", "lon": -95.4045732, "heading": 85, "speed": 0.010000000707805157, "roll": "-0.015167853795"}
{"pitch": "0.0182896647602", "lat": 29.7132935, "timestamp": 1603394637.770514, "alt": 9.25, "yaw": "1.48827016354", "lon": -95.4045733, "heading": 85, "speed": 0.012000000104308128, "roll": "-0.0153345586732"}
{"pitch": "0.0181699767709", "lat": 29.7132932, "timestamp": 1603394638.273133, "alt": 9.28, "yaw": "1.48812222481", "lon": -95.4045735, "heading": 85, "speed": 0.027000000700354576, "roll": "-0.0153947239742"}
{"pitch": "0.0180703289807", "lat": 29.7132929, "timestamp": 1603394638.775037, "alt": 9.32, "yaw": "1.48829054832", "lon": -95.4045737, "heading": 85, "speed": 0.02800000086426735, "roll": "-0.0156005648896"}
{"pitch": "0.0179839488119", "lat": 29.7132926, "timestamp": 1603394639.276143, "alt": 9.35, "yaw": "1.48825776577", "lon": -95.4045738, "heading": 85, "speed": 0.029000001028180122, "roll": "-0.0156005276367"}
{"pitch": "0.0181229561567", "lat": 29.7132922, "timestamp": 1603394639.777244, "alt": 9.37, "yaw": "1.48819971085", "lon": -95.404574, "heading": 85, "speed": 0.007000000216066837, "roll": "-0.0156266205013"}
{"pitch": "0.018149042502", "lat": 29.7132918, "timestamp": 1603394640.278348, "alt": 9.4, "yaw": "1.48826229572", "lon": -95.4045742, "heading": 85, "speed": 0.00800000037997961, "roll": "-0.0156886037439"}
{"pitch": "0.0180269684643", "lat": 29.7132913, "timestamp": 1603394640.779466, "alt": 9.42, "yaw": "1.48818576336", "lon": -95.4045744, "heading": 85, "speed": 0.012000000104308128, "roll": "-0.0158102102578"}
{"pitch": "0.0180075466633", "lat": 29.713291, "timestamp": 1603394641.280579, "alt": 9.44, "yaw": "1.48829066753", "lon": -95.4045745, "heading": 85, "speed": 0.013000000268220901, "roll": "-0.0160970259458"}
{"pitch": "0.0181331019849", "lat": 29.7132906, "timestamp": 1603394641.781717, "alt": 9.46, "yaw": "1.4883620739", "lon": -95.4045746, "heading": 85, "speed": 0.06300000101327896, "roll": "-0.0163129623979"}
{"pitch": "0.0193580780178", "lat": 29.7132902, "timestamp": 1603394642.2831, "alt": 9.49, "yaw": "1.48769640923", "lon": -95.4045748, "heading": 85, "speed": 0.04700000211596489, "roll": "-0.0165116544813"}
{"pitch": "0.0163124836981", "lat": 29.7132899, "timestamp": 1603394642.784339, "alt": 9.53, "yaw": "1.48899292946", "lon": -95.4045748, "heading": 85, "speed": 0.03200000151991844, "roll": "-0.015598420985"}
{"pitch": "0.004033268895", "lat": 29.7132894, "timestamp": 1603394643.285465, "alt": 9.56, "yaw": "1.49006068707", "lon": -95.4045748, "heading": 85, "speed": 0.04700000211596489, "roll": "-0.0142207602039"}
{"pitch": "0.0213027708232", "lat": 29.7132887, "timestamp": 1603394643.786634, "alt": 9.6, "yaw": "1.48911654949", "lon": -95.404575, "heading": 85, "speed": 0.036000002175569534, "roll": "-0.0158844608814"}
{"pitch": "0.0181353799999", "lat": 29.7132884, "timestamp": 1603394644.287925, "alt": 9.6, "yaw": "1.48956382275", "lon": -95.404575, "heading": 85, "speed": 0.07100000232458115, "roll": "-0.0159062985331"}
{"pitch": "0.0115623343736", "lat": 29.7132877, "timestamp": 1603394644.789137, "alt": 9.65, "yaw": "1.48933923244", "lon": -95.4045748, "heading": 85, "speed": 0.06100000441074371, "roll": "-0.0157335735857"}
{"pitch": "0.0160541981459", "lat": 29.7132873, "timestamp": 1603394645.290485, "alt": 9.66, "yaw": "1.48935866356", "lon": -95.4045747, "heading": 85, "speed": 0.005000000353902578, "roll": "-0.0160238593817"}
{"pitch": "0.016326924786", "lat": 29.7132868, "timestamp": 1603394645.793771, "alt": 9.69, "yaw": "1.48974370956", "lon": -95.4045746, "heading": 85, "speed": 0.012000000104308128, "roll": "-0.0161274075508"}
{"pitch": "0.0161383450031", "lat": 29.7132864, "timestamp": 1603394646.294982, "alt": 9.71, "yaw": "1.48986804485", "lon": -95.4045745, "heading": 85, "speed": 0.05300000309944153, "roll": "-0.0161940958351"}
{"pitch": "0.0162256453186", "lat": 29.7132859, "timestamp": 1603394646.796108, "alt": 9.74, "yaw": "1.48998045921", "lon": -95.4045745, "heading": 85, "speed": 0.024000000208616257, "roll": "-0.0162410289049"}
{"pitch": "0.0164425671101", "lat": 29.7132855, "timestamp": 1603394647.297214, "alt": 9.75, "yaw": "1.49004209042", "lon": -95.4045745, "heading": 85, "speed": 0.006000000052154064, "roll": "-0.0162277147174"}
{"pitch": "0.0166479870677", "lat": 29.7132852, "timestamp": 1603394647.798352, "alt": 9.77, "yaw": "1.49009013176", "lon": -95.4045745, "heading": 85, "speed": 0.05300000309944153, "roll": "-0.0163335129619"}
{"pitch": "0.0165124069899", "lat": 29.7132848, "timestamp": 1603394648.299562, "alt": 9.8, "yaw": "1.49002063274", "lon": -95.4045742, "heading": 85, "speed": 0.026000000536441803, "roll": "-0.0162186957896"}
{"pitch": "0.0165121294558", "lat": 29.7132844, "timestamp": 1603394648.800665, "alt": 9.83, "yaw": "1.49013960361", "lon": -95.4045739, "heading": 85, "speed": 0.02200000174343586, "roll": "-0.0160863250494"}
{"pitch": "0.0165665652603", "lat": 29.7132839, "timestamp": 1603394649.301832, "alt": 9.87, "yaw": "1.49034547806", "lon": -95.4045735, "heading": 85, "speed": 0.009000000543892384, "roll": "-0.0160242635757"}
{"pitch": "0.0165771674365", "lat": 29.7132833, "timestamp": 1603394649.803037, "alt": 9.9, "yaw": "1.49047541618", "lon": -95.4045731, "heading": 85, "speed": 0.02500000037252903, "roll": "-0.0159015059471"}
{"pitch": "0.0164412744343", "lat": 29.7132829, "timestamp": 1603394650.304323, "alt": 9.94, "yaw": "1.49038028717", "lon": -95.4045727, "heading": 85, "speed": 0.04800000041723251, "roll": "-0.0158689338714"}
{"pitch": "0.0162963662297", "lat": 29.7132824, "timestamp": 1603394650.805679, "alt": 9.96, "yaw": "1.49034893513", "lon": -95.4045721, "heading": 85, "speed": 0.02200000174343586, "roll": "-0.0159994997084"}
{"pitch": "0.0162877794355", "lat": 29.7132818, "timestamp": 1603394651.306959, "alt": 9.98, "yaw": "1.49034321308", "lon": -95.4045716, "heading": 85, "speed": 0.013000000268220901, "roll": "-0.0159743353724"}
{"pitch": "0.016394821927", "lat": 29.7132813, "timestamp": 1603394651.80906, "alt": 10.0, "yaw": "1.49040615559", "lon": -95.4045712, "heading": 85, "speed": 0.03700000047683716, "roll": "-0.0159970838577"}
{"pitch": "0.0165017191321", "lat": 29.7132806, "timestamp": 1603394652.311922, "alt": 10.01, "yaw": "1.49051046371", "lon": -95.4045706, "heading": 85, "speed": 0.04200000315904617, "roll": "-0.0160920340568"}
{"pitch": "0.0168260354549", "lat": 29.7132802, "timestamp": 1603394652.813194, "alt": 10.03, "yaw": "1.49047589302", "lon": -95.4045704, "heading": 85, "speed": 0.03800000250339508, "roll": "-0.0163127426058"}
{"pitch": "0.0168871302158", "lat": 29.7132799, "timestamp": 1603394653.315137, "alt": 10.04, "yaw": "1.49051117897", "lon": -95.4045702, "heading": 85, "speed": 0.006000000052154064, "roll": "-0.0166630540043"}
{"pitch": "0.0170639306307", "lat": 29.7132797, "timestamp": 1603394653.816283, "alt": 10.07, "yaw": "1.49062478542", "lon": -95.4045699, "heading": 85, "speed": 0.012000000104308128, "roll": "-0.0167285576463"}
{"pitch": "0.0171211268753", "lat": 29.7132796, "timestamp": 1603394654.317401, "alt": 10.07, "yaw": "1.49078536034", "lon": -95.4045697, "heading": 85, "speed": 0.027000000700354576, "roll": "-0.0166768915951"}
{"pitch": "0.0172498244792", "lat": 29.7132796, "timestamp": 1603394654.819318, "alt": 10.06, "yaw": "1.49075436592", "lon": -95.4045695, "heading": 85, "speed": 0.05000000074505806, "roll": "-0.0166389178485"}
{"pitch": "0.0173119567335", "lat": 29.7132796, "timestamp": 1603394655.320577, "alt": 10.05, "yaw": "1.49077880383", "lon": -95.4045693, "heading": 85, "speed": 0.04100000113248825, "roll": "-0.0167076736689"}
{"pitch": "0.017383409664", "lat": 29.7132798, "timestamp": 1603394655.821705, "alt": 10.04, "yaw": "1.49081802368", "lon": -95.404569, "heading": 85, "speed": 0.036000002175569534, "roll": "-0.0168524384499"}
{"pitch": "0.0173744112253", "lat": 29.71328, "timestamp": 1603394656.322905, "alt": 10.02, "yaw": "1.49087703228", "lon": -95.4045687, "heading": 85, "speed": 0.04500000178813934, "roll": "-0.0170422494411"}
{"pitch": "0.0172781124711", "lat": 29.7132803, "timestamp": 1603394656.824044, "alt": 10.02, "yaw": "1.49109363556", "lon": -95.4045683, "heading": 85, "speed": 0.015000000596046448, "roll": "-0.0170544497669"}
{"pitch": "0.0173038002104", "lat": 29.7132805, "timestamp": 1603394657.326245, "alt": 10.01, "yaw": "1.49127602577", "lon": -95.404568, "heading": 85, "speed": 0.026000000536441803, "roll": "-0.0170958638191"}
{"pitch": "0.0172581188381", "lat": 29.7132807, "timestamp": 1603394657.829829, "alt": 10.0, "yaw": "1.4912416935", "lon": -95.4045675, "heading": 85, "speed": 0.05900000408291817, "roll": "-0.0169200133532"}
{"pitch": "0.0171281378716", "lat": 29.7132809, "timestamp": 1603394658.331046, "alt": 10.0, "yaw": "1.4913071394", "lon": -95.4045671, "heading": 85, "speed": 0.04800000041723251, "roll": "-0.016841204837"}
{"pitch": "0.016982825473", "lat": 29.7132812, "timestamp": 1603394658.832364, "alt": 10.01, "yaw": "1.49121451378", "lon": -95.4045661, "heading": 85, "speed": 0.027000000700354576, "roll": "-0.0166666489094"}
{"pitch": "0.0167296975851", "lat": 29.7132813, "timestamp": 1603394659.33355, "alt": 10.0, "yaw": "1.49119055271", "lon": -95.4045658, "heading": 85, "speed": 0.06100000441074371, "roll": "-0.0165186170489"}
{"pitch": "0.0167902242392", "lat": 29.7132816, "timestamp": 1603394659.834745, "alt": 10.0, "yaw": "1.49122095108", "lon": -95.4045646, "heading": 85, "speed": 0.04500000178813934, "roll": "-0.016228383407"}
{"pitch": "0.0170209109783", "lat": 29.7132817, "timestamp": 1603394660.336099, "alt": 10.0, "yaw": "1.4913175106", "lon": -95.4045641, "heading": 85, "speed": 0.017000000923871994, "roll": "-0.0160456821322"}
{"pitch": "0.0171979777515", "lat": 29.7132819, "timestamp": 1603394660.838033, "alt": 10.01, "yaw": "1.49142420292", "lon": -95.4045635, "heading": 85, "speed": 0.049000002443790436, "roll": "-0.0158297345042"}
{"pitch": "0.0172104444355", "lat": 29.7132821, "timestamp": 1603394661.339202, "alt": 10.01, "yaw": "1.49126267433", "lon": -95.4045629, "heading": 85, "speed": 0.02800000086426735, "roll": "-0.0154998833314"}
{"pitch": "0.0173667035997", "lat": 29.7132823, "timestamp": 1603394661.841443, "alt": 10.02, "yaw": "1.49127292633", "lon": -95.4045624, "heading": 85, "speed": 0.055000003427267075, "roll": "-0.0153332045302"}
{"pitch": "0.0175514146686", "lat": 29.7132827, "timestamp": 1603394662.342971, "alt": 10.02, "yaw": "1.491279006", "lon": -95.4045621, "heading": 85, "speed": 0.049000002443790436, "roll": "-0.0153301963583"}
{"pitch": "0.0176266171038", "lat": 29.7132833, "timestamp": 1603394662.844248, "alt": 10.03, "yaw": "1.49133658409", "lon": -95.4045618, "heading": 85, "speed": 0.018000001087784767, "roll": "-0.0155234830454"}
{"pitch": "0.0176822114736", "lat": 29.7132839, "timestamp": 1603394663.345436, "alt": 10.03, "yaw": "1.49136567116", "lon": -95.4045616, "heading": 85, "speed": 0.036000002175569534, "roll": "-0.0155988866463"}
{"pitch": "0.0177096407861", "lat": 29.7132845, "timestamp": 1603394663.846601, "alt": 10.04, "yaw": "1.49140357971", "lon": -95.4045614, "heading": 85, "speed": 0.01600000075995922, "roll": "-0.0155262323096"}
{"pitch": "0.0178622771055", "lat": 29.7132853, "timestamp": 1603394664.348527, "alt": 10.05, "yaw": "1.49137890339", "lon": -95.4045615, "heading": 85, "speed": 0.018000001087784767, "roll": "-0.0156830474734"}
{"pitch": "0.0180555973202", "lat": 29.713286, "timestamp": 1603394664.849678, "alt": 10.04, "yaw": "1.49146664143", "lon": -95.4045617, "heading": 85, "speed": 0.04500000178813934, "roll": "-0.0157054197043"}
{"pitch": "0.0181484259665", "lat": 29.7132869, "timestamp": 1603394665.350397, "alt": 10.0, "yaw": "1.4914919138", "lon": -95.404562, "heading": 85, "speed": 0.01900000125169754, "roll": "-0.0157588869333"}
{"pitch": "0.0182353109121", "lat": 29.7132878, "timestamp": 1603394665.851161, "alt": 9.98, "yaw": "1.49150204659", "lon": -95.4045624, "heading": 85, "speed": 0.014000000432133675, "roll": "-0.0157189071178"}
{"pitch": "0.0183233879507", "lat": 29.7132886, "timestamp": 1603394666.352353, "alt": 9.95, "yaw": "1.49155879021", "lon": -95.404563, "heading": 85, "speed": 0.01100000087171793, "roll": "-0.0156189771369"}
{"pitch": "0.0183316655457", "lat": 29.7132895, "timestamp": 1603394666.853653, "alt": 9.92, "yaw": "1.49166274071", "lon": -95.4045638, "heading": 85, "speed": 0.0430000014603138, "roll": "-0.0154335638508"}
{"pitch": "0.0182914491743", "lat": 29.71329, "timestamp": 1603394667.356826, "alt": 9.89, "yaw": "1.49168586731", "lon": -95.4045643, "heading": 85, "speed": 0.03200000151991844, "roll": "-0.0151352686808"}
{"pitch": "0.0181739330292", "lat": 29.7132905, "timestamp": 1603394667.858105, "alt": 9.87, "yaw": "1.49185156822", "lon": -95.4045648, "heading": 85, "speed": 0.023000001907348633, "roll": "-0.0149166183546"}
{"pitch": "0.0182351917028", "lat": 29.7132908, "timestamp": 1603394668.359228, "alt": 9.84, "yaw": "1.49203646183", "lon": -95.4045653, "heading": 85, "speed": 0.01600000075995922, "roll": "-0.0147020844743"}
{"pitch": "0.0180135928094", "lat": 29.7132912, "timestamp": 1603394668.860322, "alt": 9.82, "yaw": "1.49204230309", "lon": -95.4045658, "heading": 85, "speed": 0.04500000178813934, "roll": "-0.0145179806277"}
{"pitch": "0.017903489992", "lat": 29.7132915, "timestamp": 1603394669.361434, "alt": 9.81, "yaw": "1.49199771881", "lon": -95.4045662, "heading": 85, "speed": 0.03500000014901161, "roll": "-0.0143093625084"}
{"pitch": "0.0177404601127", "lat": 29.7132917, "timestamp": 1603394669.862613, "alt": 9.78, "yaw": "1.49204027653", "lon": -95.4045666, "heading": 85, "speed": 0.036000002175569534, "roll": "-0.0140872867778"}
{"pitch": "0.0176197551191", "lat": 29.7132919, "timestamp": 1603394670.36373, "alt": 9.77, "yaw": "1.49208462238", "lon": -95.404567, "heading": 85, "speed": 0.03400000184774399, "roll": "-0.0137033043429"}
{"pitch": "0.0175329633057", "lat": 29.713292, "timestamp": 1603394670.865029, "alt": 9.75, "yaw": "1.4920425415", "lon": -95.4045673, "heading": 85, "speed": 0.017000000923871994, "roll": "-0.0135205341503"}
{"pitch": "0.0173442326486", "lat": 29.7132922, "timestamp": 1603394671.366223, "alt": 9.73, "yaw": "1.49203717709", "lon": -95.4045677, "heading": 85, "speed": 0.032999999821186066, "roll": "-0.0135264592245"}
{"pitch": "0.0173064544797", "lat": 29.7132923, "timestamp": 1603394671.867376, "alt": 9.71, "yaw": "1.49207401276", "lon": -95.4045681, "heading": 85, "speed": 0.03200000151991844, "roll": "-0.0136473262683"}
{"pitch": "0.0171129144728", "lat": 29.7132924, "timestamp": 1603394672.368553, "alt": 9.7, "yaw": "1.49204468727", "lon": -95.4045685, "heading": 85, "speed": 0.02200000174343586, "roll": "-0.0136189153418"}
{"pitch": "0.0170191861689", "lat": 29.7132925, "timestamp": 1603394672.869738, "alt": 9.69, "yaw": "1.49204623699", "lon": -95.4045689, "heading": 85, "speed": 0.017000000923871994, "roll": "-0.0135856745765"}
{"pitch": "0.0169636886567", "lat": 29.7132925, "timestamp": 1603394673.371004, "alt": 9.68, "yaw": "1.49195051193", "lon": -95.4045694, "heading": 85, "speed": 0.009000000543892384, "roll": "-0.0135960886255"}
{"pitch": "0.0168541651219", "lat": 29.7132923, "timestamp": 1603394673.872134, "alt": 9.66, "yaw": "1.49172997475", "lon": -95.4045699, "heading": 85, "speed": 0.01900000125169754, "roll": "-0.0136734796688"}
{"pitch": "0.0167452525347", "lat": 29.7132923, "timestamp": 1603394674.373361, "alt": 9.66, "yaw": "1.49162852764", "lon": -95.4045701, "heading": 85, "speed": 0.029000001028180122, "roll": "-0.0138821685687"}
{"pitch": "0.0167384725064", "lat": 29.713292, "timestamp": 1603394674.874565, "alt": 9.63, "yaw": "1.4917525053", "lon": -95.4045707, "heading": 85, "speed": 0.007000000216066837, "roll": "-0.0141047416255"}
{"pitch": "0.0166518930346", "lat": 29.7132918, "timestamp": 1603394675.375767, "alt": 9.61, "yaw": "1.49177229404", "lon": -95.4045712, "heading": 85, "speed": 0.036000002175569534, "roll": "-0.0142046632245"}
{"pitch": "0.0164527855814", "lat": 29.7132916, "timestamp": 1603394675.877337, "alt": 9.6, "yaw": "1.49167215824", "lon": -95.4045717, "heading": 85, "speed": 0.02800000086426735, "roll": "-0.0144071457908"}
{"pitch": "0.0164736416191", "lat": 29.7132912, "timestamp": 1603394676.378508, "alt": 9.59, "yaw": "1.49168765545", "lon": -95.4045722, "heading": 85, "speed": 0.05900000408291817, "roll": "-0.0145095298067"}
{"pitch": "0.0165427345783", "lat": 29.7132909, "timestamp": 1603394676.879292, "alt": 9.58, "yaw": "1.49154806137", "lon": -95.4045728, "heading": 85, "speed": 0.026000000536441803, "roll": "-0.0146869132295"}
{"pitch": "0.0165457613766", "lat": 29.7132905, "timestamp": 1603394677.380433, "alt": 9.57, "yaw": "1.49155294895", "lon": -95.4045733, "heading": 85, "speed": 0.049000002443790436, "roll": "-0.0147969098762"}
{"pitch": "0.0166038889438", "lat": 29.7132901, "timestamp": 1603394677.881518, "alt": 9.58, "yaw": "1.49171698093", "lon": -95.4045739, "heading": 85, "speed": 0.02200000174343586, "roll": "-0.0148599790409"}
{"pitch": "0.01658811979", "lat": 29.7132897, "timestamp": 1603394678.382658, "alt": 9.59, "yaw": "1.49169564247", "lon": -95.4045745, "heading": 85, "speed": 0.03700000047683716, "roll": "-0.0150088137016"}
{"pitch": "0.0163121055812", "lat": 29.7132893, "timestamp": 1603394678.883799, "alt": 9.58, "yaw": "1.49175810814", "lon": -95.4045749, "heading": 85, "speed": 0.07500000298023224, "roll": "-0.0151204383001"}
{"pitch": "0.0161108076572", "lat": 29.713289, "timestamp": 1603394679.385045, "alt": 9.57, "yaw": "1.49181342125", "lon": -95.4045753, "heading": 85, "speed": 0.04700000211596489, "roll": "-0.0155648132786"}
{"pitch": "0.0161665547639", "lat": 29.7132889, "timestamp": 1603394679.886796, "alt": 9.56, "yaw": "1.49184989929", "lon": -95.4045759, "heading": 85, "speed": 0.026000000536441803, "roll": "-0.0158676952124"}
{"pitch": "0.0161440372467", "lat": 29.7132887, "timestamp": 1603394680.388267, "alt": 9.56, "yaw": "1.49197590351", "lon": -95.4045764, "heading": 85, "speed": 0.04200000315904617, "roll": "-0.0160585418344"}
{"pitch": "0.0162159428", "lat": 29.7132886, "timestamp": 1603394680.889429, "alt": 9.56, "yaw": "1.4919513464", "lon": -95.4045769, "heading": 85, "speed": 0.049000002443790436, "roll": "-0.0162450093776"}
{"pitch": "0.0162462424487", "lat": 29.7132885, "timestamp": 1603394681.390644, "alt": 9.55, "yaw": "1.49203419685", "lon": -95.4045774, "heading": 85, "speed": 0.024000000208616257, "roll": "-0.0164296403527"}
{"pitch": "0.0162937752903", "lat": 29.7132882, "timestamp": 1603394681.891815, "alt": 9.53, "yaw": "1.49206793308", "lon": -95.4045781, "heading": 85, "speed": 0.06800000369548798, "roll": "-0.0164748113602"}
{"pitch": "0.0161611232907", "lat": 29.7132878, "timestamp": 1603394682.392974, "alt": 9.54, "yaw": "1.49203062057", "lon": -95.4045785, "heading": 85, "speed": 0.03100000135600567, "roll": "-0.0162397120148"}
{"pitch": "0.0162300225347", "lat": 29.7132875, "timestamp": 1603394682.894125, "alt": 9.55, "yaw": "1.49214184284", "lon": -95.4045789, "heading": 85, "speed": 0.03200000151991844, "roll": "-0.0162606853992"}
{"pitch": "0.015989150852", "lat": 29.7132873, "timestamp": 1603394683.395127, "alt": 9.56, "yaw": "1.49208247662", "lon": -95.4045791, "heading": 85, "speed": 0.07100000232458115, "roll": "-0.0164009463042"}
{"pitch": "0.0159380473197", "lat": 29.7132871, "timestamp": 1603394683.896291, "alt": 9.57, "yaw": "1.49210882187", "lon": -95.4045793, "heading": 85, "speed": 0.09200000762939453, "roll": "-0.0164433363825"}
{"pitch": "0.0157668441534", "lat": 29.7132869, "timestamp": 1603394684.397503, "alt": 9.59, "yaw": "1.49203288555", "lon": -95.4045793, "heading": 85, "speed": 0.03100000135600567, "roll": "-0.0163532663137"}
{"pitch": "0.0157847255468", "lat": 29.7132866, "timestamp": 1603394684.898723, "alt": 9.6, "yaw": "1.49216389656", "lon": -95.4045794, "heading": 85, "speed": 0.021000001579523087, "roll": "-0.0162636917084"}
{"pitch": "0.015763187781", "lat": 29.7132864, "timestamp": 1603394685.399836, "alt": 9.6, "yaw": "1.49218952656", "lon": -95.4045795, "heading": 85, "speed": 0.06300000101327896, "roll": "-0.0162137132138"}
{"pitch": "0.0157013554126", "lat": 29.7132861, "timestamp": 1603394685.900948, "alt": 9.61, "yaw": "1.49243068695", "lon": -95.4045796, "heading": 85, "speed": 0.04500000178813934, "roll": "-0.0162998512387"}
{"pitch": "0.0156564619392", "lat": 29.7132858, "timestamp": 1603394686.40205, "alt": 9.62, "yaw": "1.49258446693", "lon": -95.4045797, "heading": 85, "speed": 0.03800000250339508, "roll": "-0.016142860055"}
{"pitch": "0.0158528815955", "lat": 29.7132856, "timestamp": 1603394686.903159, "alt": 9.64, "yaw": "1.49279344082", "lon": -95.4045798, "heading": 85, "speed": 0.08000000566244125, "roll": "-0.0162560082972"}
{"pitch": "0.0160301290452", "lat": 29.7132855, "timestamp": 1603394687.404387, "alt": 9.65, "yaw": "1.49285149574", "lon": -95.40458, "heading": 85, "speed": 0.005000000353902578, "roll": "-0.0163549054414"}
{"pitch": "0.0160057507455", "lat": 29.7132855, "timestamp": 1603394687.905542, "alt": 9.65, "yaw": "1.49303936958", "lon": -95.4045801, "heading": 85, "speed": 0.04800000041723251, "roll": "-0.0163778681308"}
{"pitch": "0.0159360934049", "lat": 29.7132855, "timestamp": 1603394688.406705, "alt": 9.66, "yaw": "1.4930177927", "lon": -95.4045801, "heading": 85, "speed": 0.01600000075995922, "roll": "-0.0164751894772"}
{"pitch": "0.0159409530461", "lat": 29.7132856, "timestamp": 1603394688.907869, "alt": 9.66, "yaw": "1.4931665659", "lon": -95.4045801, "heading": 85, "speed": 0.05100000277161598, "roll": "-0.0165815558285"}
{"pitch": "0.0158733893186", "lat": 29.7132857, "timestamp": 1603394689.40905, "alt": 9.67, "yaw": "1.49317705631", "lon": -95.4045801, "heading": 85, "speed": 0.036000002175569534, "roll": "-0.0165550336242"}
{"pitch": "0.0158076714724", "lat": 29.7132857, "timestamp": 1603394689.910255, "alt": 9.67, "yaw": "1.49310719967", "lon": -95.4045799, "heading": 85, "speed": 0.009000000543892384, "roll": "-0.0163435954601"}
{"pitch": "0.0160877741873", "lat": 29.7132858, "timestamp": 1603394690.411434, "alt": 9.68, "yaw": "1.49326241016", "lon": -95.4045798, "heading": 85, "speed": 0.0430000014603138, "roll": "-0.016319680959"}
{"pitch": "0.0161812212318", "lat": 29.7132859, "timestamp": 1603394690.912619, "alt": 9.69, "yaw": "1.49326634407", "lon": -95.4045797, "heading": 85, "speed": 0.012000000104308128, "roll": "-0.0162107814103"}
{"pitch": "0.0163517557085", "lat": 29.713286, "timestamp": 1603394691.413832, "alt": 9.68, "yaw": "1.49344360828", "lon": -95.4045796, "heading": 85, "speed": 0.05400000140070915, "roll": "-0.0161310974509"}
{"pitch": "0.016441391781", "lat": 29.7132861, "timestamp": 1603394691.915302, "alt": 9.67, "yaw": "1.49345910549", "lon": -95.4045795, "heading": 85, "speed": 0.03100000135600567, "roll": "-0.0160183869302"}
{"pitch": "0.0165535658598", "lat": 29.7132862, "timestamp": 1603394692.417038, "alt": 9.66, "yaw": "1.49345803261", "lon": -95.4045793, "heading": 85, "speed": 0.017000000923871994, "roll": "-0.0159364584833"}
{"pitch": "0.0166783668101", "lat": 29.7132864, "timestamp": 1603394692.918144, "alt": 9.65, "yaw": "1.49349188805", "lon": -95.4045791, "heading": 85, "speed": 0.007000000216066837, "roll": "-0.015921248123"}
{"pitch": "0.0167263951153", "lat": 29.7132866, "timestamp": 1603394693.419236, "alt": 9.65, "yaw": "1.49339842796", "lon": -95.404579, "heading": 85, "speed": 0.036000002175569534, "roll": "-0.0159032810479"}
{"pitch": "0.0167117025703", "lat": 29.7132869, "timestamp": 1603394693.920329, "alt": 9.65, "yaw": "1.49348533154", "lon": -95.4045788, "heading": 85, "speed": 0.03100000135600567, "roll": "-0.0158766843379"}
{"pitch": "0.016746846959", "lat": 29.7132872, "timestamp": 1603394694.421432, "alt": 9.64, "yaw": "1.49345326424", "lon": -95.4045787, "heading": 85, "speed": 0.026000000536441803, "roll": "-0.0158594548702"}
{"pitch": "0.0168559532613", "lat": 29.7132875, "timestamp": 1603394694.922623, "alt": 9.64, "yaw": "1.49357926846", "lon": -95.4045786, "heading": 85, "speed": 0.014000000432133675, "roll": "-0.0158839188516"}
{"pitch": "0.0170191656798", "lat": 29.7132879, "timestamp": 1603394695.423915, "alt": 9.63, "yaw": "1.49363124371", "lon": -95.4045787, "heading": 85, "speed": 0.007000000216066837, "roll": "-0.0160004701465"}
{"pitch": "0.0170182641596", "lat": 29.7132884, "timestamp": 1603394695.925494, "alt": 9.63, "yaw": "1.4936337471", "lon": -95.4045788, "heading": 85, "speed": 0.024000000208616257, "roll": "-0.0159644000232"}
{"pitch": "0.0169893577695", "lat": 29.7132888, "timestamp": 1603394696.426651, "alt": 9.62, "yaw": "1.49367594719", "lon": -95.4045788, "heading": 85, "speed": 0.058000002056360245, "roll": "-0.0157533120364"}
{"pitch": "0.0169648770243", "lat": 29.713289, "timestamp": 1603394696.928024, "alt": 9.59, "yaw": "1.49365675449", "lon": -95.4045788, "heading": 85, "speed": 0.030000001192092896, "roll": "-0.0154277617112"}
{"pitch": "0.0171577855945", "lat": 29.7132895, "timestamp": 1603394697.42919, "alt": 9.54, "yaw": "1.49361634254", "lon": -95.4045789, "heading": 85, "speed": 0.03400000184774399, "roll": "-0.0151275163516"}
{"pitch": "0.0169468410313", "lat": 29.7132898, "timestamp": 1603394697.930608, "alt": 9.51, "yaw": "1.49378228188", "lon": -95.4045789, "heading": 85, "speed": 0.02200000174343586, "roll": "-0.0149651272222"}
{"pitch": "0.0170119293034", "lat": 29.71329, "timestamp": 1603394698.431542, "alt": 9.49, "yaw": "1.49377727509", "lon": -95.4045791, "heading": 85, "speed": 0.01900000125169754, "roll": "-0.0149046881124"}
{"pitch": "0.0170065257698", "lat": 29.7132903, "timestamp": 1603394698.932794, "alt": 9.46, "yaw": "1.4939084053", "lon": -95.4045793, "heading": 85, "speed": 0.030000001192092896, "roll": "-0.0148020973429"}
{"pitch": "0.0169236771762", "lat": 29.7132907, "timestamp": 1603394699.433943, "alt": 9.43, "yaw": "1.49397826195", "lon": -95.4045795, "heading": 85, "speed": 0.03700000047683716, "roll": "-0.0147615997121"}
{"pitch": "0.0169631447643", "lat": 29.713291, "timestamp": 1603394699.935204, "alt": 9.41, "yaw": "1.49387192726", "lon": -95.4045798, "heading": 85, "speed": 0.058000002056360245, "roll": "-0.0146130053326"}
{"pitch": "0.0170909762383", "lat": 29.7132914, "timestamp": 1603394700.438896, "alt": 9.37, "yaw": "1.49397516251", "lon": -95.4045802, "heading": 85, "speed": 0.01600000075995922, "roll": "-0.014598348178"}
{"pitch": "0.0171659365296", "lat": 29.7132917, "timestamp": 1603394700.939988, "alt": 9.34, "yaw": "1.49392855167", "lon": -95.4045806, "heading": 85, "speed": 0.013000000268220901, "roll": "-0.014691718854"}
{"pitch": "0.0171596165746", "lat": 29.713292, "timestamp": 1603394701.441131, "alt": 9.3, "yaw": "1.49396944046", "lon": -95.404581, "heading": 85, "speed": 0.013000000268220901, "roll": "-0.0145862931386"}
{"pitch": "0.0171241983771", "lat": 29.7132923, "timestamp": 1603394701.94222, "alt": 9.27, "yaw": "1.49401724339", "lon": -95.4045814, "heading": 85, "speed": 0.02500000037252903, "roll": "-0.0146497907117"}
{"pitch": "0.0171220842749", "lat": 29.7132925, "timestamp": 1603394702.443321, "alt": 9.23, "yaw": "1.49401843548", "lon": -95.4045817, "heading": 85, "speed": 0.03100000135600567, "roll": "-0.0145544977859"}
{"pitch": "0.0171324145049", "lat": 29.7132927, "timestamp": 1603394702.944775, "alt": 9.21, "yaw": "1.49395263195", "lon": -95.4045822, "heading": 85, "speed": 0.03200000151991844, "roll": "-0.0145608605817"}
{"pitch": "0.0171656832099", "lat": 29.7132929, "timestamp": 1603394703.446262, "alt": 9.18, "yaw": "1.49381029606", "lon": -95.4045826, "heading": 85, "speed": 0.026000000536441803, "roll": "-0.0146006168798"}
{"pitch": "0.0169111993164", "lat": 29.713293, "timestamp": 1603394703.94739, "alt": 9.16, "yaw": "1.49387013912", "lon": -95.4045828, "heading": 85, "speed": 0.01600000075995922, "roll": "-0.0143778780475"}
{"pitch": "0.0169207137078", "lat": 29.7132931, "timestamp": 1603394704.448515, "alt": 9.13, "yaw": "1.493724823", "lon": -95.4045831, "heading": 85, "speed": 0.03500000014901161, "roll": "-0.0140206264332"}
{"pitch": "0.0170384626836", "lat": 29.713293, "timestamp": 1603394704.949947, "alt": 9.11, "yaw": "1.49376261234", "lon": -95.4045833, "heading": 85, "speed": 0.04700000211596489, "roll": "-0.013816059567"}
{"pitch": "0.0168872252107", "lat": 29.7132929, "timestamp": 1603394705.454972, "alt": 9.1, "yaw": "1.49379718304", "lon": -95.4045833, "heading": 85, "speed": 0.017000000923871994, "roll": "-0.0136902527884"}
{"pitch": "0.0165043193847", "lat": 29.7132928, "timestamp": 1603394705.956158, "alt": 9.11, "yaw": "1.49381899834", "lon": -95.4045832, "heading": 85, "speed": 0.004000000189989805, "roll": "-0.0134726623073"}
{"pitch": "0.0164322406054", "lat": 29.7132927, "timestamp": 1603394706.457395, "alt": 9.12, "yaw": "1.4938365221", "lon": -95.4045832, "heading": 85, "speed": 0.0430000014603138, "roll": "-0.0134836724028"}
{"pitch": "0.0164443794638", "lat": 29.7132927, "timestamp": 1603394706.958548, "alt": 9.11, "yaw": "1.49373292923", "lon": -95.4045831, "heading": 85, "speed": 0.01600000075995922, "roll": "-0.01366079133"}
{"pitch": "0.0164842326194", "lat": 29.7132928, "timestamp": 1603394707.459688, "alt": 9.12, "yaw": "1.4936132431", "lon": -95.4045831, "heading": 85, "speed": 0.010000000707805157, "roll": "-0.0137762250379"}
{"pitch": "0.0167336836457", "lat": 29.7132928, "timestamp": 1603394707.960785, "alt": 9.13, "yaw": "1.49359059334", "lon": -95.4045831, "heading": 85, "speed": 0.03500000014901161, "roll": "-0.0138780483976"}
{"pitch": "0.0166973527521", "lat": 29.713293, "timestamp": 1603394708.461905, "alt": 9.14, "yaw": "1.49349141121", "lon": -95.4045831, "heading": 85, "speed": 0.00800000037997961, "roll": "-0.0140624186024"}
{"pitch": "0.0167356804013", "lat": 29.7132931, "timestamp": 1603394708.963016, "alt": 9.15, "yaw": "1.49342870712", "lon": -95.404583, "heading": 85, "speed": 0.020000001415610313, "roll": "-0.014104497619"}
{"pitch": "0.0167264062911", "lat": 29.7132933, "timestamp": 1603394709.464105, "alt": 9.16, "yaw": "1.49341738224", "lon": -95.4045829, "heading": 85, "speed": 0.027000000700354576, "roll": "-0.0141623085365"}
{"pitch": "0.0166952200234", "lat": 29.7132934, "timestamp": 1603394709.965293, "alt": 9.15, "yaw": "1.49346745014", "lon": -95.4045828, "heading": 85, "speed": 0.024000000208616257, "roll": "-0.014101232402"}
{"pitch": "0.0168578680605", "lat": 29.7132935, "timestamp": 1603394710.485664, "alt": 9.14, "yaw": "1.49351632595", "lon": -95.4045827, "heading": 85, "speed": 0.02800000086426735, "roll": "-0.0142291514203"}
{"pitch": "0.0171225722879", "lat": 29.7132938, "timestamp": 1603394710.986995, "alt": 9.13, "yaw": "1.49358320236", "lon": -95.4045829, "heading": 85, "speed": 0.052000001072883606, "roll": "-0.0145018966869"}
{"pitch": "0.01731329225", "lat": 29.713294, "timestamp": 1603394711.488363, "alt": 9.11, "yaw": "1.49351751804", "lon": -95.4045832, "heading": 85, "speed": 0.09000000357627869, "roll": "-0.0146598154679"}
{"pitch": "0.0174293965101", "lat": 29.7132942, "timestamp": 1603394711.989516, "alt": 9.1, "yaw": "1.49363434315", "lon": -95.4045836, "heading": 85, "speed": 0.049000002443790436, "roll": "-0.01474700775"}
{"pitch": "0.0174971111119", "lat": 29.7132946, "timestamp": 1603394712.490674, "alt": 9.11, "yaw": "1.49378418922", "lon": -95.4045841, "heading": 85, "speed": 0.04000000283122063, "roll": "-0.0148850297555"}
{"pitch": "0.0174114331603", "lat": 29.7132948, "timestamp": 1603394712.991805, "alt": 9.1, "yaw": "1.49369645119", "lon": -95.4045843, "heading": 85, "speed": 0.013000000268220901, "roll": "-0.0148920575157"}
{"pitch": "0.017231753096", "lat": 29.7132949, "timestamp": 1603394713.492949, "alt": 9.09, "yaw": "1.4935977459", "lon": -95.4045843, "heading": 85, "speed": 0.020000001415610313, "roll": "-0.0147184832022"}
{"pitch": "0.017105601728", "lat": 29.7132949, "timestamp": 1603394713.994383, "alt": 9.09, "yaw": "1.49354124069", "lon": -95.4045842, "heading": 85, "speed": 0.03800000250339508, "roll": "-0.0146494144574"}
{"pitch": "0.016826255247", "lat": 29.7132949, "timestamp": 1603394714.495511, "alt": 9.1, "yaw": "1.49343574047", "lon": -95.4045839, "heading": 85, "speed": 0.05700000375509262, "roll": "-0.0146514670923"}
{"pitch": "0.016660509631", "lat": 29.7132949, "timestamp": 1603394714.996646, "alt": 9.13, "yaw": "1.49343216419", "lon": -95.4045836, "heading": 85, "speed": 0.015000000596046448, "roll": "-0.0146949244663"}
{"pitch": "0.0164674352854", "lat": 29.713295, "timestamp": 1603394715.504334, "alt": 9.14, "yaw": "1.49339592457", "lon": -95.4045832, "heading": 85, "speed": 0.012000000104308128, "roll": "-0.014767174609"}
{"pitch": "0.0163709130138", "lat": 29.7132951, "timestamp": 1603394716.005431, "alt": 9.15, "yaw": "1.49343466759", "lon": -95.4045828, "heading": 85, "speed": 0.046000003814697266, "roll": "-0.014823266305"}
{"pitch": "0.0163730308414", "lat": 29.713295, "timestamp": 1603394716.506604, "alt": 9.18, "yaw": "1.49329710007", "lon": -95.4045824, "heading": 85, "speed": 0.03400000184774399, "roll": "-0.0147828226909"}
{"pitch": "0.0164451096207", "lat": 29.713295, "timestamp": 1603394717.007701, "alt": 9.22, "yaw": "1.49319529533", "lon": -95.404582, "heading": 85, "speed": 0.08700000494718552, "roll": "-0.0148481046781"}
{"pitch": "0.0165301952511", "lat": 29.7132949, "timestamp": 1603394717.508848, "alt": 9.27, "yaw": "1.49321782589", "lon": -95.4045817, "heading": 85, "speed": 0.02500000037252903, "roll": "-0.0147775271907"}
{"pitch": "0.0164461638778", "lat": 29.7132949, "timestamp": 1603394718.01011, "alt": 9.29, "yaw": "1.49311935902", "lon": -95.4045813, "heading": 85, "speed": 0.013000000268220901, "roll": "-0.0148799112067"}
{"pitch": "0.0164388678968", "lat": 29.7132949, "timestamp": 1603394718.511361, "alt": 9.3, "yaw": "1.49312973022", "lon": -95.404581, "heading": 85, "speed": 0.03400000184774399, "roll": "-0.0149146514013"}
{"pitch": "0.0162628944963", "lat": 29.7132949, "timestamp": 1603394719.013296, "alt": 9.31, "yaw": "1.49320101738", "lon": -95.4045806, "heading": 85, "speed": 0.01900000125169754, "roll": "-0.0150223849341"}
{"pitch": "0.016351364553", "lat": 29.7132949, "timestamp": 1603394719.516702, "alt": 9.33, "yaw": "1.4932012558", "lon": -95.4045803, "heading": 85, "speed": 0.07300000637769699, "roll": "-0.0151014132425"}
{"pitch": "0.0164394658059", "lat": 29.713295, "timestamp": 1603394720.017766, "alt": 9.43, "yaw": "1.49317228794", "lon": -95.4045799, "heading": 85, "speed": 0.023000001907348633, "roll": "-0.01533252839"}
{"pitch": "0.0168352965266", "lat": 29.7132949, "timestamp": 1603394720.519138, "alt": 9.49, "yaw": "1.49297451973", "lon": -95.4045797, "heading": 85, "speed": 0.030000001192092896, "roll": "-0.0155194560066"}
{"pitch": "0.016869885847", "lat": 29.7132948, "timestamp": 1603394721.020428, "alt": 9.55, "yaw": "1.49290621281", "lon": -95.4045797, "heading": 85, "speed": 0.00800000037997961, "roll": "-0.0155444061384"}
{"pitch": "0.0171121545136", "lat": 29.7132946, "timestamp": 1603394721.521891, "alt": 9.6, "yaw": "1.49279344082", "lon": -95.4045797, "heading": 85, "speed": 0.024000000208616257, "roll": "-0.0154784964398"}
{"pitch": "0.0170925203711", "lat": 29.7132944, "timestamp": 1603394722.023031, "alt": 9.67, "yaw": "1.49277758598", "lon": -95.4045797, "heading": 85, "speed": 0.018000001087784767, "roll": "-0.0153458537534"}
{"pitch": "0.0172817111015", "lat": 29.7132941, "timestamp": 1603394722.524133, "alt": 9.71, "yaw": "1.49272191525", "lon": -95.4045798, "heading": 85, "speed": 0.026000000536441803, "roll": "-0.0153047377244"}
{"pitch": "0.0173974595964", "lat": 29.7132938, "timestamp": 1603394723.025292, "alt": 9.78, "yaw": "1.49255955219", "lon": -95.4045798, "heading": 85, "speed": 0.024000000208616257, "roll": "-0.0154176698998"}
{"pitch": "0.0175668932498", "lat": 29.7132934, "timestamp": 1603394723.527743, "alt": 9.81, "yaw": "1.4924094677", "lon": -95.40458, "heading": 85, "speed": 0.049000002443790436, "roll": "-0.0154292201623"}
{"pitch": "0.0177785102278", "lat": 29.7132931, "timestamp": 1603394724.028411, "alt": 9.88, "yaw": "1.49245095253", "lon": -95.4045802, "heading": 85, "speed": 0.010000000707805157, "roll": "-0.0154985236004"}
{"pitch": "0.0177571754903", "lat": 29.7132927, "timestamp": 1603394724.529571, "alt": 9.93, "yaw": "1.49231255054", "lon": -95.4045804, "heading": 85, "speed": 0.02200000174343586, "roll": "-0.0155844641849"}
{"pitch": "0.0178024917841", "lat": 29.7132925, "timestamp": 1603394725.030756, "alt": 9.98, "yaw": "1.49221467972", "lon": -95.4045806, "heading": 85, "speed": 0.1290000081062317, "roll": "-0.0156926549971"}
{"pitch": "0.0178904943168", "lat": 29.7132919, "timestamp": 1603394725.531587, "alt": 10.05, "yaw": "1.49237513542", "lon": -95.4045809, "heading": 85, "speed": 0.27400001883506775, "roll": "-0.015476112254"}
{"pitch": "0.0173609144986", "lat": 29.7132917, "timestamp": 1603394726.052276, "alt": 10.09, "yaw": "1.49251151085", "lon": -95.4045811, "heading": 85, "speed": 0.10900000482797623, "roll": "-0.0162992067635"}
{"pitch": "0.0166525058448", "lat": 29.7132914, "timestamp": 1603394726.553475, "alt": 10.13, "yaw": "1.49175155163", "lon": -95.4045811, "heading": 85, "speed": 0.012000000104308128, "roll": "-0.0133723365143"}
{"pitch": "0.0174379609525", "lat": 29.7132912, "timestamp": 1603394727.054663, "alt": 10.14, "yaw": "1.49258160591", "lon": -95.4045812, "heading": 85, "speed": 0.12700000405311584, "roll": "-0.0167152751237"}
{"pitch": "0.0118004977703", "lat": 29.7132911, "timestamp": 1603394727.55585, "alt": 10.16, "yaw": "1.49482870102", "lon": -95.4045812, "heading": 85, "speed": 0.06200000271201134, "roll": "-0.0141672072932"}
{"pitch": "-0.00688881333917", "lat": 29.7132911, "timestamp": 1603394728.056998, "alt": 10.23, "yaw": "1.63637566566", "lon": -95.4045813, "heading": 90, "speed": 0.030000001192092896, "roll": "-0.225885421038"}
{"pitch": "0.152965128422", "lat": 29.7132912, "timestamp": 1603394728.55816, "alt": 10.38, "yaw": "1.75495314598", "lon": -95.4045821, "heading": 100, "speed": 0.2120000123977661, "roll": "-0.471012353897"}
{"pitch": "0.222562342882", "lat": 29.7132911, "timestamp": 1603394729.059485, "alt": 10.54, "yaw": "1.86490988731", "lon": -95.404582, "heading": 106, "speed": 0.055000003427267075, "roll": "-0.507976174355"}
{"pitch": "0.162381440401", "lat": 29.7132906, "timestamp": 1603394729.560597, "alt": 10.84, "yaw": "1.96142494678", "lon": -95.4045816, "heading": 112, "speed": 0.35500001907348633, "roll": "-0.587244212627"}
{"pitch": "0.206473857164", "lat": 29.7132895, "timestamp": 1603394730.061751, "alt": 11.0, "yaw": "1.95247519016", "lon": -95.404579, "heading": 111, "speed": 0.44200003147125244, "roll": "-0.593322038651"}
{"pitch": "0.204190790653", "lat": 29.7132872, "timestamp": 1603394730.562879, "alt": 11.0, "yaw": "1.91376268864", "lon": -95.4045756, "heading": 109, "speed": 0.8100000619888306, "roll": "-0.566561818123"}
{"pitch": "0.233573928475", "lat": 29.7132851, "timestamp": 1603394731.068236, "alt": 11.04, "yaw": "1.95631635189", "lon": -95.4045716, "heading": 112, "speed": 0.9160000681877136, "roll": "-0.619641363621"}
{"pitch": "0.397588163614", "lat": 29.7132826, "timestamp": 1603394731.569398, "alt": 11.08, "yaw": "2.03404426575", "lon": -95.4045677, "heading": 116, "speed": 1.0730000734329224, "roll": "-0.613639175892"}
{"pitch": "0.30600336194", "lat": 29.7132804, "timestamp": 1603394732.070552, "alt": 11.06, "yaw": "2.11308455467", "lon": -95.4045635, "heading": 121, "speed": 0.9850000739097595, "roll": "-0.59364759922"}
