{"pitch": "0.0191735681146", "lat": 29.7133304, "timestamp": 1603398806.742332, "alt": 12.06, "yaw": "2.18826746941", "lon": -95.4043981, "heading": 125, "speed": 0.009000000543892384, "roll": "-0.0188649911433"}
{"pitch": "0.0191735681146", "lat": 29.7133302, "timestamp": 1603398807.243736, "alt": 12.01, "yaw": "2.18826746941", "lon": -95.4043979, "heading": 125, "speed": 0.009000000543892384, "roll": "-0.0188649911433"}
{"pitch": "0.0191169306636", "lat": 29.7133302, "timestamp": 1603398807.745023, "alt": 12.0, "yaw": "2.18829703331", "lon": -95.4043979, "heading": 125, "speed": 0.017000000923871994, "roll": "-0.019135825336"}
{"pitch": "0.0194180756807", "lat": 29.7133302, "timestamp": 1603398808.245702, "alt": 11.98, "yaw": "2.18788576126", "lon": -95.4043979, "heading": 125, "speed": 0.032999999821186066, "roll": "-0.0192798189819"}
{"pitch": "0.0194917041808", "lat": 29.7133303, "timestamp": 1603398808.746919, "alt": 11.94, "yaw": "2.18768167496", "lon": -95.4043978, "heading": 125, "speed": 0.01900000125169754, "roll": "-0.0191703438759"}
{"pitch": "0.0193407926708", "lat": 29.7133304, "timestamp": 1603398809.248121, "alt": 11.91, "yaw": "2.18821239471", "lon": -95.4043978, "heading": 125, "speed": 0.009000000543892384, "roll": "-0.0188309792429"}
{"pitch": "0.019321680069", "lat": 29.7133305, "timestamp": 1603398809.749277, "alt": 11.89, "yaw": "2.18806862831", "lon": -95.4043978, "heading": 125, "speed": 0.021000001579523087, "roll": "-0.018505146727"}
{"pitch": "0.019526457414", "lat": 29.7133306, "timestamp": 1603398810.255168, "alt": 11.86, "yaw": "2.18824481964", "lon": -95.4043978, "heading": 125, "speed": 0.04700000211596489, "roll": "-0.0186795368791"}
{"pitch": "0.0193103998899", "lat": 29.7133306, "timestamp": 1603398810.756904, "alt": 11.83, "yaw": "2.18865919113", "lon": -95.4043978, "heading": 125, "speed": 0.018000001087784767, "roll": "-0.0185908004642"}
{"pitch": "0.0195540934801", "lat": 29.7133306, "timestamp": 1603398811.25802, "alt": 11.81, "yaw": "2.18868470192", "lon": -95.4043978, "heading": 125, "speed": 0.01900000125169754, "roll": "-0.0184281487018"}
{"pitch": "0.0194699838758", "lat": 29.7133306, "timestamp": 1603398811.758833, "alt": 11.78, "yaw": "2.18864035606", "lon": -95.4043978, "heading": 125, "speed": 0.021000001579523087, "roll": "-0.0181238483638"}
{"pitch": "0.0192953478545", "lat": 29.7133307, "timestamp": 1603398812.260406, "alt": 11.76, "yaw": "2.18890666962", "lon": -95.4043978, "heading": 125, "speed": 0.03700000047683716, "roll": "-0.0184590145946"}
{"pitch": "0.0192953478545", "lat": 29.7133308, "timestamp": 1603398812.394837, "alt": 11.75, "yaw": "2.18890666962", "lon": -95.4043978, "heading": 125, "speed": 0.02500000037252903, "roll": "-0.0184590145946"}
{"pitch": "0.0193237736821", "lat": 29.7133308, "timestamp": 1603398812.761618, "alt": 11.74, "yaw": "2.18887996674", "lon": -95.4043978, "heading": 125, "speed": 0.010000000707805157, "roll": "-0.0184058919549"}
{"pitch": "0.0193237736821", "lat": 29.7133309, "timestamp": 1603398812.896437, "alt": 11.73, "yaw": "2.18887996674", "lon": -95.4043979, "heading": 125, "speed": 0.010000000707805157, "roll": "-0.0184058919549"}
{"pitch": "0.0193308833987", "lat": 29.7133309, "timestamp": 1603398813.262802, "alt": 11.72, "yaw": "2.18890500069", "lon": -95.4043979, "heading": 125, "speed": 0.026000000536441803, "roll": "-0.0183763299137"}
{"pitch": "0.019351515919", "lat": 29.713331, "timestamp": 1603398813.39773, "alt": 11.71, "yaw": "2.18911075592", "lon": -95.4043979, "heading": 125, "speed": 0.026000000536441803, "roll": "-0.018493829295"}
{"pitch": "0.019462775439", "lat": 29.713331, "timestamp": 1603398813.763986, "alt": 11.7, "yaw": "2.18922710419", "lon": -95.4043979, "heading": 125, "speed": 0.05100000277161598, "roll": "-0.0185454022139"}
{"pitch": "0.019516594708", "lat": 29.713331, "timestamp": 1603398813.898983, "alt": 11.7, "yaw": "2.18929052353", "lon": -95.4043979, "heading": 125, "speed": 0.023000001907348633, "roll": "-0.0187321640551"}
{"pitch": "0.0194242708385", "lat": 29.7133311, "timestamp": 1603398814.265279, "alt": 11.67, "yaw": "2.1893954277", "lon": -95.4043979, "heading": 125, "speed": 0.04100000113248825, "roll": "-0.0186840910465"}
{"pitch": "0.0191047247499", "lat": 29.7133311, "timestamp": 1603398814.400292, "alt": 11.67, "yaw": "2.18919563293", "lon": -95.4043979, "heading": 125, "speed": 0.02200000174343586, "roll": "-0.0187668371946"}
{"pitch": "0.0190269574523", "lat": 29.7133312, "timestamp": 1603398814.768501, "alt": 11.65, "yaw": "2.18939590454", "lon": -95.4043979, "heading": 125, "speed": 0.0010000000474974513, "roll": "-0.0186099912971"}
{"pitch": "0.019606506452", "lat": 29.7133312, "timestamp": 1603398814.901443, "alt": 11.65, "yaw": "2.18776893616", "lon": -95.4043979, "heading": 125, "speed": 0.017000000923871994, "roll": "-0.0184360332787"}
{"pitch": "0.0190381594002", "lat": 29.7133313, "timestamp": 1603398815.270907, "alt": 11.63, "yaw": "2.18788790703", "lon": -95.4043978, "heading": 125, "speed": 0.05000000074505806, "roll": "-0.0177404545248"}
{"pitch": "0.0190381594002", "lat": 29.7133313, "timestamp": 1603398815.402964, "alt": 11.63, "yaw": "2.18788790703", "lon": -95.4043978, "heading": 125, "speed": 0.05000000074505806, "roll": "-0.0177404545248"}
{"pitch": "0.0112648382783", "lat": 29.7133314, "timestamp": 1603398815.77211, "alt": 11.62, "yaw": "2.1641933918", "lon": -95.4043977, "heading": 124, "speed": 0.010000000707805157, "roll": "-0.0125889955088"}
{"pitch": "0.0112648382783", "lat": 29.7133315, "timestamp": 1603398815.90448, "alt": 11.69, "yaw": "2.1641933918", "lon": -95.4043977, "heading": 124, "speed": 0.010000000707805157, "roll": "-0.0125889955088"}
{"pitch": "-0.0300248302519", "lat": 29.7133319, "timestamp": 1603398816.273197, "alt": 11.82, "yaw": "2.10897874832", "lon": -95.4043977, "heading": 120, "speed": 0.16200000047683716, "roll": "-0.00754126161337"}
{"pitch": "-0.0300248302519", "lat": 29.7133325, "timestamp": 1603398816.406486, "alt": 12.04, "yaw": "2.10897874832", "lon": -95.4043976, "heading": 120, "speed": 0.16200000047683716, "roll": "-0.00754126161337"}
{"pitch": "-0.0382672585547", "lat": 29.7133332, "timestamp": 1603398816.77434, "alt": 12.32, "yaw": "2.10503149033", "lon": -95.4043973, "heading": 120, "speed": 0.2460000067949295, "roll": "0.0425260215998"}
{"pitch": "-0.0382672585547", "lat": 29.7133338, "timestamp": 1603398816.90764, "alt": 12.7, "yaw": "2.10503149033", "lon": -95.4043965, "heading": 120, "speed": 0.4540000259876251, "roll": "0.0425260215998"}
{"pitch": "0.0035278336145", "lat": 29.7133343, "timestamp": 1603398817.276083, "alt": 13.11, "yaw": "2.1135263443", "lon": -95.4043957, "heading": 121, "speed": 0.26100000739097595, "roll": "0.0678566917777"}
{"pitch": "0.0312256161124", "lat": 29.7133346, "timestamp": 1603398817.409086, "alt": 13.55, "yaw": "2.11945199966", "lon": -95.4043951, "heading": 121, "speed": 0.2550000250339508, "roll": "0.0518130771816"}
{"pitch": "0.0361240915954", "lat": 29.713335, "timestamp": 1603398817.777699, "alt": 14.11, "yaw": "2.12982559204", "lon": -95.4043948, "heading": 122, "speed": 0.26600000262260437, "roll": "0.0286625679582"}
{"pitch": "0.00365217635408", "lat": 29.7133356, "timestamp": 1603398817.910379, "alt": 14.67, "yaw": "2.1118979454", "lon": -95.4043946, "heading": 122, "speed": 0.26600000262260437, "roll": "0.0723804533482"}
{"pitch": "-0.00561775034294", "lat": 29.7133361, "timestamp": 1603398818.27886, "alt": 15.29, "yaw": "2.10825967789", "lon": -95.4043944, "heading": 120, "speed": 0.4390000104904175, "roll": "0.0874458998442"}
{"pitch": "-0.00561775034294", "lat": 29.7133361, "timestamp": 1603398818.411572, "alt": 15.29, "yaw": "2.10825967789", "lon": -95.4043944, "heading": 120, "speed": 0.4390000104904175, "roll": "0.0874458998442"}
{"pitch": "0.033796813339", "lat": 29.7133367, "timestamp": 1603398818.779997, "alt": 16.5, "yaw": "2.13538408279", "lon": -95.404394, "heading": 121, "speed": 0.2939999997615814, "roll": "0.0997041016817"}
{"pitch": "0.033796813339", "lat": 29.7133367, "timestamp": 1603398818.912705, "alt": 16.5, "yaw": "2.13538408279", "lon": -95.404394, "heading": 122, "speed": 0.25, "roll": "0.0997041016817"}
{"pitch": "0.0316000841558", "lat": 29.7133369, "timestamp": 1603398819.280685, "alt": 17.09, "yaw": "2.12662148476", "lon": -95.4043944, "heading": 121, "speed": 0.42600002884864807, "roll": "0.108197934926"}
{"pitch": "-0.0176921803504", "lat": 29.7133371, "timestamp": 1603398819.41394, "alt": 17.65, "yaw": "2.11939024925", "lon": -95.4043949, "heading": 121, "speed": 0.281000018119812, "roll": "0.0913042128086"}
{"pitch": "-0.0268144663423", "lat": 29.7133371, "timestamp": 1603398819.781843, "alt": 18.3, "yaw": "2.11764764786", "lon": -95.4043955, "heading": 121, "speed": 0.2750000059604645, "roll": "0.0965649560094"}
{"pitch": "-0.0121659543365", "lat": 29.7133369, "timestamp": 1603398819.91527, "alt": 18.92, "yaw": "2.11742806435", "lon": -95.4043959, "heading": 121, "speed": 0.2750000059604645, "roll": "0.0931949615479"}
{"pitch": "0.015879554674", "lat": 29.7133366, "timestamp": 1603398820.283002, "alt": 19.52, "yaw": "2.11982750893", "lon": -95.4043963, "heading": 121, "speed": 0.33500000834465027, "roll": "0.0957610607147"}
{"pitch": "0.015879554674", "lat": 29.7133366, "timestamp": 1603398820.416799, "alt": 19.52, "yaw": "2.11982750893", "lon": -95.4043963, "heading": 121, "speed": 0.33500000834465027, "roll": "0.0957610607147"}
{"pitch": "0.00424213008955", "lat": 29.7133366, "timestamp": 1603398820.785673, "alt": 20.84, "yaw": "2.12807512283", "lon": -95.4043977, "heading": 121, "speed": 0.3850000202655792, "roll": "0.0841648057103"}
{"pitch": "0.00424213008955", "lat": 29.7133366, "timestamp": 1603398820.918055, "alt": 20.84, "yaw": "2.12807512283", "lon": -95.4043977, "heading": 122, "speed": 0.3720000088214874, "roll": "0.0841648057103"}
{"pitch": "-0.0271243751049", "lat": 29.7133372, "timestamp": 1603398821.286811, "alt": 22.06, "yaw": "2.13522648811", "lon": -95.4043994, "heading": 122, "speed": 0.5060000419616699, "roll": "0.0891046524048"}
{"pitch": "-0.0245418287814", "lat": 29.7133372, "timestamp": 1603398821.419315, "alt": 22.06, "yaw": "2.13770055771", "lon": -95.4043994, "heading": 122, "speed": 0.4400000274181366, "roll": "0.126994147897"}
{"pitch": "-0.0319562293589", "lat": 29.7133372, "timestamp": 1603398821.787944, "alt": 22.68, "yaw": "2.14063739777", "lon": -95.4044007, "heading": 122, "speed": 0.5890000462532043, "roll": "0.104585021734"}
{"pitch": "-0.0548232533038", "lat": 29.7133367, "timestamp": 1603398821.920901, "alt": 23.26, "yaw": "2.1452486515", "lon": -95.4044022, "heading": 122, "speed": 0.5890000462532043, "roll": "0.0832391604781"}
{"pitch": "-0.083548232913", "lat": 29.7133361, "timestamp": 1603398822.289141, "alt": 23.86, "yaw": "2.13498258591", "lon": -95.4044037, "heading": 121, "speed": 0.6260000467300415, "roll": "0.0196924228221"}
{"pitch": "-0.083548232913", "lat": 29.7133356, "timestamp": 1603398822.422642, "alt": 24.45, "yaw": "2.13498258591", "lon": -95.4044049, "heading": 121, "speed": 0.6260000467300415, "roll": "0.0196924228221"}
{"pitch": "-0.100270755589", "lat": 29.7133354, "timestamp": 1603398822.790271, "alt": 25.13, "yaw": "2.10852241516", "lon": -95.4044056, "heading": 120, "speed": 0.48100003600120544, "roll": "-0.0225810837001"}
{"pitch": "-0.100270755589", "lat": 29.7133354, "timestamp": 1603398822.923745, "alt": 25.13, "yaw": "2.10852241516", "lon": -95.4044056, "heading": 120, "speed": 0.39400002360343933, "roll": "-0.0225810837001"}
{"pitch": "-0.047792378813", "lat": 29.7133359, "timestamp": 1603398823.29148, "alt": 26.44, "yaw": "2.12240743637", "lon": -95.4044053, "heading": 121, "speed": 0.08900000154972076, "roll": "0.0771658420563"}
{"pitch": "-0.047792378813", "lat": 29.7133359, "timestamp": 1603398823.425086, "alt": 26.44, "yaw": "2.12240743637", "lon": -95.4044053, "heading": 121, "speed": 0.07000000029802322, "roll": "0.0771658420563"}
{"pitch": "-0.0566848181188", "lat": 29.7133358, "timestamp": 1603398823.79309, "alt": 27.63, "yaw": "2.13167858124", "lon": -95.4044051, "heading": 121, "speed": 0.11900000274181366, "roll": "0.0346562936902"}
{"pitch": "-0.0566848181188", "lat": 29.7133358, "timestamp": 1603398823.926276, "alt": 27.63, "yaw": "2.13167858124", "lon": -95.4044051, "heading": 121, "speed": 0.11900000274181366, "roll": "0.0346562936902"}
{"pitch": "-0.0882203429937", "lat": 29.7133355, "timestamp": 1603398824.294957, "alt": 28.32, "yaw": "2.13268065453", "lon": -95.4044049, "heading": 122, "speed": 0.20200000703334808, "roll": "-0.00438735075295"}
{"pitch": "-0.0734993740916", "lat": 29.7133354, "timestamp": 1603398824.427412, "alt": 28.91, "yaw": "2.13093423843", "lon": -95.4044044, "heading": 122, "speed": 0.20200000703334808, "roll": "0.00669805239886"}
{"pitch": "-0.0635744333267", "lat": 29.7133354, "timestamp": 1603398824.796093, "alt": 29.55, "yaw": "2.12948274612", "lon": -95.4044033, "heading": 122, "speed": 0.17900000512599945, "roll": "0.0518939718604"}
{"pitch": "-0.0635744333267", "lat": 29.7133355, "timestamp": 1603398824.928634, "alt": 30.21, "yaw": "2.12948274612", "lon": -95.4044017, "heading": 122, "speed": 0.34800001978874207, "roll": "0.0518939718604"}
{"pitch": "-0.00129304034635", "lat": 29.7133358, "timestamp": 1603398825.297245, "alt": 30.82, "yaw": "2.14867115021", "lon": -95.4044005, "heading": 122, "speed": 0.46300002932548523, "roll": "0.105567388237"}
{"pitch": "-0.00129304034635", "lat": 29.7133358, "timestamp": 1603398825.429906, "alt": 30.82, "yaw": "2.14867115021", "lon": -95.4044005, "heading": 122, "speed": 0.46300002932548523, "roll": "0.105567388237"}
{"pitch": "-0.0104188863188", "lat": 29.7133363, "timestamp": 1603398825.798475, "alt": 32.09, "yaw": "2.17627358437", "lon": -95.4043997, "heading": 124, "speed": 0.11800000816583633, "roll": "0.0624014995992"}
{"pitch": "-0.0104188863188", "lat": 29.7133363, "timestamp": 1603398825.931116, "alt": 32.09, "yaw": "2.17627358437", "lon": -95.4043997, "heading": 124, "speed": 0.11800000816583633, "roll": "0.0624014995992"}
{"pitch": "-0.0762431770563", "lat": 29.713337, "timestamp": 1603398826.299605, "alt": 33.33, "yaw": "2.15221452713", "lon": -95.4044006, "heading": 122, "speed": 0.19100001454353333, "roll": "0.0757037252188"}
{"pitch": "-0.124269522727", "lat": 29.713337, "timestamp": 1603398826.433341, "alt": 33.33, "yaw": "2.13026618958", "lon": -95.4044006, "heading": 122, "speed": 0.19100001454353333, "roll": "0.0819108858705"}
{"pitch": "-0.0896821096539", "lat": 29.7133373, "timestamp": 1603398826.800514, "alt": 34.01, "yaw": "2.13848614693", "lon": -95.4044008, "heading": 122, "speed": 0.13300000131130219, "roll": "0.0466102212667"}
{"pitch": "-0.0896821096539", "lat": 29.7133373, "timestamp": 1603398826.934648, "alt": 34.65, "yaw": "2.13848614693", "lon": -95.4044006, "heading": 123, "speed": 0.058000002056360245, "roll": "0.0466102212667"}
{"pitch": "-0.0733848139644", "lat": 29.7133375, "timestamp": 1603398827.301669, "alt": 35.3, "yaw": "2.14648318291", "lon": -95.4044005, "heading": 123, "speed": 0.08900000154972076, "roll": "0.0503677166998"}
{"pitch": "-0.0733848139644", "lat": 29.7133381, "timestamp": 1603398827.435944, "alt": 35.96, "yaw": "2.14648318291", "lon": -95.4044004, "heading": 122, "speed": 0.29100000858306885, "roll": "0.0503677166998"}
{"pitch": "-0.111604012549", "lat": 29.7133386, "timestamp": 1603398827.802807, "alt": 36.63, "yaw": "2.14583492279", "lon": -95.4043999, "heading": 123, "speed": 0.18200001120567322, "roll": "0.0790348574519"}
{"pitch": "-0.0765324234962", "lat": 29.7133386, "timestamp": 1603398827.938855, "alt": 36.63, "yaw": "2.15984725952", "lon": -95.4043999, "heading": 123, "speed": 0.18200001120567322, "roll": "0.101818665862"}
{"pitch": "-0.0568899810314", "lat": 29.7133391, "timestamp": 1603398828.303976, "alt": 38.07, "yaw": "2.14748358727", "lon": -95.4043989, "heading": 123, "speed": 0.2580000162124634, "roll": "0.126463368535"}
{"pitch": "-0.0459735803306", "lat": 29.7133391, "timestamp": 1603398828.440371, "alt": 38.07, "yaw": "2.15157365799", "lon": -95.4043989, "heading": 123, "speed": 0.21400001645088196, "roll": "0.124579899013"}
{"pitch": "-0.0583923868835", "lat": 29.7133392, "timestamp": 1603398828.807407, "alt": 38.7, "yaw": "2.15657281876", "lon": -95.404399, "heading": 123, "speed": 0.20100000500679016, "roll": "0.145300090313"}
{"pitch": "-0.0908384770155", "lat": 29.7133393, "timestamp": 1603398828.941608, "alt": 39.21, "yaw": "2.15274548531", "lon": -95.4043994, "heading": 123, "speed": 0.06300000101327896, "roll": "0.136229097843"}
{"pitch": "-0.128131151199", "lat": 29.7133391, "timestamp": 1603398829.308482, "alt": 39.77, "yaw": "2.14555573463", "lon": -95.4044002, "heading": 122, "speed": 0.29600000381469727, "roll": "0.0922299325466"}
{"pitch": "-0.128131151199", "lat": 29.7133387, "timestamp": 1603398829.442834, "alt": 40.17, "yaw": "2.14555573463", "lon": -95.4044006, "heading": 122, "speed": 0.29600000381469727, "roll": "0.0922299325466"}
{"pitch": "-0.0828575566411", "lat": 29.7133379, "timestamp": 1603398829.809876, "alt": 40.57, "yaw": "2.16217565536", "lon": -95.4044005, "heading": 123, "speed": 0.11600000411272049, "roll": "0.0610425584018"}
{"pitch": "-0.0828575566411", "lat": 29.7133376, "timestamp": 1603398829.944011, "alt": 40.81, "yaw": "2.16217565536", "lon": -95.4044, "heading": 123, "speed": 0.11600000411272049, "roll": "0.0610425584018"}
{"pitch": "-0.0646403208375", "lat": 29.7133377, "timestamp": 1603398830.31116, "alt": 41.02, "yaw": "2.17171835899", "lon": -95.4043992, "heading": 124, "speed": 0.09400000423192978, "roll": "0.081159748137"}
{"pitch": "-0.0533155798912", "lat": 29.7133377, "timestamp": 1603398830.445275, "alt": 41.02, "yaw": "2.17395353317", "lon": -95.4043992, "heading": 124, "speed": 0.09400000423192978, "roll": "0.0972100049257"}
{"pitch": "-0.0584653094411", "lat": 29.7133381, "timestamp": 1603398830.819002, "alt": 41.32, "yaw": "2.17294049263", "lon": -95.4043984, "heading": 124, "speed": 0.30900001525878906, "roll": "0.109793193638"}
{"pitch": "-0.0522594451904", "lat": 29.7133381, "timestamp": 1603398830.946272, "alt": 41.32, "yaw": "2.17554116249", "lon": -95.4043984, "heading": 124, "speed": 0.10400000214576721, "roll": "0.123244158924"}
{"pitch": "-0.0727356001735", "lat": 29.7133384, "timestamp": 1603398831.320203, "alt": 41.43, "yaw": "2.17740559578", "lon": -95.4043983, "heading": 124, "speed": 0.06200000271201134, "roll": "0.123936012387"}
{"pitch": "-0.0727356001735", "lat": 29.7133386, "timestamp": 1603398831.447369, "alt": 41.51, "yaw": "2.17740559578", "lon": -95.4043988, "heading": 124, "speed": 0.06200000271201134, "roll": "0.123936012387"}
{"pitch": "-0.106711290777", "lat": 29.7133385, "timestamp": 1603398831.821391, "alt": 41.56, "yaw": "2.17278695107", "lon": -95.4043992, "heading": 124, "speed": 0.1340000033378601, "roll": "0.107876099646"}
{"pitch": "-0.11364582926", "lat": 29.7133385, "timestamp": 1603398831.948474, "alt": 41.56, "yaw": "2.16587138176", "lon": -95.4043996, "heading": 124, "speed": 0.10700000822544098, "roll": "0.104315422475"}
{"pitch": "-0.0925293043256", "lat": 29.7133382, "timestamp": 1603398832.322755, "alt": 41.54, "yaw": "2.16181659698", "lon": -95.4043997, "heading": 123, "speed": 0.14100000262260437, "roll": "0.0657644346356"}
{"pitch": "-0.0925293043256", "lat": 29.7133382, "timestamp": 1603398832.449673, "alt": 41.54, "yaw": "2.16181659698", "lon": -95.4043997, "heading": 123, "speed": 0.14100000262260437, "roll": "0.0657644346356"}
{"pitch": "-0.0800529494882", "lat": 29.7133375, "timestamp": 1603398832.823441, "alt": 41.47, "yaw": "2.15733337402", "lon": -95.4043996, "heading": 123, "speed": 0.12200000882148743, "roll": "0.133272260427"}
{"pitch": "-0.0800529494882", "lat": 29.7133375, "timestamp": 1603398832.950832, "alt": 41.47, "yaw": "2.15733337402", "lon": -95.4043996, "heading": 123, "speed": 0.12200000882148743, "roll": "0.133272260427"}
{"pitch": "-0.069128036499", "lat": 29.7133368, "timestamp": 1603398833.324966, "alt": 41.45, "yaw": "2.1559047699", "lon": -95.4043996, "heading": 123, "speed": 0.21300001442432404, "roll": "0.117252722383"}
{"pitch": "-0.069128036499", "lat": 29.7133362, "timestamp": 1603398833.451981, "alt": 41.45, "yaw": "2.1559047699", "lon": -95.4043998, "heading": 123, "speed": 0.2120000123977661, "roll": "0.117252722383"}
{"pitch": "-0.0730836316943", "lat": 29.7133356, "timestamp": 1603398833.826181, "alt": 41.44, "yaw": "2.15959024429", "lon": -95.4044001, "heading": 123, "speed": 0.25600001215934753, "roll": "0.0913011059165"}
{"pitch": "-0.0574986822903", "lat": 29.7133356, "timestamp": 1603398833.953513, "alt": 41.44, "yaw": "2.15065932274", "lon": -95.4044001, "heading": 123, "speed": 0.25600001215934753, "roll": "0.0777368173003"}
{"pitch": "-0.0892876461148", "lat": 29.7133351, "timestamp": 1603398834.327415, "alt": 41.44, "yaw": "2.1449804306", "lon": -95.4044008, "heading": 123, "speed": 0.07100000232458115, "roll": "0.0596136711538"}
{"pitch": "-0.0813076123595", "lat": 29.7133351, "timestamp": 1603398834.455536, "alt": 41.44, "yaw": "2.15776443481", "lon": -95.4044008, "heading": 123, "speed": 0.07100000232458115, "roll": "0.0546463578939"}
{"pitch": "-0.10712390393", "lat": 29.7133356, "timestamp": 1603398834.828819, "alt": 41.41, "yaw": "2.16850113869", "lon": -95.4044006, "heading": 124, "speed": 0.14600001275539398, "roll": "0.102035090327"}
{"pitch": "-0.10712390393", "lat": 29.7133356, "timestamp": 1603398834.956988, "alt": 41.41, "yaw": "2.16850113869", "lon": -95.4044006, "heading": 124, "speed": 0.14600001275539398, "roll": "0.102035090327"}
{"pitch": "-0.0724486410618", "lat": 29.7133361, "timestamp": 1603398835.330495, "alt": 41.38, "yaw": "2.17955732346", "lon": -95.4044001, "heading": 124, "speed": 0.16600000858306885, "roll": "0.152042090893"}
{"pitch": "-0.0724486410618", "lat": 29.7133361, "timestamp": 1603398835.457949, "alt": 41.38, "yaw": "2.17955732346", "lon": -95.4044001, "heading": 124, "speed": 0.10900000482797623, "roll": "0.152042090893"}
{"pitch": "-0.103162303567", "lat": 29.7133361, "timestamp": 1603398835.839129, "alt": 41.36, "yaw": "2.15476202965", "lon": -95.4044001, "heading": 123, "speed": 0.03200000151991844, "roll": "0.124772667885"}
{"pitch": "-0.103162303567", "lat": 29.7133361, "timestamp": 1603398835.959183, "alt": 41.36, "yaw": "2.15476202965", "lon": -95.4044001, "heading": 123, "speed": 0.12200000882148743, "roll": "0.124772667885"}
{"pitch": "-0.0654260590672", "lat": 29.7133354, "timestamp": 1603398836.34011, "alt": 41.33, "yaw": "2.15442299843", "lon": -95.4043996, "heading": 123, "speed": 0.15000000596046448, "roll": "0.123461335897"}
{"pitch": "-0.0654260590672", "lat": 29.7133354, "timestamp": 1603398836.460418, "alt": 41.33, "yaw": "2.15442299843", "lon": -95.4043996, "heading": 123, "speed": 0.15000000596046448, "roll": "0.123461335897"}
{"pitch": "-0.0440368652344", "lat": 29.713335, "timestamp": 1603398836.841124, "alt": 41.3, "yaw": "2.16249656677", "lon": -95.4043996, "heading": 124, "speed": 0.15700000524520874, "roll": "0.125228598714"}
{"pitch": "-0.0387654155493", "lat": 29.7133347, "timestamp": 1603398836.96155, "alt": 41.25, "yaw": "2.16698431969", "lon": -95.4043997, "heading": 124, "speed": 0.15700000524520874, "roll": "0.113337248564"}
{"pitch": "-0.0790159031749", "lat": 29.7133348, "timestamp": 1603398837.342244, "alt": 41.24, "yaw": "2.16085553169", "lon": -95.4043999, "heading": 123, "speed": 0.04800000041723251, "roll": "0.0917147099972"}
{"pitch": "-0.0790159031749", "lat": 29.713335, "timestamp": 1603398837.46344, "alt": 41.24, "yaw": "2.16085553169", "lon": -95.4044001, "heading": 124, "speed": 0.014000000432133675, "roll": "0.0917147099972"}
{"pitch": "-0.0509604886174", "lat": 29.7133354, "timestamp": 1603398837.843408, "alt": 41.21, "yaw": "2.16038489342", "lon": -95.4044004, "heading": 123, "speed": 0.07700000703334808, "roll": "0.121273808181"}
{"pitch": "-0.0509604886174", "lat": 29.7133354, "timestamp": 1603398837.9662, "alt": 41.21, "yaw": "2.16038489342", "lon": -95.4044004, "heading": 123, "speed": 0.07700000703334808, "roll": "0.121273808181"}
{"pitch": "-0.0793310031295", "lat": 29.7133358, "timestamp": 1603398838.344274, "alt": 41.19, "yaw": "2.1564283371", "lon": -95.4044011, "heading": 123, "speed": 0.1600000113248825, "roll": "0.103774808347"}
{"pitch": "-0.0922808274627", "lat": 29.7133358, "timestamp": 1603398838.467399, "alt": 41.19, "yaw": "2.15313768387", "lon": -95.4044011, "heading": 123, "speed": 0.1600000113248825, "roll": "0.0990286543965"}
{"pitch": "-0.0960375070572", "lat": 29.713336, "timestamp": 1603398838.845607, "alt": 41.19, "yaw": "2.15310001373", "lon": -95.4044012, "heading": 123, "speed": 0.12700000405311584, "roll": "0.0853891819715"}
{"pitch": "-0.0960375070572", "lat": 29.7133363, "timestamp": 1603398838.96927, "alt": 41.18, "yaw": "2.15310001373", "lon": -95.4044012, "heading": 123, "speed": 0.11500000208616257, "roll": "0.0853891819715"}
{"pitch": "-0.0899417176843", "lat": 29.7133366, "timestamp": 1603398839.346859, "alt": 41.15, "yaw": "2.16509819031", "lon": -95.4044011, "heading": 124, "speed": 0.05000000074505806, "roll": "0.141767978668"}
{"pitch": "-0.0899417176843", "lat": 29.7133366, "timestamp": 1603398839.470627, "alt": 41.13, "yaw": "2.16509819031", "lon": -95.4044011, "heading": 124, "speed": 0.05000000074505806, "roll": "0.141767978668"}
{"pitch": "-0.0598881244659", "lat": 29.7133366, "timestamp": 1603398839.84771, "alt": 41.12, "yaw": "2.15035915375", "lon": -95.404401, "heading": 123, "speed": 0.08100000023841858, "roll": "0.116792373359"}
{"pitch": "-0.0598881244659", "lat": 29.7133368, "timestamp": 1603398839.971801, "alt": 41.1, "yaw": "2.15035915375", "lon": -95.4044009, "heading": 123, "speed": 0.08100000023841858, "roll": "0.116792373359"}
{"pitch": "-0.0650774315", "lat": 29.7133369, "timestamp": 1603398840.348929, "alt": 41.1, "yaw": "2.13656997681", "lon": -95.4044007, "heading": 121, "speed": 0.05900000408291817, "roll": "0.134412780404"}
{"pitch": "-0.0966011285782", "lat": 29.7133369, "timestamp": 1603398840.472986, "alt": 41.1, "yaw": "2.12730550766", "lon": -95.4044007, "heading": 121, "speed": 0.05900000408291817, "roll": "0.14735622704"}
{"pitch": "-0.098847605288", "lat": 29.7133365, "timestamp": 1603398840.857272, "alt": 41.04, "yaw": "2.14033985138", "lon": -95.4044, "heading": 122, "speed": 0.16200000047683716, "roll": "0.149368584156"}
{"pitch": "-0.06361079216", "lat": 29.7133365, "timestamp": 1603398840.974958, "alt": 41.04, "yaw": "2.14968442917", "lon": -95.4044, "heading": 123, "speed": 0.31200000643730164, "roll": "0.100230105221"}
{"pitch": "-0.0188773721457", "lat": 29.7133357, "timestamp": 1603398841.35846, "alt": 41.01, "yaw": "2.1585893631", "lon": -95.4043994, "heading": 123, "speed": 0.30300000309944153, "roll": "0.0843350440264"}
{"pitch": "-0.0188773721457", "lat": 29.7133352, "timestamp": 1603398841.477035, "alt": 40.98, "yaw": "2.1585893631", "lon": -95.4043988, "heading": 123, "speed": 0.30300000309944153, "roll": "0.0843350440264"}
{"pitch": "-0.0139373335987", "lat": 29.7133351, "timestamp": 1603398841.85991, "alt": 40.97, "yaw": "2.18884778023", "lon": -95.4043982, "heading": 125, "speed": 0.23800000548362732, "roll": "0.126340374351"}
{"pitch": "-0.0139373335987", "lat": 29.7133351, "timestamp": 1603398841.977837, "alt": 40.97, "yaw": "2.18884778023", "lon": -95.4043982, "heading": 125, "speed": 0.23800000548362732, "roll": "0.126340374351"}
{"pitch": "-0.0557257421315", "lat": 29.7133351, "timestamp": 1603398842.361112, "alt": 40.94, "yaw": "2.1967792511", "lon": -95.4043985, "heading": 125, "speed": 0.10000000149011612, "roll": "0.0985253304243"}
{"pitch": "-0.0557257421315", "lat": 29.7133351, "timestamp": 1603398842.479029, "alt": 40.93, "yaw": "2.1967792511", "lon": -95.4043991, "heading": 125, "speed": 0.10000000149011612, "roll": "0.0985253304243"}
{"pitch": "-0.0575069151819", "lat": 29.7133351, "timestamp": 1603398842.862632, "alt": 40.94, "yaw": "2.18779921532", "lon": -95.4043998, "heading": 125, "speed": 0.16900001466274261, "roll": "0.0770156756043"}
{"pitch": "-0.0688186138868", "lat": 29.7133351, "timestamp": 1603398842.980225, "alt": 40.94, "yaw": "2.18521547318", "lon": -95.4043998, "heading": 125, "speed": 0.1990000158548355, "roll": "0.0760572478175"}
{"pitch": "-0.0932992175221", "lat": 29.7133358, "timestamp": 1603398843.363854, "alt": 40.94, "yaw": "2.17303752899", "lon": -95.4044012, "heading": 124, "speed": 0.203000009059906, "roll": "0.0807381942868"}
{"pitch": "-0.0932992175221", "lat": 29.7133358, "timestamp": 1603398843.481363, "alt": 40.94, "yaw": "2.17303752899", "lon": -95.4044012, "heading": 124, "speed": 0.203000009059906, "roll": "0.0807381942868"}
{"pitch": "-0.125300616026", "lat": 29.7133358, "timestamp": 1603398843.865054, "alt": 40.93, "yaw": "2.13525390625", "lon": -95.4044009, "heading": 122, "speed": 0.046000003814697266, "roll": "0.0829596146941"}
{"pitch": "-0.125300616026", "lat": 29.7133358, "timestamp": 1603398843.982629, "alt": 40.93, "yaw": "2.13525390625", "lon": -95.4044009, "heading": 122, "speed": 0.046000003814697266, "roll": "0.0829596146941"}
{"pitch": "-0.0144366752356", "lat": 29.7133352, "timestamp": 1603398844.366154, "alt": 40.92, "yaw": "2.15218877792", "lon": -95.4043991, "heading": 123, "speed": 0.28600001335144043, "roll": "0.0957260131836"}
{"pitch": "-0.0144366752356", "lat": 29.7133352, "timestamp": 1603398844.484547, "alt": 40.92, "yaw": "2.15218877792", "lon": -95.4043991, "heading": 123, "speed": 0.22600001096725464, "roll": "0.0957260131836"}
{"pitch": "-0.0369706340134", "lat": 29.713335, "timestamp": 1603398844.867335, "alt": 40.9, "yaw": "2.15137386322", "lon": -95.4043981, "heading": 123, "speed": 0.19200000166893005, "roll": "0.107716709375"}
{"pitch": "-0.0369706340134", "lat": 29.713335, "timestamp": 1603398844.986263, "alt": 40.9, "yaw": "2.15137386322", "lon": -95.4043981, "heading": 123, "speed": 0.1340000033378601, "roll": "0.107716709375"}
{"pitch": "-0.0299611017108", "lat": 29.7133347, "timestamp": 1603398845.36851, "alt": 40.88, "yaw": "2.16526269913", "lon": -95.4043974, "heading": 123, "speed": 0.15700000524520874, "roll": "0.0953880101442"}
{"pitch": "-0.0299611017108", "lat": 29.7133347, "timestamp": 1603398845.4874, "alt": 40.88, "yaw": "2.16526269913", "lon": -95.4043974, "heading": 124, "speed": 0.13300000131130219, "roll": "0.0953880101442"}
{"pitch": "-0.0495830699801", "lat": 29.7133347, "timestamp": 1603398845.871914, "alt": 40.87, "yaw": "2.16268014908", "lon": -95.4043971, "heading": 123, "speed": 0.08100000023841858, "roll": "0.111543670297"}
{"pitch": "-0.0492707788944", "lat": 29.7133347, "timestamp": 1603398845.988574, "alt": 40.84, "yaw": "2.16373348236", "lon": -95.4043969, "heading": 123, "speed": 0.08100000023841858, "roll": "0.146925777197"}
{"pitch": "-0.0228099320084", "lat": 29.7133344, "timestamp": 1603398846.372695, "alt": 40.82, "yaw": "2.17459368706", "lon": -95.4043968, "heading": 124, "speed": 0.08100000023841858, "roll": "0.132240191102"}
{"pitch": "-0.0228099320084", "lat": 29.7133344, "timestamp": 1603398846.492432, "alt": 40.82, "yaw": "2.17459368706", "lon": -95.4043968, "heading": 124, "speed": 0.10900000482797623, "roll": "0.132240191102"}
{"pitch": "-0.0176753252745", "lat": 29.7133335, "timestamp": 1603398846.873946, "alt": 40.81, "yaw": "2.18579530716", "lon": -95.4043974, "heading": 125, "speed": 0.19600000977516174, "roll": "0.0843823477626"}
{"pitch": "-0.0176753252745", "lat": 29.7133335, "timestamp": 1603398846.993654, "alt": 40.81, "yaw": "2.18579530716", "lon": -95.4043974, "heading": 125, "speed": 0.14100000262260437, "roll": "0.0843823477626"}
{"pitch": "-0.011303184554", "lat": 29.7133334, "timestamp": 1603398847.375186, "alt": 40.8, "yaw": "2.18067955971", "lon": -95.4043983, "heading": 124, "speed": 0.15000000596046448, "roll": "0.0788598358631"}
{"pitch": "-0.0286111645401", "lat": 29.7133334, "timestamp": 1603398847.494976, "alt": 40.8, "yaw": "2.17588710785", "lon": -95.4043983, "heading": 124, "speed": 0.15000000596046448, "roll": "0.093980692327"}
{"pitch": "-0.0495189018548", "lat": 29.7133336, "timestamp": 1603398847.876321, "alt": 40.8, "yaw": "2.16898155212", "lon": -95.4043987, "heading": 124, "speed": 0.1210000067949295, "roll": "0.0868667513132"}
{"pitch": "-0.0495189018548", "lat": 29.7133338, "timestamp": 1603398847.996491, "alt": 40.8, "yaw": "2.16898155212", "lon": -95.4043989, "heading": 125, "speed": 0.1860000044107437, "roll": "0.0868667513132"}
{"pitch": "-0.0301378536969", "lat": 29.7133343, "timestamp": 1603398848.377215, "alt": 40.81, "yaw": "2.19321751595", "lon": -95.4043991, "heading": 125, "speed": 0.09600000083446503, "roll": "0.102528110147"}
{"pitch": "-0.0301378536969", "lat": 29.7133349, "timestamp": 1603398848.49773, "alt": 40.81, "yaw": "2.19321751595", "lon": -95.4043993, "heading": 125, "speed": 0.22700001299381256, "roll": "0.102528110147"}
{"pitch": "-0.0431215129793", "lat": 29.7133355, "timestamp": 1603398848.878347, "alt": 40.8, "yaw": "2.18571519852", "lon": -95.4043996, "heading": 125, "speed": 0.23500001430511475, "roll": "0.0863116085529"}
{"pitch": "-0.0431215129793", "lat": 29.7133365, "timestamp": 1603398848.999053, "alt": 40.8, "yaw": "2.18571519852", "lon": -95.4044, "heading": 124, "speed": 0.2840000092983246, "roll": "0.0863116085529"}
{"pitch": "-0.055128980428", "lat": 29.7133374, "timestamp": 1603398849.379448, "alt": 40.78, "yaw": "2.19287276268", "lon": -95.4044003, "heading": 125, "speed": 0.3830000162124634, "roll": "0.150457039475"}
{"pitch": "-0.055128980428", "lat": 29.7133374, "timestamp": 1603398849.500264, "alt": 40.78, "yaw": "2.19287276268", "lon": -95.4044003, "heading": 125, "speed": 0.3830000162124634, "roll": "0.150457039475"}
{"pitch": "-0.0925263315439", "lat": 29.7133388, "timestamp": 1603398849.880732, "alt": 40.82, "yaw": "2.18890523911", "lon": -95.4044012, "heading": 125, "speed": 0.24800001084804535, "roll": "0.134127661586"}
{"pitch": "-0.0543473809958", "lat": 29.7133388, "timestamp": 1603398850.001464, "alt": 40.82, "yaw": "2.19692969322", "lon": -95.4044012, "heading": 125, "speed": 0.20800000429153442, "roll": "0.119058035314"}
{"pitch": "-0.0932137146592", "lat": 29.7133402, "timestamp": 1603398850.381987, "alt": 40.85, "yaw": "2.19108104706", "lon": -95.4044017, "heading": 125, "speed": 0.1770000010728836, "roll": "0.143265545368"}
{"pitch": "-0.0932137146592", "lat": 29.7133402, "timestamp": 1603398850.502608, "alt": 40.85, "yaw": "2.19108104706", "lon": -95.4044017, "heading": 125, "speed": 0.1770000010728836, "roll": "0.143265545368"}
{"pitch": "-0.105191849172", "lat": 29.7133406, "timestamp": 1603398850.885915, "alt": 40.85, "yaw": "2.16699624062", "lon": -95.4044017, "heading": 124, "speed": 0.1420000046491623, "roll": "0.186683744192"}
{"pitch": "-0.105191849172", "lat": 29.7133408, "timestamp": 1603398851.003758, "alt": 40.85, "yaw": "2.16699624062", "lon": -95.4044016, "heading": 124, "speed": 0.1420000046491623, "roll": "0.186683744192"}
{"pitch": "-0.10902441293", "lat": 29.7133405, "timestamp": 1603398851.387271, "alt": 40.87, "yaw": "2.17387461662", "lon": -95.4044012, "heading": 124, "speed": 0.13300000131130219, "roll": "0.149176478386"}
{"pitch": "-0.0592840798199", "lat": 29.7133405, "timestamp": 1603398851.505026, "alt": 40.87, "yaw": "2.18660259247", "lon": -95.4044012, "heading": 125, "speed": 0.3630000054836273, "roll": "0.155670940876"}
{"pitch": "-0.00523923756555", "lat": 29.7133393, "timestamp": 1603398851.888457, "alt": 40.9, "yaw": "2.19466590881", "lon": -95.4044, "heading": 125, "speed": 0.38600000739097595, "roll": "0.18055228889"}
{"pitch": "-0.0052287383005", "lat": 29.7133393, "timestamp": 1603398852.006372, "alt": 40.9, "yaw": "2.18111157417", "lon": -95.4044, "heading": 124, "speed": 0.24300001561641693, "roll": "0.16414500773"}
{"pitch": "-0.0498806387186", "lat": 29.7133384, "timestamp": 1603398852.389556, "alt": 40.87, "yaw": "2.16458177567", "lon": -95.4044005, "heading": 124, "speed": 0.22200001776218414, "roll": "0.146523609757"}
{"pitch": "-0.0709434598684", "lat": 29.7133384, "timestamp": 1603398852.508629, "alt": 40.87, "yaw": "2.1749162674", "lon": -95.4044005, "heading": 124, "speed": 0.22200001776218414, "roll": "0.139795154333"}
{"pitch": "-0.0712965428829", "lat": 29.7133376, "timestamp": 1603398852.890613, "alt": 40.86, "yaw": "2.19425106049", "lon": -95.4044008, "heading": 125, "speed": 0.11300000548362732, "roll": "0.139347210526"}
{"pitch": "-0.0712965428829", "lat": 29.7133376, "timestamp": 1603398853.010896, "alt": 40.86, "yaw": "2.19425106049", "lon": -95.4044008, "heading": 125, "speed": 0.11300000548362732, "roll": "0.139347210526"}
{"pitch": "-0.0682503804564", "lat": 29.7133366, "timestamp": 1603398853.39173, "alt": 40.86, "yaw": "2.18448233604", "lon": -95.4044009, "heading": 125, "speed": 0.22700001299381256, "roll": "0.141979902983"}
{"pitch": "-0.0682503804564", "lat": 29.7133366, "timestamp": 1603398853.512246, "alt": 40.86, "yaw": "2.18448233604", "lon": -95.4044009, "heading": 125, "speed": 0.22700001299381256, "roll": "0.141979902983"}
{"pitch": "-0.0277216136456", "lat": 29.7133358, "timestamp": 1603398853.89294, "alt": 40.86, "yaw": "2.16308760643", "lon": -95.4044009, "heading": 124, "speed": 0.2770000100135803, "roll": "0.0999260172248"}
{"pitch": "-0.0277216136456", "lat": 29.7133353, "timestamp": 1603398854.013168, "alt": 40.86, "yaw": "2.16308760643", "lon": -95.4044012, "heading": 123, "speed": 0.19700001180171967, "roll": "0.0999260172248"}
{"pitch": "-0.066587202251", "lat": 29.7133352, "timestamp": 1603398854.394105, "alt": 40.87, "yaw": "2.156873703", "lon": -95.4044015, "heading": 123, "speed": 0.08800000697374344, "roll": "0.0806997492909"}
{"pitch": "-0.066587202251", "lat": 29.7133352, "timestamp": 1603398854.514365, "alt": 40.87, "yaw": "2.156873703", "lon": -95.4044015, "heading": 123, "speed": 0.08800000697374344, "roll": "0.0806997492909"}
{"pitch": "-0.0625454112887", "lat": 29.7133357, "timestamp": 1603398854.895352, "alt": 40.88, "yaw": "2.17634773254", "lon": -95.4044013, "heading": 124, "speed": 0.11100000888109207, "roll": "0.135713800788"}
{"pitch": "-0.0606535598636", "lat": 29.7133357, "timestamp": 1603398855.015907, "alt": 40.88, "yaw": "2.16948151588", "lon": -95.4044013, "heading": 124, "speed": 0.11100000888109207, "roll": "0.122736290097"}
{"pitch": "-0.0647186264396", "lat": 29.713336, "timestamp": 1603398855.396636, "alt": 40.89, "yaw": "2.16313242912", "lon": -95.4044009, "heading": 123, "speed": 0.15300001204013824, "roll": "0.1347938627"}
{"pitch": "-0.0647186264396", "lat": 29.713336, "timestamp": 1603398855.517184, "alt": 40.89, "yaw": "2.16313242912", "lon": -95.4044009, "heading": 123, "speed": 0.15300001204013824, "roll": "0.1347938627"}
{"pitch": "-0.0465307384729", "lat": 29.713336, "timestamp": 1603398855.905188, "alt": 40.88, "yaw": "2.16174197197", "lon": -95.4044009, "heading": 123, "speed": 0.1340000033378601, "roll": "0.118314422667"}
{"pitch": "-0.0465307384729", "lat": 29.713336, "timestamp": 1603398856.018778, "alt": 40.88, "yaw": "2.16174197197", "lon": -95.4044009, "heading": 123, "speed": 0.1340000033378601, "roll": "0.118314422667"}
{"pitch": "-0.056481897831", "lat": 29.7133358, "timestamp": 1603398856.405994, "alt": 40.87, "yaw": "2.16340827942", "lon": -95.4044012, "heading": 123, "speed": 0.10100000351667404, "roll": "0.147502467036"}
{"pitch": "-0.056481897831", "lat": 29.7133358, "timestamp": 1603398856.520993, "alt": 40.87, "yaw": "2.16340827942", "lon": -95.4044012, "heading": 124, "speed": 0.07900000363588333, "roll": "0.147502467036"}
{"pitch": "-0.0718397274613", "lat": 29.7133351, "timestamp": 1603398856.907105, "alt": 40.85, "yaw": "2.18071317673", "lon": -95.4044018, "heading": 124, "speed": 0.07400000095367432, "roll": "0.108892545104"}
{"pitch": "-0.0718397274613", "lat": 29.7133351, "timestamp": 1603398857.02221, "alt": 40.85, "yaw": "2.18071317673", "lon": -95.4044018, "heading": 125, "speed": 0.08400000631809235, "roll": "0.108892545104"}
{"pitch": "-0.0812282264233", "lat": 29.7133349, "timestamp": 1603398857.408944, "alt": 40.84, "yaw": "2.1830432415", "lon": -95.4044021, "heading": 124, "speed": 0.09700000286102295, "roll": "0.0915724784136"}
{"pitch": "-0.0760492011905", "lat": 29.7133347, "timestamp": 1603398857.523464, "alt": 40.84, "yaw": "2.17504048347", "lon": -95.4044021, "heading": 124, "speed": 0.09700000286102295, "roll": "0.0907693356276"}
{"pitch": "-0.0665473937988", "lat": 29.7133344, "timestamp": 1603398857.910556, "alt": 40.84, "yaw": "2.16912412643", "lon": -95.4044019, "heading": 124, "speed": 0.11100000888109207, "roll": "0.0956798791885"}
{"pitch": "-0.0593718998134", "lat": 29.7133344, "timestamp": 1603398858.024616, "alt": 40.84, "yaw": "2.16643452644", "lon": -95.4044016, "heading": 124, "speed": 0.11100000888109207, "roll": "0.101464301348"}
{"pitch": "-0.0553356409073", "lat": 29.7133343, "timestamp": 1603398858.411462, "alt": 40.84, "yaw": "2.17413830757", "lon": -95.4044013, "heading": 124, "speed": 0.13900001347064972, "roll": "0.120117865503"}
{"pitch": "-0.0553356409073", "lat": 29.7133343, "timestamp": 1603398858.525871, "alt": 40.84, "yaw": "2.17413830757", "lon": -95.4044013, "heading": 124, "speed": 0.13100001215934753, "roll": "0.120117865503"}
{"pitch": "-0.0558753833175", "lat": 29.7133343, "timestamp": 1603398858.912735, "alt": 40.85, "yaw": "2.18352007866", "lon": -95.4044014, "heading": 124, "speed": 0.07100000232458115, "roll": "0.114973381162"}
{"pitch": "-0.0735833495855", "lat": 29.7133343, "timestamp": 1603398859.028081, "alt": 40.85, "yaw": "2.17424273491", "lon": -95.4044014, "heading": 124, "speed": 0.07100000232458115, "roll": "0.102987125516"}
{"pitch": "-0.08987698704", "lat": 29.7133345, "timestamp": 1603398859.413911, "alt": 40.84, "yaw": "2.16470599174", "lon": -95.4044017, "heading": 124, "speed": 0.10300000756978989, "roll": "0.0884832441807"}
{"pitch": "-0.0851291790605", "lat": 29.7133345, "timestamp": 1603398859.530459, "alt": 40.84, "yaw": "2.16466379166", "lon": -95.4044017, "heading": 124, "speed": 0.10300000756978989, "roll": "0.0927748382092"}
{"pitch": "-0.0853704437613", "lat": 29.7133346, "timestamp": 1603398859.915149, "alt": 40.84, "yaw": "2.16482830048", "lon": -95.4044015, "heading": 124, "speed": 0.1680000126361847, "roll": "0.100461579859"}
{"pitch": "-0.0773813799024", "lat": 29.7133348, "timestamp": 1603398860.031647, "alt": 40.83, "yaw": "2.16639018059", "lon": -95.4044013, "heading": 124, "speed": 0.1730000078678131, "roll": "0.109238669276"}
{"pitch": "-0.0735490173101", "lat": 29.7133348, "timestamp": 1603398860.416331, "alt": 40.82, "yaw": "2.16727685928", "lon": -95.4044009, "heading": 124, "speed": 0.23200000822544098, "roll": "0.118401780725"}
{"pitch": "-0.0735490173101", "lat": 29.7133348, "timestamp": 1603398860.53454, "alt": 40.81, "yaw": "2.16727685928", "lon": -95.4044005, "heading": 124, "speed": 0.23200000822544098, "roll": "0.118401780725"}
{"pitch": "-0.0680918991566", "lat": 29.7133349, "timestamp": 1603398860.963262, "alt": 40.81, "yaw": "2.17537593842", "lon": -95.4044002, "heading": 124, "speed": 0.17400000989437103, "roll": "0.112748302519"}
{"pitch": "-0.0680918991566", "lat": 29.7133349, "timestamp": 1603398861.036613, "alt": 40.81, "yaw": "2.17537593842", "lon": -95.4044002, "heading": 124, "speed": 0.17400000989437103, "roll": "0.112748302519"}
{"pitch": "-0.0766458660364", "lat": 29.7133349, "timestamp": 1603398861.464733, "alt": 40.81, "yaw": "2.16714525223", "lon": -95.4043995, "heading": 124, "speed": 0.1550000011920929, "roll": "0.0941808894277"}
{"pitch": "-0.0741260200739", "lat": 29.7133349, "timestamp": 1603398861.537795, "alt": 40.81, "yaw": "2.15633487701", "lon": -95.4043995, "heading": 123, "speed": 0.17500001192092896, "roll": "0.086039416492"}
{"pitch": "-0.0620063617826", "lat": 29.7133349, "timestamp": 1603398861.965928, "alt": 40.81, "yaw": "2.15221214294", "lon": -95.404399, "heading": 123, "speed": 0.21900001168251038, "roll": "0.084119990468"}
{"pitch": "-0.0620063617826", "lat": 29.7133351, "timestamp": 1603398862.039091, "alt": 40.81, "yaw": "2.15221214294", "lon": -95.4043982, "heading": 123, "speed": 0.21900001168251038, "roll": "0.084119990468"}
{"pitch": "-0.0279891621321", "lat": 29.7133351, "timestamp": 1603398862.467235, "alt": 40.79, "yaw": "2.15496301651", "lon": -95.4043976, "heading": 123, "speed": 0.2970000207424164, "roll": "0.130830660462"}
{"pitch": "-0.0279891621321", "lat": 29.7133351, "timestamp": 1603398862.540236, "alt": 40.79, "yaw": "2.15496301651", "lon": -95.4043976, "heading": 123, "speed": 0.23000000417232513, "roll": "0.130830660462"}
{"pitch": "-0.0427511632442", "lat": 29.7133353, "timestamp": 1603398862.968366, "alt": 40.78, "yaw": "2.14525461197", "lon": -95.404397, "heading": 122, "speed": 0.1940000057220459, "roll": "0.117884375155"}
{"pitch": "-0.0658197104931", "lat": 29.7133353, "timestamp": 1603398863.041573, "alt": 40.78, "yaw": "2.14445662498", "lon": -95.404397, "heading": 122, "speed": 0.11300000548362732, "roll": "0.106859438121"}
{"pitch": "-0.0613988079131", "lat": 29.7133354, "timestamp": 1603398863.469527, "alt": 40.78, "yaw": "2.15011763573", "lon": -95.4043966, "heading": 123, "speed": 0.1290000081062317, "roll": "0.114722192287"}
{"pitch": "-0.05123738572", "lat": 29.7133354, "timestamp": 1603398863.542706, "alt": 40.78, "yaw": "2.14904356003", "lon": -95.4043966, "heading": 123, "speed": 0.1290000081062317, "roll": "0.11202056706"}
{"pitch": "-0.0260654836893", "lat": 29.7133355, "timestamp": 1603398863.970605, "alt": 40.78, "yaw": "2.15362167358", "lon": -95.4043963, "heading": 123, "speed": 0.08500000089406967, "roll": "0.126328885555"}
{"pitch": "-0.0260654836893", "lat": 29.7133355, "timestamp": 1603398864.043995, "alt": 40.78, "yaw": "2.15362167358", "lon": -95.4043963, "heading": 123, "speed": 0.08500000089406967, "roll": "0.126328885555"}
{"pitch": "-0.0273171197623", "lat": 29.7133356, "timestamp": 1603398864.471897, "alt": 40.78, "yaw": "2.17608499527", "lon": -95.4043965, "heading": 124, "speed": 0.09100000560283661, "roll": "0.138829022646"}
{"pitch": "-0.0273171197623", "lat": 29.7133356, "timestamp": 1603398864.545425, "alt": 40.79, "yaw": "2.17608499527", "lon": -95.404397, "heading": 124, "speed": 0.09100000560283661, "roll": "0.138829022646"}
{"pitch": "-0.0670359507203", "lat": 29.7133358, "timestamp": 1603398864.972962, "alt": 40.8, "yaw": "2.18468856812", "lon": -95.4043977, "heading": 125, "speed": 0.29600000381469727, "roll": "0.117381192744"}
{"pitch": "-0.0670359507203", "lat": 29.7133358, "timestamp": 1603398865.046751, "alt": 40.8, "yaw": "2.18468856812", "lon": -95.4043977, "heading": 125, "speed": 0.29600000381469727, "roll": "0.117381192744"}
{"pitch": "-0.07788002491", "lat": 29.7133359, "timestamp": 1603398865.47377, "alt": 40.8, "yaw": "2.1834602356", "lon": -95.4043989, "heading": 125, "speed": 0.2760000228881836, "roll": "0.105893671513"}
{"pitch": "-0.0825159177184", "lat": 29.7133359, "timestamp": 1603398865.547869, "alt": 40.8, "yaw": "2.18712997437", "lon": -95.4043989, "heading": 125, "speed": 0.2720000147819519, "roll": "0.107619851828"}
{"pitch": "-0.0617750510573", "lat": 29.7133357, "timestamp": 1603398865.975036, "alt": 40.78, "yaw": "2.19342207909", "lon": -95.4043995, "heading": 125, "speed": 0.2710000276565552, "roll": "0.102480530739"}
{"pitch": "-0.0707295387983", "lat": 29.7133357, "timestamp": 1603398866.048532, "alt": 40.78, "yaw": "2.1841006279", "lon": -95.4043995, "heading": 125, "speed": 0.2710000276565552, "roll": "0.100751101971"}
{"pitch": "-0.073907494545", "lat": 29.7133358, "timestamp": 1603398866.476198, "alt": 40.75, "yaw": "2.17924189568", "lon": -95.4044001, "heading": 124, "speed": 0.2510000169277191, "roll": "0.103844448924"}
{"pitch": "-0.073907494545", "lat": 29.7133358, "timestamp": 1603398866.549782, "alt": 40.75, "yaw": "2.17924189568", "lon": -95.4044001, "heading": 124, "speed": 0.2510000169277191, "roll": "0.103844448924"}
{"pitch": "-0.089134298265", "lat": 29.7133359, "timestamp": 1603398866.977261, "alt": 40.76, "yaw": "2.17067694664", "lon": -95.4044006, "heading": 124, "speed": 0.15000000596046448, "roll": "0.104220122099"}
{"pitch": "-0.089134298265", "lat": 29.7133359, "timestamp": 1603398867.050926, "alt": 40.76, "yaw": "2.17067694664", "lon": -95.4044006, "heading": 124, "speed": 0.15000000596046448, "roll": "0.104220122099"}
{"pitch": "-0.0768014416099", "lat": 29.7133359, "timestamp": 1603398867.478406, "alt": 40.76, "yaw": "2.17535591125", "lon": -95.4044005, "heading": 124, "speed": 0.04100000113248825, "roll": "0.101618729532"}
{"pitch": "-0.0768014416099", "lat": 29.713336, "timestamp": 1603398867.552079, "alt": 40.77, "yaw": "2.17535591125", "lon": -95.4044005, "heading": 124, "speed": 0.04100000113248825, "roll": "0.101618729532"}
{"pitch": "-0.0746080130339", "lat": 29.7133362, "timestamp": 1603398867.97955, "alt": 40.78, "yaw": "2.18258714676", "lon": -95.4044004, "heading": 125, "speed": 0.08700000494718552, "roll": "0.128783866763"}
{"pitch": "-0.0746080130339", "lat": 29.7133363, "timestamp": 1603398868.053249, "alt": 40.78, "yaw": "2.18258714676", "lon": -95.4044004, "heading": 124, "speed": 0.06200000271201134, "roll": "0.128783866763"}
{"pitch": "-0.0777488648891", "lat": 29.7133364, "timestamp": 1603398868.480739, "alt": 40.78, "yaw": "2.18082690239", "lon": -95.4044006, "heading": 125, "speed": 0.08800000697374344, "roll": "0.130242198706"}
{"pitch": "-0.069412522018", "lat": 29.7133364, "timestamp": 1603398868.554412, "alt": 40.78, "yaw": "2.1835258007", "lon": -95.4044006, "heading": 124, "speed": 0.14500001072883606, "roll": "0.122931145132"}
{"pitch": "-0.0864079073071", "lat": 29.713336, "timestamp": 1603398868.981942, "alt": 40.76, "yaw": "2.17173814774", "lon": -95.4044016, "heading": 124, "speed": 0.19200000166893005, "roll": "0.111729510128"}
{"pitch": "-0.0987439826131", "lat": 29.713336, "timestamp": 1603398869.055509, "alt": 40.76, "yaw": "2.16301202774", "lon": -95.4044016, "heading": 124, "speed": 0.19200000166893005, "roll": "0.0929049178958"}
{"pitch": "-0.0967058166862", "lat": 29.7133356, "timestamp": 1603398869.483233, "alt": 40.75, "yaw": "2.16340374947", "lon": -95.4044021, "heading": 124, "speed": 0.12700000405311584, "roll": "0.0760198310018"}
{"pitch": "-0.0967058166862", "lat": 29.7133356, "timestamp": 1603398869.556744, "alt": 40.75, "yaw": "2.16340374947", "lon": -95.4044021, "heading": 124, "speed": 0.12700000405311584, "roll": "0.0760198310018"}
{"pitch": "-0.0872124284506", "lat": 29.7133356, "timestamp": 1603398869.984746, "alt": 40.74, "yaw": "2.17151618004", "lon": -95.404402, "heading": 124, "speed": 0.06599999964237213, "roll": "0.107431672513"}
{"pitch": "-0.0872124284506", "lat": 29.7133356, "timestamp": 1603398870.058055, "alt": 40.72, "yaw": "2.17151618004", "lon": -95.4044019, "heading": 124, "speed": 0.06599999964237213, "roll": "0.107431672513"}
{"pitch": "-0.0917438790202", "lat": 29.7133355, "timestamp": 1603398870.48607, "alt": 40.72, "yaw": "2.17131876945", "lon": -95.4044019, "heading": 124, "speed": 0.09300000220537186, "roll": "0.12093321979"}
{"pitch": "-0.0917438790202", "lat": 29.7133355, "timestamp": 1603398870.559194, "alt": 40.72, "yaw": "2.17131876945", "lon": -95.4044019, "heading": 124, "speed": 0.03200000151991844, "roll": "0.12093321979"}
{"pitch": "-0.0857952460647", "lat": 29.7133349, "timestamp": 1603398870.987264, "alt": 40.72, "yaw": "2.1738038063", "lon": -95.4044023, "heading": 124, "speed": 0.030000001192092896, "roll": "0.0548082478344"}
{"pitch": "-0.0857952460647", "lat": 29.7133349, "timestamp": 1603398871.060327, "alt": 40.72, "yaw": "2.1738038063", "lon": -95.4044023, "heading": 124, "speed": 0.030000001192092896, "roll": "0.0548082478344"}
{"pitch": "-0.0843678042293", "lat": 29.7133349, "timestamp": 1603398871.488376, "alt": 40.74, "yaw": "2.166629076", "lon": -95.4044024, "heading": 123, "speed": 0.09700000286102295, "roll": "0.0724864900112"}
{"pitch": "-0.0893044471741", "lat": 29.7133349, "timestamp": 1603398871.561484, "alt": 40.74, "yaw": "2.16257619858", "lon": -95.4044024, "heading": 123, "speed": 0.09700000286102295, "roll": "0.0914699882269"}
{"pitch": "-0.0855066627264", "lat": 29.7133351, "timestamp": 1603398871.989532, "alt": 40.76, "yaw": "2.16047263145", "lon": -95.4044021, "heading": 123, "speed": 0.1300000101327896, "roll": "0.0989640653133"}
{"pitch": "-0.0855066627264", "lat": 29.7133351, "timestamp": 1603398872.062599, "alt": 40.76, "yaw": "2.16047263145", "lon": -95.4044021, "heading": 123, "speed": 0.1300000101327896, "roll": "0.0989640653133"}
{"pitch": "-0.0987619534135", "lat": 29.7133353, "timestamp": 1603398872.490718, "alt": 40.77, "yaw": "2.1585187912", "lon": -95.4044019, "heading": 123, "speed": 0.1720000058412552, "roll": "0.107137724757"}
{"pitch": "-0.0987619534135", "lat": 29.7133354, "timestamp": 1603398872.563788, "alt": 40.76, "yaw": "2.1585187912", "lon": -95.4044016, "heading": 124, "speed": 0.1720000058412552, "roll": "0.107137724757"}
{"pitch": "-0.0831241980195", "lat": 29.7133355, "timestamp": 1603398872.991908, "alt": 40.76, "yaw": "2.16122746468", "lon": -95.4044013, "heading": 124, "speed": 0.2120000123977661, "roll": "0.114560157061"}
{"pitch": "-0.0831241980195", "lat": 29.7133354, "timestamp": 1603398873.065101, "alt": 40.75, "yaw": "2.16122746468", "lon": -95.404401, "heading": 124, "speed": 0.2120000123977661, "roll": "0.114560157061"}
{"pitch": "-0.0791350007057", "lat": 29.7133353, "timestamp": 1603398873.493051, "alt": 40.73, "yaw": "2.15793585777", "lon": -95.4044009, "heading": 123, "speed": 0.18300001323223114, "roll": "0.103512406349"}
{"pitch": "-0.0791350007057", "lat": 29.7133353, "timestamp": 1603398873.566254, "alt": 40.73, "yaw": "2.15793585777", "lon": -95.4044009, "heading": 123, "speed": 0.18300001323223114, "roll": "0.103512406349"}
{"pitch": "-0.0788409933448", "lat": 29.7133352, "timestamp": 1603398873.994423, "alt": 40.73, "yaw": "2.15770196915", "lon": -95.4044006, "heading": 123, "speed": 0.17000000178813934, "roll": "0.0928757712245"}
{"pitch": "-0.0864305272698", "lat": 29.7133352, "timestamp": 1603398874.067432, "alt": 40.73, "yaw": "2.15901255608", "lon": -95.4044006, "heading": 123, "speed": 0.17000000178813934, "roll": "0.094020396471"}
{"pitch": "-0.0816933959723", "lat": 29.7133356, "timestamp": 1603398874.495778, "alt": 40.74, "yaw": "2.16812038422", "lon": -95.4044002, "heading": 123, "speed": 0.18000000715255737, "roll": "0.117932029068"}
{"pitch": "-0.0816933959723", "lat": 29.7133356, "timestamp": 1603398874.568379, "alt": 40.74, "yaw": "2.16812038422", "lon": -95.4044002, "heading": 124, "speed": 0.17500001192092896, "roll": "0.117932029068"}
{"pitch": "-0.0826979205012", "lat": 29.7133358, "timestamp": 1603398874.996918, "alt": 40.74, "yaw": "2.16005516052", "lon": -95.4044001, "heading": 124, "speed": 0.17600001394748688, "roll": "0.10160369426"}
{"pitch": "-0.0826979205012", "lat": 29.713336, "timestamp": 1603398875.069506, "alt": 40.74, "yaw": "2.16005516052", "lon": -95.4044, "heading": 124, "speed": 0.17600001394748688, "roll": "0.10160369426"}
{"pitch": "-0.0649342611432", "lat": 29.7133362, "timestamp": 1603398875.498052, "alt": 40.74, "yaw": "2.16826057434", "lon": -95.4043997, "heading": 124, "speed": 0.23800000548362732, "roll": "0.134623989463"}
{"pitch": "-0.0649342611432", "lat": 29.7133366, "timestamp": 1603398875.570579, "alt": 40.7, "yaw": "2.16826057434", "lon": -95.4043993, "heading": 124, "speed": 0.23800000548362732, "roll": "0.134623989463"}
{"pitch": "-0.0715306401253", "lat": 29.7133372, "timestamp": 1603398875.999224, "alt": 40.6, "yaw": "2.17235255241", "lon": -95.4043989, "heading": 124, "speed": 0.14000000059604645, "roll": "0.146208539605"}
{"pitch": "-0.0596835725009", "lat": 29.7133372, "timestamp": 1603398876.083811, "alt": 40.6, "yaw": "2.19024085999", "lon": -95.4043989, "heading": 124, "speed": 0.14000000059604645, "roll": "0.189944177866"}
{"pitch": "-0.0683839395642", "lat": 29.7133379, "timestamp": 1603398876.500402, "alt": 40.16, "yaw": "2.19099903107", "lon": -95.4043982, "heading": 125, "speed": 0.2850000262260437, "roll": "0.179013922811"}
{"pitch": "-0.0622951500118", "lat": 29.7133379, "timestamp": 1603398876.584987, "alt": 40.16, "yaw": "2.19127225876", "lon": -95.4043982, "heading": 125, "speed": 0.2850000262260437, "roll": "0.15785355866"}
{"pitch": "-0.0541030913591", "lat": 29.7133379, "timestamp": 1603398877.001509, "alt": 39.41, "yaw": "2.19041800499", "lon": -95.4043984, "heading": 125, "speed": 0.046000003814697266, "roll": "0.136142924428"}
{"pitch": "-0.0541030913591", "lat": 29.7133379, "timestamp": 1603398877.086037, "alt": 39.41, "yaw": "2.19041800499", "lon": -95.4043984, "heading": 125, "speed": 0.15600000321865082, "roll": "0.136142924428"}
{"pitch": "-0.0889018252492", "lat": 29.7133382, "timestamp": 1603398877.502227, "alt": 38.59, "yaw": "2.17058157921", "lon": -95.4043994, "heading": 124, "speed": 0.2510000169277191, "roll": "0.117511719465"}
{"pitch": "-0.0889018252492", "lat": 29.7133382, "timestamp": 1603398877.587198, "alt": 38.59, "yaw": "2.17058157921", "lon": -95.4043994, "heading": 124, "speed": 0.1770000010728836, "roll": "0.117511719465"}
{"pitch": "-0.0922067239881", "lat": 29.7133388, "timestamp": 1603398878.003331, "alt": 37.77, "yaw": "2.17645263672", "lon": -95.4044003, "heading": 124, "speed": 0.19700001180171967, "roll": "0.155094847083"}
{"pitch": "-0.0922067239881", "lat": 29.7133388, "timestamp": 1603398878.088377, "alt": 37.77, "yaw": "2.17645263672", "lon": -95.4044003, "heading": 124, "speed": 0.19700001180171967, "roll": "0.155094847083"}
{"pitch": "-0.0906321629882", "lat": 29.7133386, "timestamp": 1603398878.504434, "alt": 37.34, "yaw": "2.17359995842", "lon": -95.4044007, "heading": 124, "speed": 0.11900000274181366, "roll": "0.146417766809"}
{"pitch": "-0.0806323885918", "lat": 29.7133386, "timestamp": 1603398878.589633, "alt": 36.93, "yaw": "2.17486953735", "lon": -95.4044009, "heading": 124, "speed": 0.11900000274181366, "roll": "0.148056164384"}
{"pitch": "-0.0743499919772", "lat": 29.7133384, "timestamp": 1603398879.005584, "alt": 36.54, "yaw": "2.17432546616", "lon": -95.4044011, "heading": 124, "speed": 0.18300001323223114, "roll": "0.125208094716"}
{"pitch": "-0.0743499919772", "lat": 29.7133384, "timestamp": 1603398879.092136, "alt": 36.54, "yaw": "2.17432546616", "lon": -95.4044011, "heading": 124, "speed": 0.19200000166893005, "roll": "0.125208094716"}
{"pitch": "-0.0767397359014", "lat": 29.7133385, "timestamp": 1603398879.506814, "alt": 35.71, "yaw": "2.16610431671", "lon": -95.4044012, "heading": 124, "speed": 0.08000000566244125, "roll": "0.146647036076"}
{"pitch": "-0.0767397359014", "lat": 29.7133385, "timestamp": 1603398879.593301, "alt": 35.71, "yaw": "2.16610431671", "lon": -95.4044012, "heading": 124, "speed": 0.08000000566244125, "roll": "0.146647036076"}
{"pitch": "-0.0784494131804", "lat": 29.7133385, "timestamp": 1603398880.008095, "alt": 35.24, "yaw": "2.15731978416", "lon": -95.4044011, "heading": 123, "speed": 0.14900000393390656, "roll": "0.151301056147"}
{"pitch": "-0.0644419714808", "lat": 29.7133381, "timestamp": 1603398880.094466, "alt": 34.77, "yaw": "2.15397167206", "lon": -95.4044009, "heading": 123, "speed": 0.14900000393390656, "roll": "0.111871063709"}
{"pitch": "-0.033573564142", "lat": 29.7133376, "timestamp": 1603398880.508924, "alt": 34.35, "yaw": "2.18369030952", "lon": -95.4044005, "heading": 124, "speed": 0.17900000512599945, "roll": "0.0775994509459"}
{"pitch": "-0.019843256101", "lat": 29.713337, "timestamp": 1603398880.595645, "alt": 33.9, "yaw": "2.19748067856", "lon": -95.4044, "heading": 125, "speed": 0.3360000252723694, "roll": "0.131236866117"}
