{"pitch": "0.0179966781288", "lat": 29.7132626, "timestamp": 1603394928.059274, "alt": 10.19, "yaw": "2.13028287888", "lon": -95.4044001, "heading": 122, "speed": 0.02500000037252903, "roll": "0.00826645363122"}
{"pitch": "0.0176603868604", "lat": 29.713262, "timestamp": 1603394928.563725, "alt": 10.22, "yaw": "2.13017177582", "lon": -95.4044014, "heading": 122, "speed": 0.015000000596046448, "roll": "0.00790675450116"}
{"pitch": "0.0174798369408", "lat": 29.7132618, "timestamp": 1603394929.065046, "alt": 10.25, "yaw": "2.13015818596", "lon": -95.404402, "heading": 122, "speed": 0.013000000268220901, "roll": "0.00783016066998"}
{"pitch": "0.0171794593334", "lat": 29.7132616, "timestamp": 1603394929.566926, "alt": 10.26, "yaw": "2.13009119034", "lon": -95.4044025, "heading": 122, "speed": 0.017000000923871994, "roll": "0.00745542673394"}
{"pitch": "0.0169790517539", "lat": 29.7132615, "timestamp": 1603394930.068059, "alt": 10.28, "yaw": "2.13002681732", "lon": -95.404403, "heading": 122, "speed": 0.01100000087171793, "roll": "0.00733224116266"}
{"pitch": "0.0167136732489", "lat": 29.7132614, "timestamp": 1603394930.56915, "alt": 10.33, "yaw": "2.13008403778", "lon": -95.4044035, "heading": 122, "speed": 0.03200000151991844, "roll": "0.00717195495963"}
{"pitch": "0.0166525486857", "lat": 29.7132613, "timestamp": 1603394931.070313, "alt": 10.38, "yaw": "2.13019061089", "lon": -95.4044039, "heading": 122, "speed": 0.02200000174343586, "roll": "0.00707620661706"}
{"pitch": "0.0165892839432", "lat": 29.7132613, "timestamp": 1603394931.571754, "alt": 10.41, "yaw": "2.13027787209", "lon": -95.4044043, "heading": 122, "speed": 0.0010000000474974513, "roll": "0.00674826838076"}
{"pitch": "0.0164264123887", "lat": 29.7132613, "timestamp": 1603394932.072966, "alt": 10.44, "yaw": "2.13038349152", "lon": -95.4044046, "heading": 122, "speed": 0.01100000087171793, "roll": "0.00669898744673"}
{"pitch": "0.01647673361", "lat": 29.7132614, "timestamp": 1603394932.5744, "alt": 10.45, "yaw": "2.13055801392", "lon": -95.4044048, "heading": 122, "speed": 0.03400000184774399, "roll": "0.00673833629116"}
{"pitch": "0.0165032092482", "lat": 29.7132617, "timestamp": 1603394933.075538, "alt": 10.49, "yaw": "2.1304769516", "lon": -95.4044051, "heading": 122, "speed": 0.02500000037252903, "roll": "0.00655547110364"}
{"pitch": "0.0162722785026", "lat": 29.7132618, "timestamp": 1603394933.576717, "alt": 10.49, "yaw": "2.13059306145", "lon": -95.4044051, "heading": 122, "speed": 0.030000001192092896, "roll": "0.00659389933571"}
{"pitch": "0.0161261726171", "lat": 29.7132619, "timestamp": 1603394934.077917, "alt": 10.51, "yaw": "2.13063192368", "lon": -95.4044051, "heading": 122, "speed": 0.032999999821186066, "roll": "0.00673307944089"}
{"pitch": "0.0159671232104", "lat": 29.713262, "timestamp": 1603394934.579105, "alt": 10.52, "yaw": "2.13071417809", "lon": -95.4044051, "heading": 122, "speed": 0.012000000104308128, "roll": "0.00685404520482"}
{"pitch": "0.0160004217178", "lat": 29.7132622, "timestamp": 1603394935.080209, "alt": 10.52, "yaw": "2.13085412979", "lon": -95.4044051, "heading": 122, "speed": 0.02800000086426735, "roll": "0.0069737797603"}
{"pitch": "0.0161367487162", "lat": 29.7132625, "timestamp": 1603394935.581314, "alt": 10.52, "yaw": "2.13086414337", "lon": -95.404405, "heading": 122, "speed": 0.00800000037997961, "roll": "0.00687241088599"}
{"pitch": "0.0162244420499", "lat": 29.7132629, "timestamp": 1603394936.082613, "alt": 10.51, "yaw": "2.13093090057", "lon": -95.4044049, "heading": 122, "speed": 0.04200000315904617, "roll": "0.0069115315564"}
{"pitch": "0.016328798607", "lat": 29.7132634, "timestamp": 1603394936.58379, "alt": 10.49, "yaw": "2.13102626801", "lon": -95.4044047, "heading": 122, "speed": 0.020000001415610313, "roll": "0.00698160985485"}
{"pitch": "0.0163136590272", "lat": 29.7132639, "timestamp": 1603394937.085059, "alt": 10.46, "yaw": "2.131077528", "lon": -95.4044046, "heading": 122, "speed": 0.032999999821186066, "roll": "0.00703336810693"}
{"pitch": "0.0166476666927", "lat": 29.7132645, "timestamp": 1603394937.586189, "alt": 10.44, "yaw": "2.1312084198", "lon": -95.4044045, "heading": 122, "speed": 0.02500000037252903, "roll": "0.00722872000188"}
{"pitch": "0.0167563967407", "lat": 29.7132651, "timestamp": 1603394938.088279, "alt": 10.43, "yaw": "2.13130998611", "lon": -95.4044045, "heading": 122, "speed": 0.029000001028180122, "roll": "0.00736458878964"}
{"pitch": "0.0167872924358", "lat": 29.7132657, "timestamp": 1603394938.589795, "alt": 10.42, "yaw": "2.1314227581", "lon": -95.4044045, "heading": 122, "speed": 0.027000000700354576, "roll": "0.00773847848177"}
{"pitch": "0.0166631471366", "lat": 29.7132663, "timestamp": 1603394939.090969, "alt": 10.41, "yaw": "2.13156747818", "lon": -95.4044045, "heading": 122, "speed": 0.023000001907348633, "roll": "0.00790010392666"}
{"pitch": "0.0165394488722", "lat": 29.7132673, "timestamp": 1603394939.592165, "alt": 10.37, "yaw": "2.13150978088", "lon": -95.4044044, "heading": 122, "speed": 0.017000000923871994, "roll": "0.00786960776895"}
{"pitch": "0.0168344024569", "lat": 29.713268, "timestamp": 1603394940.093306, "alt": 10.34, "yaw": "2.13160419464", "lon": -95.4044044, "heading": 122, "speed": 0.01900000125169754, "roll": "0.0079425657168"}
{"pitch": "0.0169100500643", "lat": 29.7132687, "timestamp": 1603394940.59435, "alt": 10.32, "yaw": "2.13180589676", "lon": -95.4044044, "heading": 122, "speed": 0.021000001579523087, "roll": "0.00814232602715"}
{"pitch": "0.0168477334082", "lat": 29.7132693, "timestamp": 1603394941.096191, "alt": 10.31, "yaw": "2.13182926178", "lon": -95.4044045, "heading": 122, "speed": 0.012000000104308128, "roll": "0.00842600222677"}
{"pitch": "0.016864111647", "lat": 29.71327, "timestamp": 1603394941.599783, "alt": 10.29, "yaw": "2.13178658485", "lon": -95.4044045, "heading": 122, "speed": 0.03700000047683716, "roll": "0.00863823480904"}
{"pitch": "0.0169011689723", "lat": 29.7132707, "timestamp": 1603394942.100954, "alt": 10.29, "yaw": "2.13177776337", "lon": -95.4044046, "heading": 122, "speed": 0.03100000135600567, "roll": "0.00884647294879"}
{"pitch": "0.0166942831129", "lat": 29.7132713, "timestamp": 1603394942.602098, "alt": 10.28, "yaw": "2.13199615479", "lon": -95.4044046, "heading": 122, "speed": 0.014000000432133675, "roll": "0.00898474734277"}
{"pitch": "0.0168041344732", "lat": 29.7132719, "timestamp": 1603394943.1032, "alt": 10.29, "yaw": "2.13215446472", "lon": -95.4044046, "heading": 122, "speed": 0.02800000086426735, "roll": "0.00912674609572"}
{"pitch": "0.0168110914528", "lat": 29.7132725, "timestamp": 1603394943.604394, "alt": 10.28, "yaw": "2.13225579262", "lon": -95.4044047, "heading": 122, "speed": 0.017000000923871994, "roll": "0.00918424129486"}
{"pitch": "0.0167317781597", "lat": 29.7132731, "timestamp": 1603394944.105587, "alt": 10.27, "yaw": "2.13217592239", "lon": -95.4044047, "heading": 122, "speed": 0.023000001907348633, "roll": "0.00925884116441"}
{"pitch": "0.0165853369981", "lat": 29.7132737, "timestamp": 1603394944.606756, "alt": 10.26, "yaw": "2.1320438385", "lon": -95.4044047, "heading": 122, "speed": 0.017000000923871994, "roll": "0.00940717477351"}
{"pitch": "0.0164209362119", "lat": 29.7132742, "timestamp": 1603394945.107921, "alt": 10.25, "yaw": "2.13207006454", "lon": -95.4044047, "heading": 122, "speed": 0.03800000250339508, "roll": "0.00966481398791"}
{"pitch": "0.0163614265621", "lat": 29.7132745, "timestamp": 1603394945.609937, "alt": 10.25, "yaw": "2.13215255737", "lon": -95.4044046, "heading": 122, "speed": 0.027000000700354576, "roll": "0.00996484048665"}
{"pitch": "0.0161447860301", "lat": 29.713275, "timestamp": 1603394946.112098, "alt": 10.24, "yaw": "2.13227725029", "lon": -95.4044046, "heading": 122, "speed": 0.03800000250339508, "roll": "0.0100192734972"}
{"pitch": "0.0160791538656", "lat": 29.7132753, "timestamp": 1603394946.613217, "alt": 10.23, "yaw": "2.13233852386", "lon": -95.4044045, "heading": 122, "speed": 0.007000000216066837, "roll": "0.0101516554132"}
{"pitch": "0.0160981118679", "lat": 29.7132756, "timestamp": 1603394947.116029, "alt": 10.22, "yaw": "2.13228678703", "lon": -95.4044043, "heading": 122, "speed": 0.0430000014603138, "roll": "0.0101443044841"}
{"pitch": "0.0158282183111", "lat": 29.7132758, "timestamp": 1603394947.618561, "alt": 10.21, "yaw": "2.1322221756", "lon": -95.4044041, "heading": 122, "speed": 0.01900000125169754, "roll": "0.010175447911"}
{"pitch": "0.0161895733327", "lat": 29.713276, "timestamp": 1603394948.119733, "alt": 10.2, "yaw": "2.13254880905", "lon": -95.404404, "heading": 122, "speed": 0.006000000052154064, "roll": "0.0102521507069"}
{"pitch": "0.0159828718752", "lat": 29.7132762, "timestamp": 1603394948.62093, "alt": 10.2, "yaw": "2.132563591", "lon": -95.4044038, "heading": 122, "speed": 0.029000001028180122, "roll": "0.0103016160429"}
{"pitch": "0.0158949699253", "lat": 29.7132763, "timestamp": 1603394949.122105, "alt": 10.2, "yaw": "2.13262224197", "lon": -95.4044037, "heading": 122, "speed": 0.003000000026077032, "roll": "0.0103568937629"}
{"pitch": "0.0158807802945", "lat": 29.7132764, "timestamp": 1603394949.623273, "alt": 10.21, "yaw": "2.1327047348", "lon": -95.4044035, "heading": 122, "speed": 0.01600000075995922, "roll": "0.0103220483288"}
{"pitch": "0.0159032680094", "lat": 29.7132766, "timestamp": 1603394950.124371, "alt": 10.21, "yaw": "2.13265919685", "lon": -95.4044033, "heading": 122, "speed": 0.039000000804662704, "roll": "0.010142263025"}
{"pitch": "0.0161926038563", "lat": 29.7132767, "timestamp": 1603394950.627858, "alt": 10.2, "yaw": "2.13273262978", "lon": -95.4044033, "heading": 122, "speed": 0.024000000208616257, "roll": "0.0101291723549"}
{"pitch": "0.0160683635622", "lat": 29.7132768, "timestamp": 1603394951.129273, "alt": 10.18, "yaw": "2.13270163536", "lon": -95.4044032, "heading": 122, "speed": 0.012000000104308128, "roll": "0.0101827830076"}
{"pitch": "0.0162543077022", "lat": 29.7132768, "timestamp": 1603394951.631465, "alt": 10.16, "yaw": "2.13284492493", "lon": -95.4044032, "heading": 122, "speed": 0.01900000125169754, "roll": "0.010139234364"}
{"pitch": "0.0161802526563", "lat": 29.7132767, "timestamp": 1603394952.132613, "alt": 10.16, "yaw": "2.13287401199", "lon": -95.4044031, "heading": 122, "speed": 0.020000001415610313, "roll": "0.0100216297433"}
{"pitch": "0.016083765775", "lat": 29.7132766, "timestamp": 1603394952.633762, "alt": 10.17, "yaw": "2.13300228119", "lon": -95.4044031, "heading": 122, "speed": 0.010000000707805157, "roll": "0.00998365785927"}
{"pitch": "0.0161815546453", "lat": 29.7132764, "timestamp": 1603394953.135158, "alt": 10.19, "yaw": "2.13302779198", "lon": -95.4044031, "heading": 122, "speed": 0.013000000268220901, "roll": "0.00997790694237"}
{"pitch": "0.0161663517356", "lat": 29.7132761, "timestamp": 1603394953.636484, "alt": 10.19, "yaw": "2.13319420815", "lon": -95.4044029, "heading": 122, "speed": 0.012000000104308128, "roll": "0.00985438656062"}
{"pitch": "0.0161322038621", "lat": 29.7132758, "timestamp": 1603394954.13987, "alt": 10.19, "yaw": "2.13327074051", "lon": -95.4044028, "heading": 122, "speed": 0.00800000037997961, "roll": "0.00981567520648"}
{"pitch": "0.0163491927087", "lat": 29.7132754, "timestamp": 1603394954.64106, "alt": 10.16, "yaw": "2.13339471817", "lon": -95.4044026, "heading": 122, "speed": 0.024000000208616257, "roll": "0.00964299403131"}
{"pitch": "0.0164621546865", "lat": 29.713275, "timestamp": 1603394955.142173, "alt": 10.13, "yaw": "2.13343811035", "lon": -95.4044025, "heading": 122, "speed": 0.009000000543892384, "roll": "0.00963507313281"}
{"pitch": "0.0166514217854", "lat": 29.7132747, "timestamp": 1603394955.645106, "alt": 10.09, "yaw": "2.13354635239", "lon": -95.4044023, "heading": 122, "speed": 0.030000001192092896, "roll": "0.009456214495"}
{"pitch": "0.0167684201151", "lat": 29.7132742, "timestamp": 1603394956.146762, "alt": 10.05, "yaw": "2.13351631165", "lon": -95.4044022, "heading": 122, "speed": 0.021000001579523087, "roll": "0.00949313212186"}
{"pitch": "0.0168103743345", "lat": 29.7132738, "timestamp": 1603394956.647822, "alt": 10.01, "yaw": "2.13345766068", "lon": -95.404402, "heading": 122, "speed": 0.023000001907348633, "roll": "0.0093556670472"}
{"pitch": "0.0167841315269", "lat": 29.7132732, "timestamp": 1603394957.149011, "alt": 9.94, "yaw": "2.13337755203", "lon": -95.4044017, "heading": 122, "speed": 0.032999999821186066, "roll": "0.00917008984834"}
{"pitch": "0.0170076806098", "lat": 29.7132731, "timestamp": 1603394957.650601, "alt": 9.94, "yaw": "2.1334939003", "lon": -95.4044016, "heading": 122, "speed": 0.012000000104308128, "roll": "0.00912046339363"}
{"pitch": "0.0171706322581", "lat": 29.7132726, "timestamp": 1603394958.152236, "alt": 9.93, "yaw": "2.13372087479", "lon": -95.4044012, "heading": 122, "speed": 0.017000000923871994, "roll": "0.0089270118624"}
{"pitch": "0.0170638505369", "lat": 29.7132722, "timestamp": 1603394958.653396, "alt": 9.92, "yaw": "2.13378405571", "lon": -95.4044009, "heading": 122, "speed": 0.05400000140070915, "roll": "0.0089823519811"}
{"pitch": "0.0170995313674", "lat": 29.7132719, "timestamp": 1603394959.154523, "alt": 9.93, "yaw": "2.13381028175", "lon": -95.4044007, "heading": 122, "speed": 0.010000000707805157, "roll": "0.00882908236235"}
{"pitch": "0.0172997899354", "lat": 29.7132718, "timestamp": 1603394959.655639, "alt": 9.93, "yaw": "2.13387584686", "lon": -95.4044004, "heading": 122, "speed": 0.01100000087171793, "roll": "0.00877938792109"}
{"pitch": "0.0173246189952", "lat": 29.7132717, "timestamp": 1603394960.156862, "alt": 9.94, "yaw": "2.13374423981", "lon": -95.4044001, "heading": 122, "speed": 0.020000001415610313, "roll": "0.00849138386548"}
{"pitch": "0.0172780193388", "lat": 29.7132716, "timestamp": 1603394960.657521, "alt": 9.93, "yaw": "2.13372039795", "lon": -95.4043997, "heading": 122, "speed": 0.017000000923871994, "roll": "0.00840537343174"}
{"pitch": "0.017158780247", "lat": 29.7132714, "timestamp": 1603394961.159698, "alt": 9.9, "yaw": "2.13381457329", "lon": -95.4043994, "heading": 122, "speed": 0.017000000923871994, "roll": "0.00837008561939"}
{"pitch": "0.0170656722039", "lat": 29.7132713, "timestamp": 1603394961.66137, "alt": 9.86, "yaw": "2.13382077217", "lon": -95.404399, "heading": 122, "speed": 0.02800000086426735, "roll": "0.00838231202215"}
{"pitch": "0.0170896872878", "lat": 29.7132711, "timestamp": 1603394962.163775, "alt": 9.84, "yaw": "2.13390016556", "lon": -95.4043986, "heading": 122, "speed": 0.007000000216066837, "roll": "0.00840297807008"}
{"pitch": "0.0169740151614", "lat": 29.713271, "timestamp": 1603394962.665651, "alt": 9.8, "yaw": "2.13392925262", "lon": -95.4043983, "heading": 122, "speed": 0.03700000047683716, "roll": "0.00831227563322"}
{"pitch": "0.016945566982", "lat": 29.7132709, "timestamp": 1603394963.167411, "alt": 9.77, "yaw": "2.13402199745", "lon": -95.4043979, "heading": 122, "speed": 0.024000000208616257, "roll": "0.00839664787054"}
{"pitch": "0.0170014277101", "lat": 29.7132707, "timestamp": 1603394963.669195, "alt": 9.74, "yaw": "2.13430166245", "lon": -95.4043974, "heading": 122, "speed": 0.04100000113248825, "roll": "0.0084277279675"}
{"pitch": "0.0169924777001", "lat": 29.7132707, "timestamp": 1603394964.170487, "alt": 9.75, "yaw": "2.13437366486", "lon": -95.4043971, "heading": 122, "speed": 0.013000000268220901, "roll": "0.00852096825838"}
{"pitch": "0.0172880478203", "lat": 29.7132706, "timestamp": 1603394964.671672, "alt": 9.76, "yaw": "2.13436102867", "lon": -95.4043967, "heading": 122, "speed": 0.02200000174343586, "roll": "0.00853286404163"}
{"pitch": "0.0171495787799", "lat": 29.7132704, "timestamp": 1603394965.172992, "alt": 9.78, "yaw": "2.13431739807", "lon": -95.4043964, "heading": 122, "speed": 0.007000000216066837, "roll": "0.00859321374446"}
{"pitch": "0.0173122435808", "lat": 29.7132702, "timestamp": 1603394965.674142, "alt": 9.79, "yaw": "2.13425254822", "lon": -95.4043961, "heading": 122, "speed": 0.014000000432133675, "roll": "0.00856501981616"}
{"pitch": "0.0172635987401", "lat": 29.71327, "timestamp": 1603394966.175332, "alt": 9.79, "yaw": "2.13455629349", "lon": -95.4043958, "heading": 122, "speed": 0.04000000283122063, "roll": "0.00837645493448"}
{"pitch": "0.0173071250319", "lat": 29.7132699, "timestamp": 1603394966.676418, "alt": 9.79, "yaw": "2.13469314575", "lon": -95.4043955, "heading": 122, "speed": 0.013000000268220901, "roll": "0.00826237630099"}
{"pitch": "0.0172586888075", "lat": 29.7132697, "timestamp": 1603394967.17762, "alt": 9.8, "yaw": "2.13468956947", "lon": -95.4043952, "heading": 122, "speed": 0.012000000104308128, "roll": "0.00838891882449"}
{"pitch": "0.0172122512013", "lat": 29.7132696, "timestamp": 1603394967.678841, "alt": 9.81, "yaw": "2.13474345207", "lon": -95.4043949, "heading": 122, "speed": 0.00800000037997961, "roll": "0.0083612492308"}
{"pitch": "0.0171159431338", "lat": 29.7132693, "timestamp": 1603394968.180799, "alt": 9.82, "yaw": "2.1348054409", "lon": -95.4043948, "heading": 122, "speed": 0.02500000037252903, "roll": "0.00843650009483"}
{"pitch": "0.0171277858317", "lat": 29.7132689, "timestamp": 1603394968.68194, "alt": 9.82, "yaw": "2.13486862183", "lon": -95.4043946, "heading": 122, "speed": 0.01100000087171793, "roll": "0.00854668021202"}
{"pitch": "0.0171227008104", "lat": 29.7132687, "timestamp": 1603394969.183162, "alt": 9.83, "yaw": "2.13505959511", "lon": -95.4043945, "heading": 122, "speed": 0.04000000283122063, "roll": "0.0086541865021"}
{"pitch": "0.017157195136", "lat": 29.7132683, "timestamp": 1603394969.684356, "alt": 9.84, "yaw": "2.13520240784", "lon": -95.4043944, "heading": 122, "speed": 0.024000000208616257, "roll": "0.00873319525272"}
{"pitch": "0.0172230601311", "lat": 29.713268, "timestamp": 1603394970.18548, "alt": 9.84, "yaw": "2.13531589508", "lon": -95.4043944, "heading": 122, "speed": 0.04700000211596489, "roll": "0.00868224725127"}
{"pitch": "0.0174142997712", "lat": 29.7132677, "timestamp": 1603394970.686641, "alt": 9.85, "yaw": "2.13544082642", "lon": -95.4043943, "heading": 122, "speed": 0.026000000536441803, "roll": "0.0086213760078"}
{"pitch": "0.017331738025", "lat": 29.7132675, "timestamp": 1603394971.188976, "alt": 9.87, "yaw": "2.13535547256", "lon": -95.4043942, "heading": 122, "speed": 0.013000000268220901, "roll": "0.00850206520408"}
{"pitch": "0.0174379348755", "lat": 29.7132673, "timestamp": 1603394971.690759, "alt": 9.88, "yaw": "2.13544893265", "lon": -95.4043942, "heading": 122, "speed": 0.02800000086426735, "roll": "0.00824180338532"}
{"pitch": "0.0174888316542", "lat": 29.7132671, "timestamp": 1603394972.192518, "alt": 9.9, "yaw": "2.13545227051", "lon": -95.4043943, "heading": 122, "speed": 0.015000000596046448, "roll": "0.00811681896448"}
{"pitch": "0.0175241678953", "lat": 29.7132671, "timestamp": 1603394972.69458, "alt": 9.92, "yaw": "2.13569331169", "lon": -95.4043944, "heading": 122, "speed": 0.018000001087784767, "roll": "0.00804690085351"}
{"pitch": "0.0175169855356", "lat": 29.713267, "timestamp": 1603394973.195831, "alt": 9.95, "yaw": "2.13570666313", "lon": -95.4043945, "heading": 122, "speed": 0.02800000086426735, "roll": "0.0079756686464"}
{"pitch": "0.0172974448651", "lat": 29.713267, "timestamp": 1603394973.697229, "alt": 9.97, "yaw": "2.13590836525", "lon": -95.4043946, "heading": 122, "speed": 0.00800000037997961, "roll": "0.00793000962585"}
{"pitch": "0.0172096304595", "lat": 29.7132671, "timestamp": 1603394974.198372, "alt": 9.97, "yaw": "2.13596582413", "lon": -95.4043948, "heading": 122, "speed": 0.039000000804662704, "roll": "0.00782946031541"}
{"pitch": "0.0172951072454", "lat": 29.7132671, "timestamp": 1603394974.699618, "alt": 9.98, "yaw": "2.13620948792", "lon": -95.4043949, "heading": 122, "speed": 0.04000000283122063, "roll": "0.00773182697594"}
{"pitch": "0.0172808449715", "lat": 29.7132671, "timestamp": 1603394975.201675, "alt": 10.0, "yaw": "2.13636922836", "lon": -95.4043952, "heading": 122, "speed": 0.03700000047683716, "roll": "0.00768489204347"}
{"pitch": "0.0170650389045", "lat": 29.7132671, "timestamp": 1603394975.702815, "alt": 10.01, "yaw": "2.13648343086", "lon": -95.4043954, "heading": 122, "speed": 0.027000000700354576, "roll": "0.00771756470203"}
{"pitch": "0.0168798416853", "lat": 29.7132671, "timestamp": 1603394976.203954, "alt": 10.02, "yaw": "2.13645601273", "lon": -95.4043956, "heading": 122, "speed": 0.005000000353902578, "roll": "0.0077290404588"}
{"pitch": "0.0168870091438", "lat": 29.713267, "timestamp": 1603394976.705221, "alt": 10.03, "yaw": "2.13654756546", "lon": -95.4043959, "heading": 122, "speed": 0.036000002175569534, "roll": "0.00770611781627"}
{"pitch": "0.0169423688203", "lat": 29.7132669, "timestamp": 1603394977.206359, "alt": 10.02, "yaw": "2.13669395447", "lon": -95.4043961, "heading": 122, "speed": 0.04000000283122063, "roll": "0.00767945777625"}
{"pitch": "0.016791800037", "lat": 29.7132668, "timestamp": 1603394977.707597, "alt": 10.03, "yaw": "2.1369228363", "lon": -95.4043963, "heading": 122, "speed": 0.06599999964237213, "roll": "0.00772695895284"}
{"pitch": "0.0166548080742", "lat": 29.7132667, "timestamp": 1603394978.208772, "alt": 10.03, "yaw": "2.13708662987", "lon": -95.4043965, "heading": 122, "speed": 0.027000000700354576, "roll": "0.00773619860411"}
{"pitch": "0.0164794456214", "lat": 29.7132665, "timestamp": 1603394978.709471, "alt": 10.03, "yaw": "2.13724088669", "lon": -95.4043967, "heading": 122, "speed": 0.017000000923871994, "roll": "0.00774350389838"}
{"pitch": "0.0165344607085", "lat": 29.7132664, "timestamp": 1603394979.210582, "alt": 10.03, "yaw": "2.13749837875", "lon": -95.4043969, "heading": 122, "speed": 0.010000000707805157, "roll": "0.00765128061175"}
{"pitch": "0.0164740141481", "lat": 29.7132663, "timestamp": 1603394979.711931, "alt": 10.03, "yaw": "2.13773202896", "lon": -95.4043969, "heading": 122, "speed": 0.0430000014603138, "roll": "0.00737710949033"}
{"pitch": "0.0162986516953", "lat": 29.7132662, "timestamp": 1603394980.213823, "alt": 10.02, "yaw": "2.13792324066", "lon": -95.4043969, "heading": 122, "speed": 0.014000000432133675, "roll": "0.00722981290892"}
{"pitch": "0.0163456536829", "lat": 29.7132662, "timestamp": 1603394980.716912, "alt": 10.01, "yaw": "2.13791894913", "lon": -95.4043969, "heading": 122, "speed": 0.04200000315904617, "roll": "0.00701308250427"}
{"pitch": "0.0164028573781", "lat": 29.7132662, "timestamp": 1603394981.218099, "alt": 10.01, "yaw": "2.13797521591", "lon": -95.4043968, "heading": 122, "speed": 0.023000001907348633, "roll": "0.00675868615508"}
{"pitch": "0.0160903651267", "lat": 29.7132662, "timestamp": 1603394981.719218, "alt": 10.01, "yaw": "2.13790798187", "lon": -95.4043967, "heading": 122, "speed": 0.017000000923871994, "roll": "0.00651424191892"}
{"pitch": "0.0160339809954", "lat": 29.7132661, "timestamp": 1603394982.220348, "alt": 10.03, "yaw": "2.1380341053", "lon": -95.4043965, "heading": 122, "speed": 0.0020000000949949026, "roll": "0.00647824350744"}
{"pitch": "0.0159279983491", "lat": 29.713266, "timestamp": 1603394982.721466, "alt": 10.04, "yaw": "2.13814735413", "lon": -95.4043963, "heading": 122, "speed": 0.030000001192092896, "roll": "0.00654388684779"}
{"pitch": "0.0159261245281", "lat": 29.7132659, "timestamp": 1603394983.222695, "alt": 10.04, "yaw": "2.1383228302", "lon": -95.4043962, "heading": 122, "speed": 0.021000001579523087, "roll": "0.00669798674062"}
{"pitch": "0.0159091036767", "lat": 29.7132658, "timestamp": 1603394983.724632, "alt": 10.04, "yaw": "2.1383523941", "lon": -95.404396, "heading": 122, "speed": 0.01600000075995922, "roll": "0.00688344798982"}
{"pitch": "0.0160397645086", "lat": 29.7132656, "timestamp": 1603394984.226939, "alt": 10.03, "yaw": "2.138422966", "lon": -95.4043959, "heading": 122, "speed": 0.04400000348687172, "roll": "0.00708205159754"}
{"pitch": "0.0160777121782", "lat": 29.7132654, "timestamp": 1603394984.72863, "alt": 10.03, "yaw": "2.13852190971", "lon": -95.4043957, "heading": 122, "speed": 0.02500000037252903, "roll": "0.00730183068663"}
{"pitch": "0.0162295773625", "lat": 29.7132651, "timestamp": 1603394985.22977, "alt": 10.02, "yaw": "2.13854408264", "lon": -95.4043955, "heading": 122, "speed": 0.007000000216066837, "roll": "0.00727122323588"}
{"pitch": "0.0163892190903", "lat": 29.7132649, "timestamp": 1603394985.730983, "alt": 10.03, "yaw": "2.13859415054", "lon": -95.4043953, "heading": 122, "speed": 0.029000001028180122, "roll": "0.00741587160155"}
{"pitch": "0.0165048781782", "lat": 29.7132646, "timestamp": 1603394986.232169, "alt": 10.02, "yaw": "2.13875675201", "lon": -95.4043951, "heading": 122, "speed": 0.020000001415610313, "roll": "0.00745073938742"}
{"pitch": "0.0165018308908", "lat": 29.7132644, "timestamp": 1603394986.733542, "alt": 10.01, "yaw": "2.13881635666", "lon": -95.4043949, "heading": 122, "speed": 0.026000000536441803, "roll": "0.00736760115251"}
{"pitch": "0.0165623929352", "lat": 29.713264, "timestamp": 1603394987.235289, "alt": 9.98, "yaw": "2.1389708519", "lon": -95.4043945, "heading": 122, "speed": 0.04000000283122063, "roll": "0.00734923779964"}
{"pitch": "0.0166911613196", "lat": 29.7132639, "timestamp": 1603394987.736535, "alt": 9.98, "yaw": "2.13905191422", "lon": -95.4043945, "heading": 122, "speed": 0.03700000047683716, "roll": "0.00727893970907"}
{"pitch": "0.0169588197023", "lat": 29.7132637, "timestamp": 1603394988.237706, "alt": 9.97, "yaw": "2.13908338547", "lon": -95.4043944, "heading": 122, "speed": 0.04400000348687172, "roll": "0.00720930611715"}
{"pitch": "0.0169307906181", "lat": 29.7132635, "timestamp": 1603394988.738864, "alt": 9.97, "yaw": "2.13907194138", "lon": -95.4043943, "heading": 122, "speed": 0.04100000113248825, "roll": "0.00716560613364"}
{"pitch": "0.0166912898421", "lat": 29.7132632, "timestamp": 1603394989.240096, "alt": 9.97, "yaw": "2.13908934593", "lon": -95.4043941, "heading": 122, "speed": 0.027000000700354576, "roll": "0.00712611339986"}
{"pitch": "0.0168046988547", "lat": 29.713263, "timestamp": 1603394989.741426, "alt": 9.96, "yaw": "2.13925051689", "lon": -95.4043938, "heading": 122, "speed": 0.029000001028180122, "roll": "0.00689722411335"}
{"pitch": "0.0165735408664", "lat": 29.7132628, "timestamp": 1603394990.243927, "alt": 9.96, "yaw": "2.13909292221", "lon": -95.4043936, "heading": 122, "speed": 0.027000000700354576, "roll": "0.0067492229864"}
{"pitch": "0.0164371393621", "lat": 29.7132625, "timestamp": 1603394990.745253, "alt": 9.94, "yaw": "2.13914179802", "lon": -95.4043934, "heading": 122, "speed": 0.03500000014901161, "roll": "0.00670743174851"}
{"pitch": "0.0164011139423", "lat": 29.7132622, "timestamp": 1603394991.246353, "alt": 9.94, "yaw": "2.13912677765", "lon": -95.4043933, "heading": 122, "speed": 0.017000000923871994, "roll": "0.006526584737"}
{"pitch": "0.0165309421718", "lat": 29.7132619, "timestamp": 1603394991.747495, "alt": 9.94, "yaw": "2.13916635513", "lon": -95.4043931, "heading": 122, "speed": 0.04800000041723251, "roll": "0.00651711039245"}
{"pitch": "0.0164808202535", "lat": 29.7132616, "timestamp": 1603394992.249734, "alt": 9.94, "yaw": "2.13907432556", "lon": -95.404393, "heading": 122, "speed": 0.018000001087784767, "roll": "0.00653561670333"}
{"pitch": "0.0164670553058", "lat": 29.7132613, "timestamp": 1603394992.751865, "alt": 9.95, "yaw": "2.13910531998", "lon": -95.4043929, "heading": 122, "speed": 0.01100000087171793, "roll": "0.00656280154362"}
{"pitch": "0.0163415949792", "lat": 29.7132609, "timestamp": 1603394993.252739, "alt": 9.95, "yaw": "2.13899993896", "lon": -95.4043928, "heading": 122, "speed": 0.023000001907348633, "roll": "0.00654690340161"}
{"pitch": "0.0163990240544", "lat": 29.7132603, "timestamp": 1603394993.753743, "alt": 9.94, "yaw": "2.13886404037", "lon": -95.4043927, "heading": 122, "speed": 0.036000002175569534, "roll": "0.00655180821195"}
{"pitch": "0.0164598617703", "lat": 29.7132601, "timestamp": 1603394994.255794, "alt": 9.94, "yaw": "2.13881635666", "lon": -95.4043927, "heading": 122, "speed": 0.07000000029802322, "roll": "0.00651546102017"}
{"pitch": "0.0165687892586", "lat": 29.7132594, "timestamp": 1603394994.75885, "alt": 9.96, "yaw": "2.1387898922", "lon": -95.4043928, "heading": 122, "speed": 0.04400000348687172, "roll": "0.00683088693768"}
{"pitch": "0.0165897291154", "lat": 29.7132591, "timestamp": 1603394995.260038, "alt": 9.96, "yaw": "2.13872981071", "lon": -95.4043928, "heading": 122, "speed": 0.026000000536441803, "roll": "0.00676725804806"}
{"pitch": "0.0166686065495", "lat": 29.7132588, "timestamp": 1603394995.760945, "alt": 9.97, "yaw": "2.13865089417", "lon": -95.404393, "heading": 122, "speed": 0.006000000052154064, "roll": "0.0064780251123"}
{"pitch": "0.0168095249683", "lat": 29.7132586, "timestamp": 1603394996.262494, "alt": 9.99, "yaw": "2.13874197006", "lon": -95.4043932, "heading": 122, "speed": 0.03100000135600567, "roll": "0.00639174692333"}
{"pitch": "0.0170947667211", "lat": 29.7132585, "timestamp": 1603394996.764716, "alt": 10.01, "yaw": "2.1386885643", "lon": -95.4043935, "heading": 122, "speed": 0.005000000353902578, "roll": "0.00632425956428"}
{"pitch": "0.0172388777137", "lat": 29.7132584, "timestamp": 1603394997.265846, "alt": 10.01, "yaw": "2.13884925842", "lon": -95.4043938, "heading": 122, "speed": 0.014000000432133675, "roll": "0.00622705090791"}
{"pitch": "0.0173754170537", "lat": 29.7132584, "timestamp": 1603394997.767071, "alt": 10.01, "yaw": "2.13873529434", "lon": -95.4043942, "heading": 122, "speed": 0.012000000104308128, "roll": "0.00617934018373"}
{"pitch": "0.0173195358366", "lat": 29.7132584, "timestamp": 1603394998.268313, "alt": 10.01, "yaw": "2.13867855072", "lon": -95.4043946, "heading": 122, "speed": 0.03200000151991844, "roll": "0.0061464952305"}
{"pitch": "0.0174478888512", "lat": 29.7132585, "timestamp": 1603394998.769545, "alt": 10.0, "yaw": "2.13864469528", "lon": -95.404395, "heading": 122, "speed": 0.039000000804662704, "roll": "0.00614679511636"}
{"pitch": "0.017511356622", "lat": 29.7132587, "timestamp": 1603394999.270768, "alt": 10.01, "yaw": "2.1386847496", "lon": -95.4043954, "heading": 122, "speed": 0.0430000014603138, "roll": "0.00603793933988"}
{"pitch": "0.0176256839186", "lat": 29.7132589, "timestamp": 1603394999.773405, "alt": 10.02, "yaw": "2.13862800598", "lon": -95.4043959, "heading": 122, "speed": 0.05100000277161598, "roll": "0.00604922883213"}
{"pitch": "0.0175381489098", "lat": 29.7132594, "timestamp": 1603395000.274645, "alt": 10.0, "yaw": "2.13877105713", "lon": -95.4043964, "heading": 122, "speed": 0.030000001192092896, "roll": "0.00587234273553"}
{"pitch": "0.0172210708261", "lat": 29.7132597, "timestamp": 1603395000.77581, "alt": 9.99, "yaw": "2.13871121407", "lon": -95.4043968, "heading": 122, "speed": 0.024000000208616257, "roll": "0.00581848155707"}
{"pitch": "0.0170893780887", "lat": 29.7132601, "timestamp": 1603395001.277083, "alt": 9.98, "yaw": "2.13870620728", "lon": -95.4043971, "heading": 122, "speed": 0.027000000700354576, "roll": "0.00584633089602"}
{"pitch": "0.0168639551848", "lat": 29.7132604, "timestamp": 1603395001.778223, "alt": 9.97, "yaw": "2.13868331909", "lon": -95.4043974, "heading": 122, "speed": 0.021000001579523087, "roll": "0.00595327839255"}
{"pitch": "0.0167378671467", "lat": 29.7132607, "timestamp": 1603395002.279563, "alt": 9.95, "yaw": "2.13874840736", "lon": -95.4043977, "heading": 122, "speed": 0.020000001415610313, "roll": "0.00598803907633"}
{"pitch": "0.0165331400931", "lat": 29.7132611, "timestamp": 1603395002.780731, "alt": 9.94, "yaw": "2.13885688782", "lon": -95.4043979, "heading": 122, "speed": 0.04000000283122063, "roll": "0.00607012677938"}
{"pitch": "0.0163658075035", "lat": 29.7132616, "timestamp": 1603395003.281912, "alt": 9.94, "yaw": "2.13896894455", "lon": -95.4043981, "heading": 122, "speed": 0.024000000208616257, "roll": "0.00612373929471"}
{"pitch": "0.0163231939077", "lat": 29.7132621, "timestamp": 1603395003.783069, "alt": 9.93, "yaw": "2.13905763626", "lon": -95.4043982, "heading": 122, "speed": 0.021000001579523087, "roll": "0.00610509328544"}
{"pitch": "0.0163630023599", "lat": 29.7132626, "timestamp": 1603395004.284175, "alt": 9.93, "yaw": "2.13916063309", "lon": -95.4043983, "heading": 122, "speed": 0.02500000037252903, "roll": "0.0060454485938"}
{"pitch": "0.0162795577198", "lat": 29.7132632, "timestamp": 1603395004.785414, "alt": 9.92, "yaw": "2.13912177086", "lon": -95.4043984, "heading": 122, "speed": 0.023000001907348633, "roll": "0.00616602599621"}
{"pitch": "0.0161171555519", "lat": 29.7132638, "timestamp": 1603395005.286621, "alt": 9.92, "yaw": "2.13921117783", "lon": -95.4043985, "heading": 122, "speed": 0.024000000208616257, "roll": "0.00622527534142"}
{"pitch": "0.0159401688725", "lat": 29.7132644, "timestamp": 1603395005.787935, "alt": 9.92, "yaw": "2.13920426369", "lon": -95.4043985, "heading": 122, "speed": 0.02800000086426735, "roll": "0.00632888544351"}
{"pitch": "0.0160715728998", "lat": 29.7132653, "timestamp": 1603395006.289132, "alt": 9.92, "yaw": "2.13929796219", "lon": -95.4043985, "heading": 122, "speed": 0.017000000923871994, "roll": "0.0064487978816"}
{"pitch": "0.0160578675568", "lat": 29.713266, "timestamp": 1603395006.790338, "alt": 9.93, "yaw": "2.13940095901", "lon": -95.4043984, "heading": 122, "speed": 0.024000000208616257, "roll": "0.00649446807802"}
{"pitch": "0.015841608867", "lat": 29.7132667, "timestamp": 1603395007.291563, "alt": 9.94, "yaw": "2.1394906044", "lon": -95.4043983, "heading": 122, "speed": 0.027000000700354576, "roll": "0.00655935937539"}
{"pitch": "0.0157098527998", "lat": 29.7132674, "timestamp": 1603395007.792729, "alt": 9.95, "yaw": "2.13963794708", "lon": -95.4043982, "heading": 122, "speed": 0.030000001192092896, "roll": "0.00660613458604"}
{"pitch": "0.0158348716795", "lat": 29.7132682, "timestamp": 1603395008.293931, "alt": 9.95, "yaw": "2.13956737518", "lon": -95.404398, "heading": 122, "speed": 0.01100000087171793, "roll": "0.00666348449886"}
{"pitch": "0.0157692246139", "lat": 29.7132689, "timestamp": 1603395008.795154, "alt": 9.95, "yaw": "2.13960266113", "lon": -95.4043979, "heading": 122, "speed": 0.03200000151991844, "roll": "0.00710440333933"}
{"pitch": "0.0157393869013", "lat": 29.7132695, "timestamp": 1603395009.296279, "alt": 9.95, "yaw": "2.13972139359", "lon": -95.4043976, "heading": 122, "speed": 0.0020000000949949026, "roll": "0.00721047725528"}
{"pitch": "0.0156211294234", "lat": 29.7132702, "timestamp": 1603395009.797377, "alt": 9.94, "yaw": "2.13985204697", "lon": -95.4043973, "heading": 122, "speed": 0.01900000125169754, "roll": "0.00728980638087"}
{"pitch": "0.0155347622931", "lat": 29.7132708, "timestamp": 1603395010.298596, "alt": 9.93, "yaw": "2.13999986649", "lon": -95.4043969, "heading": 122, "speed": 0.020000001415610313, "roll": "0.00745392544195"}
{"pitch": "0.0155006349087", "lat": 29.7132714, "timestamp": 1603395010.801736, "alt": 9.92, "yaw": "2.14008498192", "lon": -95.4043966, "heading": 122, "speed": 0.01900000125169754, "roll": "0.00760601647198"}
{"pitch": "0.0155261289328", "lat": 29.7132719, "timestamp": 1603395011.302972, "alt": 9.9, "yaw": "2.14007258415", "lon": -95.4043963, "heading": 122, "speed": 0.0430000014603138, "roll": "0.00776238739491"}
{"pitch": "0.0155441816896", "lat": 29.7132724, "timestamp": 1603395011.804152, "alt": 9.88, "yaw": "2.1403093338", "lon": -95.404396, "heading": 122, "speed": 0.02800000086426735, "roll": "0.00788244791329"}
{"pitch": "0.0155532620847", "lat": 29.713273, "timestamp": 1603395012.305524, "alt": 9.85, "yaw": "2.14046525955", "lon": -95.4043954, "heading": 122, "speed": 0.02200000174343586, "roll": "0.00786894839257"}
{"pitch": "0.015402989462", "lat": 29.7132732, "timestamp": 1603395012.806703, "alt": 9.84, "yaw": "2.1406121254", "lon": -95.404395, "heading": 122, "speed": 0.015000000596046448, "roll": "0.00795770157129"}
{"pitch": "0.0152722876519", "lat": 29.7132734, "timestamp": 1603395013.307912, "alt": 9.84, "yaw": "2.14076328278", "lon": -95.4043946, "heading": 122, "speed": 0.03400000184774399, "roll": "0.00820642337203"}
{"pitch": "0.0151949021965", "lat": 29.7132734, "timestamp": 1603395013.809085, "alt": 9.85, "yaw": "2.14079499245", "lon": -95.4043942, "heading": 122, "speed": 0.012000000104308128, "roll": "0.00841695535928"}
{"pitch": "0.0151024851948", "lat": 29.7132734, "timestamp": 1603395014.310232, "alt": 9.84, "yaw": "2.14081692696", "lon": -95.4043939, "heading": 122, "speed": 0.03700000047683716, "roll": "0.00860122498125"}
{"pitch": "0.0152298398316", "lat": 29.7132733, "timestamp": 1603395014.811564, "alt": 9.84, "yaw": "2.14093160629", "lon": -95.4043936, "heading": 122, "speed": 0.01900000125169754, "roll": "0.00864601507783"}
{"pitch": "0.01535301283", "lat": 29.7132732, "timestamp": 1603395015.312776, "alt": 9.83, "yaw": "2.14087033272", "lon": -95.4043934, "heading": 122, "speed": 0.039000000804662704, "roll": "0.00879225227982"}
{"pitch": "0.0153950452805", "lat": 29.713273, "timestamp": 1603395015.814, "alt": 9.82, "yaw": "2.14095115662", "lon": -95.4043931, "heading": 122, "speed": 0.02800000086426735, "roll": "0.00885678362101"}
{"pitch": "0.0154639445245", "lat": 29.7132727, "timestamp": 1603395016.315187, "alt": 9.81, "yaw": "2.14094495773", "lon": -95.404393, "heading": 122, "speed": 0.021000001579523087, "roll": "0.00902187172323"}
{"pitch": "0.0157332848758", "lat": 29.7132724, "timestamp": 1603395016.81633, "alt": 9.79, "yaw": "2.14091968536", "lon": -95.4043929, "heading": 122, "speed": 0.04400000348687172, "roll": "0.00903017725796"}
{"pitch": "0.0160054694861", "lat": 29.7132722, "timestamp": 1603395017.317755, "alt": 9.77, "yaw": "2.14091467857", "lon": -95.404393, "heading": 122, "speed": 0.05400000140070915, "roll": "0.00891290046275"}
{"pitch": "0.0160526838154", "lat": 29.7132719, "timestamp": 1603395017.819026, "alt": 9.76, "yaw": "2.14094257355", "lon": -95.404393, "heading": 122, "speed": 0.07200000435113907, "roll": "0.00894667487592"}
{"pitch": "0.0161186829209", "lat": 29.7132714, "timestamp": 1603395018.320153, "alt": 9.77, "yaw": "2.14091062546", "lon": -95.4043932, "heading": 122, "speed": 0.027000000700354576, "roll": "0.00874357484281"}
{"pitch": "0.0162712521851", "lat": 29.7132712, "timestamp": 1603395018.821298, "alt": 9.77, "yaw": "2.14103937149", "lon": -95.4043932, "heading": 122, "speed": 0.015000000596046448, "roll": "0.00850193295628"}
{"pitch": "0.0164035838097", "lat": 29.7132707, "timestamp": 1603395019.322429, "alt": 9.8, "yaw": "2.14100933075", "lon": -95.4043935, "heading": 122, "speed": 0.01100000087171793, "roll": "0.00830943416804"}
{"pitch": "0.0166381709278", "lat": 29.7132703, "timestamp": 1603395019.823732, "alt": 9.81, "yaw": "2.14086389542", "lon": -95.4043937, "heading": 122, "speed": 0.02800000086426735, "roll": "0.00806892011315"}
{"pitch": "0.0165376141667", "lat": 29.7132698, "timestamp": 1603395020.325788, "alt": 9.81, "yaw": "2.1409072876", "lon": -95.4043939, "heading": 122, "speed": 0.0020000000949949026, "roll": "0.00771949440241"}
{"pitch": "0.0167166218162", "lat": 29.7132694, "timestamp": 1603395020.827753, "alt": 9.81, "yaw": "2.14087557793", "lon": -95.4043941, "heading": 122, "speed": 0.03400000184774399, "roll": "0.00745667051524"}
{"pitch": "0.0168027002364", "lat": 29.7132691, "timestamp": 1603395021.329807, "alt": 9.81, "yaw": "2.14093375206", "lon": -95.4043943, "heading": 122, "speed": 0.01600000075995922, "roll": "0.00706387730315"}
{"pitch": "0.0167957935482", "lat": 29.7132687, "timestamp": 1603395021.831604, "alt": 9.81, "yaw": "2.14105558395", "lon": -95.4043944, "heading": 122, "speed": 0.00800000037997961, "roll": "0.00703623704612"}
{"pitch": "0.0166834928095", "lat": 29.7132683, "timestamp": 1603395022.33303, "alt": 9.81, "yaw": "2.14105510712", "lon": -95.4043945, "heading": 122, "speed": 0.04800000041723251, "roll": "0.00678324420005"}
{"pitch": "0.0165148489177", "lat": 29.7132678, "timestamp": 1603395022.834161, "alt": 9.8, "yaw": "2.14101362228", "lon": -95.4043945, "heading": 122, "speed": 0.046000003814697266, "roll": "0.00688173668459"}
{"pitch": "0.0165874883533", "lat": 29.7132673, "timestamp": 1603395023.33611, "alt": 9.78, "yaw": "2.14102220535", "lon": -95.4043945, "heading": 122, "speed": 0.026000000536441803, "roll": "0.00661993585527"}
{"pitch": "0.0164881143719", "lat": 29.7132668, "timestamp": 1603395023.837891, "alt": 9.77, "yaw": "2.14104700089", "lon": -95.4043945, "heading": 122, "speed": 0.029000001028180122, "roll": "0.0066501935944"}
{"pitch": "0.016333874315", "lat": 29.7132663, "timestamp": 1603395024.33933, "alt": 9.77, "yaw": "2.14100885391", "lon": -95.4043944, "heading": 122, "speed": 0.03400000184774399, "roll": "0.00659566279501"}
{"pitch": "0.016380270943", "lat": 29.7132657, "timestamp": 1603395024.840633, "alt": 9.75, "yaw": "2.14098739624", "lon": -95.4043943, "heading": 122, "speed": 0.024000000208616257, "roll": "0.0064336406067"}
{"pitch": "0.0162858720869", "lat": 29.7132653, "timestamp": 1603395025.3419, "alt": 9.73, "yaw": "2.14105892181", "lon": -95.4043942, "heading": 122, "speed": 0.02800000086426735, "roll": "0.00633102143183"}
{"pitch": "0.0163135267794", "lat": 29.7132649, "timestamp": 1603395025.843015, "alt": 9.73, "yaw": "2.14111685753", "lon": -95.4043942, "heading": 122, "speed": 0.01900000125169754, "roll": "0.00629144720733"}
{"pitch": "0.0162540879101", "lat": 29.7132645, "timestamp": 1603395026.344149, "alt": 9.73, "yaw": "2.14095830917", "lon": -95.404394, "heading": 122, "speed": 0.007000000216066837, "roll": "0.00620640534908"}
{"pitch": "0.0163584258407", "lat": 29.7132642, "timestamp": 1603395026.845969, "alt": 9.71, "yaw": "2.14101743698", "lon": -95.4043939, "heading": 122, "speed": 0.04000000283122063, "roll": "0.00613540131599"}
{"pitch": "0.0163860861212", "lat": 29.7132639, "timestamp": 1603395027.347534, "alt": 9.7, "yaw": "2.14110827446", "lon": -95.4043938, "heading": 122, "speed": 0.00800000037997961, "roll": "0.00609575491399"}
{"pitch": "0.0165152922273", "lat": 29.7132636, "timestamp": 1603395027.84866, "alt": 9.69, "yaw": "2.14108967781", "lon": -95.4043937, "heading": 122, "speed": 0.029000001028180122, "roll": "0.0059334137477"}
{"pitch": "0.0164108611643", "lat": 29.7132634, "timestamp": 1603395028.349741, "alt": 9.67, "yaw": "2.14091444016", "lon": -95.4043936, "heading": 122, "speed": 0.021000001579523087, "roll": "0.00591234397143"}
{"pitch": "0.0163629874587", "lat": 29.713263, "timestamp": 1603395028.850832, "alt": 9.65, "yaw": "2.14084029198", "lon": -95.4043934, "heading": 122, "speed": 0.036000002175569534, "roll": "0.00596139766276"}
{"pitch": "0.0162643305957", "lat": 29.7132627, "timestamp": 1603395029.352316, "alt": 9.64, "yaw": "2.14087963104", "lon": -95.4043932, "heading": 122, "speed": 0.021000001579523087, "roll": "0.00595142506063"}
{"pitch": "0.0163970757276", "lat": 29.7132624, "timestamp": 1603395029.853479, "alt": 9.64, "yaw": "2.14097261429", "lon": -95.4043931, "heading": 122, "speed": 0.014000000432133675, "roll": "0.00597913330421"}
{"pitch": "0.0164813604206", "lat": 29.7132621, "timestamp": 1603395030.354671, "alt": 9.64, "yaw": "2.14102244377", "lon": -95.404393, "heading": 122, "speed": 0.004000000189989805, "roll": "0.00598173495382"}
{"pitch": "0.016537072137", "lat": 29.7132617, "timestamp": 1603395030.855957, "alt": 9.64, "yaw": "2.14106559753", "lon": -95.404393, "heading": 122, "speed": 0.020000001415610313, "roll": "0.0060781352222"}
{"pitch": "0.0167612042278", "lat": 29.7132614, "timestamp": 1603395031.357226, "alt": 9.64, "yaw": "2.14112138748", "lon": -95.404393, "heading": 122, "speed": 0.04200000315904617, "roll": "0.00618487875909"}
{"pitch": "0.0167356412858", "lat": 29.7132612, "timestamp": 1603395031.858262, "alt": 9.63, "yaw": "2.14118909836", "lon": -95.404393, "heading": 122, "speed": 0.020000001415610313, "roll": "0.00624344171956"}
{"pitch": "0.0167906899005", "lat": 29.7132611, "timestamp": 1603395032.359721, "alt": 9.62, "yaw": "2.14135217667", "lon": -95.4043931, "heading": 122, "speed": 0.03100000135600567, "roll": "0.00635248795152"}
{"pitch": "0.0169140528888", "lat": 29.713261, "timestamp": 1603395032.860858, "alt": 9.62, "yaw": "2.14136743546", "lon": -95.4043933, "heading": 122, "speed": 0.02500000037252903, "roll": "0.00637468229979"}
{"pitch": "0.0170492064208", "lat": 29.7132609, "timestamp": 1603395033.361956, "alt": 9.62, "yaw": "2.14134263992", "lon": -95.4043935, "heading": 122, "speed": 0.020000001415610313, "roll": "0.00636700866744"}
{"pitch": "0.0173822008073", "lat": 29.7132609, "timestamp": 1603395033.863076, "alt": 9.62, "yaw": "2.14128446579", "lon": -95.4043937, "heading": 122, "speed": 0.046000003814697266, "roll": "0.00639701914042"}
{"pitch": "0.0172473117709", "lat": 29.713261, "timestamp": 1603395034.313221, "alt": 9.63, "yaw": "2.14126157761", "lon": -95.4043939, "heading": 122, "speed": 0.015000000596046448, "roll": "0.00639772228897"}
{"pitch": "0.0172473117709", "lat": 29.713261, "timestamp": 1603395034.364319, "alt": 9.63, "yaw": "2.14126157761", "lon": -95.4043939, "heading": 122, "speed": 0.015000000596046448, "roll": "0.00639772228897"}
{"pitch": "0.0171396043152", "lat": 29.7132612, "timestamp": 1603395034.814663, "alt": 9.63, "yaw": "2.14118242264", "lon": -95.4043941, "heading": 122, "speed": 0.023000001907348633, "roll": "0.00640694936737"}
{"pitch": "0.0171396043152", "lat": 29.7132612, "timestamp": 1603395034.865797, "alt": 9.63, "yaw": "2.14118242264", "lon": -95.4043941, "heading": 122, "speed": 0.023000001907348633, "roll": "0.00640694936737"}
{"pitch": "0.0172708965838", "lat": 29.7132615, "timestamp": 1603395035.315769, "alt": 9.63, "yaw": "2.14132833481", "lon": -95.4043943, "heading": 122, "speed": 0.009000000543892384, "roll": "0.00638357922435"}
{"pitch": "0.0172708965838", "lat": 29.7132615, "timestamp": 1603395035.366761, "alt": 9.63, "yaw": "2.14132833481", "lon": -95.4043943, "heading": 122, "speed": 0.009000000543892384, "roll": "0.00638357922435"}
{"pitch": "0.0170178096741", "lat": 29.7132618, "timestamp": 1603395035.816908, "alt": 9.62, "yaw": "2.14135742188", "lon": -95.4043945, "heading": 122, "speed": 0.02800000086426735, "roll": "0.00634659547359"}
{"pitch": "0.0170178096741", "lat": 29.7132618, "timestamp": 1603395035.867941, "alt": 9.62, "yaw": "2.14135742188", "lon": -95.4043945, "heading": 122, "speed": 0.009000000543892384, "roll": "0.00634659547359"}
{"pitch": "0.0169189218432", "lat": 29.7132623, "timestamp": 1603395036.31825, "alt": 9.62, "yaw": "2.14137649536", "lon": -95.4043947, "heading": 122, "speed": 0.007000000216066837, "roll": "0.00626794435084"}
{"pitch": "0.0169189218432", "lat": 29.7132623, "timestamp": 1603395036.369347, "alt": 9.62, "yaw": "2.14137649536", "lon": -95.4043947, "heading": 122, "speed": 0.007000000216066837, "roll": "0.00626794435084"}
{"pitch": "0.0167311076075", "lat": 29.7132628, "timestamp": 1603395036.819455, "alt": 9.61, "yaw": "2.14112329483", "lon": -95.4043948, "heading": 122, "speed": 0.014000000432133675, "roll": "0.00632628891617"}
{"pitch": "0.0167311076075", "lat": 29.7132628, "timestamp": 1603395036.870519, "alt": 9.61, "yaw": "2.14112329483", "lon": -95.4043948, "heading": 122, "speed": 0.014000000432133675, "roll": "0.00632628891617"}
{"pitch": "0.0138666927814", "lat": 29.713263, "timestamp": 1603395037.320518, "alt": 9.62, "yaw": "2.14175319672", "lon": -95.4043949, "heading": 122, "speed": 0.032999999821186066, "roll": "0.00604338012636"}
{"pitch": "0.0138666927814", "lat": 29.7132632, "timestamp": 1603395037.37205, "alt": 9.62, "yaw": "2.14175319672", "lon": -95.404395, "heading": 122, "speed": 0.032999999821186066, "roll": "0.00604338012636"}
{"pitch": "-0.0178487431258", "lat": 29.7132633, "timestamp": 1603395037.82172, "alt": 9.66, "yaw": "2.09704232216", "lon": -95.4043951, "heading": 120, "speed": 0.0820000022649765, "roll": "0.0202056635171"}
{"pitch": "-0.0178487431258", "lat": 29.7132633, "timestamp": 1603395037.873465, "alt": 9.8, "yaw": "2.09704232216", "lon": -95.4043952, "heading": 120, "speed": 0.0820000022649765, "roll": "0.0202056635171"}
{"pitch": "-0.0217739194632", "lat": 29.7132632, "timestamp": 1603395038.323122, "alt": 10.04, "yaw": "2.03606987", "lon": -95.4043953, "heading": 116, "speed": 0.09300000220537186, "roll": "0.0180235542357"}
{"pitch": "-0.0217739194632", "lat": 29.7132632, "timestamp": 1603395038.375387, "alt": 10.04, "yaw": "2.03606987", "lon": -95.4043953, "heading": 116, "speed": 0.09300000220537186, "roll": "0.0180235542357"}
{"pitch": "0.0095317736268", "lat": 29.7132627, "timestamp": 1603395038.823852, "alt": 10.65, "yaw": "2.06234884262", "lon": -95.4043954, "heading": 117, "speed": 0.13700000941753387, "roll": "-0.00104088825174"}
{"pitch": "0.0095317736268", "lat": 29.7132627, "timestamp": 1603395038.876582, "alt": 10.65, "yaw": "2.06234884262", "lon": -95.4043954, "heading": 118, "speed": 0.15300001204013824, "roll": "-0.00104088825174"}
{"pitch": "-0.000136672984809", "lat": 29.7132623, "timestamp": 1603395039.325409, "alt": 11.46, "yaw": "2.07055807114", "lon": -95.4043958, "heading": 118, "speed": 0.3020000159740448, "roll": "0.000604255823418"}
{"pitch": "-0.0206767097116", "lat": 29.7132623, "timestamp": 1603395039.377768, "alt": 11.46, "yaw": "2.06413340569", "lon": -95.4043958, "heading": 118, "speed": 0.3020000159740448, "roll": "-0.0302984900773"}
{"pitch": "-0.0195166599005", "lat": 29.713262, "timestamp": 1603395039.827182, "alt": 12.46, "yaw": "2.05384635925", "lon": -95.4043957, "heading": 117, "speed": 0.07500000298023224, "roll": "-0.0267267413437"}
{"pitch": "-0.0195166599005", "lat": 29.713262, "timestamp": 1603395039.87873, "alt": 12.46, "yaw": "2.05384635925", "lon": -95.4043957, "heading": 117, "speed": 0.07500000298023224, "roll": "-0.0267267413437"}
{"pitch": "0.0135375130922", "lat": 29.7132623, "timestamp": 1603395040.328349, "alt": 13.54, "yaw": "2.04257512093", "lon": -95.4043952, "heading": 117, "speed": 0.23400001227855682, "roll": "0.0232128128409"}
{"pitch": "0.0135375130922", "lat": 29.7132623, "timestamp": 1603395040.379539, "alt": 13.54, "yaw": "2.04257512093", "lon": -95.4043952, "heading": 117, "speed": 0.23400001227855682, "roll": "0.0232128128409"}
{"pitch": "0.00272347824648", "lat": 29.7132626, "timestamp": 1603395040.829578, "alt": 14.7, "yaw": "2.0478925705", "lon": -95.4043956, "heading": 117, "speed": 0.14900000393390656, "roll": "0.0233029536903"}
{"pitch": "0.00272347824648", "lat": 29.7132626, "timestamp": 1603395040.883664, "alt": 14.7, "yaw": "2.0478925705", "lon": -95.4043956, "heading": 117, "speed": 0.06000000238418579, "roll": "0.0233029536903"}
{"pitch": "-0.0305519588292", "lat": 29.7132628, "timestamp": 1603395041.330885, "alt": 15.86, "yaw": "2.03766298294", "lon": -95.4043967, "heading": 116, "speed": 0.07500000298023224, "roll": "-0.0134012149647"}
{"pitch": "-0.0305519588292", "lat": 29.7132628, "timestamp": 1603395041.38478, "alt": 15.86, "yaw": "2.03766298294", "lon": -95.4043967, "heading": 116, "speed": 0.0690000057220459, "roll": "-0.0134012149647"}
{"pitch": "-0.0449798367918", "lat": 29.713263, "timestamp": 1603395041.832121, "alt": 16.42, "yaw": "2.04656672478", "lon": -95.4043969, "heading": 117, "speed": 0.1600000113248825, "roll": "-0.0167553070933"}
{"pitch": "-0.0449798367918", "lat": 29.713263, "timestamp": 1603395041.886223, "alt": 16.42, "yaw": "2.04656672478", "lon": -95.4043969, "heading": 117, "speed": 0.1600000113248825, "roll": "-0.0167553070933"}
{"pitch": "-0.047645650804", "lat": 29.7132637, "timestamp": 1603395042.333549, "alt": 17.56, "yaw": "2.06799221039", "lon": -95.4043967, "heading": 118, "speed": 0.320000022649765, "roll": "0.0126598244533"}
{"pitch": "-0.047645650804", "lat": 29.7132637, "timestamp": 1603395042.387406, "alt": 17.56, "yaw": "2.06799221039", "lon": -95.4043967, "heading": 118, "speed": 0.320000022649765, "roll": "0.0126598244533"}
{"pitch": "-0.0117782317102", "lat": 29.7132643, "timestamp": 1603395042.83475, "alt": 18.42, "yaw": "2.09297299385", "lon": -95.4043954, "heading": 120, "speed": 0.281000018119812, "roll": "0.040004145354"}
{"pitch": "-0.0117782317102", "lat": 29.7132643, "timestamp": 1603395042.888819, "alt": 18.42, "yaw": "2.09297299385", "lon": -95.4043954, "heading": 120, "speed": 0.281000018119812, "roll": "0.040004145354"}
{"pitch": "-0.00655279215425", "lat": 29.7132646, "timestamp": 1603395043.33605, "alt": 18.98, "yaw": "2.09091544151", "lon": -95.4043943, "heading": 119, "speed": 0.24500000476837158, "roll": "0.0498782768846"}
{"pitch": "-0.00655279215425", "lat": 29.7132646, "timestamp": 1603395043.390203, "alt": 18.98, "yaw": "2.09091544151", "lon": -95.4043943, "heading": 119, "speed": 0.24500000476837158, "roll": "0.0498782768846"}
{"pitch": "-0.0183463096619", "lat": 29.7132643, "timestamp": 1603395043.837536, "alt": 19.35, "yaw": "2.07928991318", "lon": -95.4043941, "heading": 119, "speed": 0.22600001096725464, "roll": "0.0322814546525"}
{"pitch": "-0.0183463096619", "lat": 29.7132643, "timestamp": 1603395043.892274, "alt": 19.35, "yaw": "2.07928991318", "lon": -95.4043941, "heading": 119, "speed": 0.22600001096725464, "roll": "0.0322814546525"}
{"pitch": "-0.00626214919612", "lat": 29.7132639, "timestamp": 1603395044.338667, "alt": 19.5, "yaw": "2.07661485672", "lon": -95.404394, "heading": 118, "speed": 0.03400000184774399, "roll": "0.0229076594114"}
{"pitch": "-0.00388340977952", "lat": 29.7132638, "timestamp": 1603395044.393381, "alt": 19.61, "yaw": "2.06052613258", "lon": -95.4043938, "heading": 118, "speed": 0.03400000184774399, "roll": "0.0329537130892"}
{"pitch": "-0.0036071613431", "lat": 29.7132637, "timestamp": 1603395044.840921, "alt": 19.69, "yaw": "2.05137205124", "lon": -95.4043937, "heading": 117, "speed": 0.12200000882148743, "roll": "0.0425142236054"}
{"pitch": "-0.0036071613431", "lat": 29.7132637, "timestamp": 1603395044.894581, "alt": 19.69, "yaw": "2.05137205124", "lon": -95.4043937, "heading": 117, "speed": 0.12200000882148743, "roll": "0.0425142236054"}
{"pitch": "-0.000415334012359", "lat": 29.7132633, "timestamp": 1603395045.342181, "alt": 19.79, "yaw": "2.05956840515", "lon": -95.4043938, "heading": 117, "speed": 0.1340000033378601, "roll": "0.0351354256272"}
{"pitch": "-0.000415334012359", "lat": 29.7132633, "timestamp": 1603395045.396138, "alt": 19.79, "yaw": "2.05956840515", "lon": -95.4043938, "heading": 118, "speed": 0.0950000062584877, "roll": "0.0351354256272"}
{"pitch": "-0.0140764005482", "lat": 29.7132629, "timestamp": 1603395045.84327, "alt": 19.84, "yaw": "2.06861639023", "lon": -95.4043943, "heading": 118, "speed": 0.11900000274181366, "roll": "-0.00248579285108"}
{"pitch": "-0.0140764005482", "lat": 29.7132629, "timestamp": 1603395045.901303, "alt": 19.84, "yaw": "2.06861639023", "lon": -95.4043943, "heading": 118, "speed": 0.11900000274181366, "roll": "-0.00248579285108"}
{"pitch": "-0.024142332375", "lat": 29.7132628, "timestamp": 1603395046.344385, "alt": 19.87, "yaw": "2.09716367722", "lon": -95.4043942, "heading": 121, "speed": 0.10400000214576721, "roll": "0.00128027447499"}
{"pitch": "0.00186672946438", "lat": 29.7132628, "timestamp": 1603395046.402328, "alt": 19.87, "yaw": "2.13468885422", "lon": -95.4043942, "heading": 121, "speed": 0.10400000214576721, "roll": "0.0535840205848"}
{"pitch": "0.0118288155645", "lat": 29.7132627, "timestamp": 1603395046.84549, "alt": 19.88, "yaw": "2.15817284584", "lon": -95.4043943, "heading": 123, "speed": 0.04200000315904617, "roll": "0.0712877139449"}
{"pitch": "0.0118288155645", "lat": 29.7132624, "timestamp": 1603395046.903486, "alt": 19.88, "yaw": "2.15817284584", "lon": -95.4043947, "heading": 123, "speed": 0.04200000315904617, "roll": "0.0712877139449"}
{"pitch": "-0.0419330224395", "lat": 29.713262, "timestamp": 1603395047.346571, "alt": 19.88, "yaw": "2.11782932281", "lon": -95.4043953, "heading": 121, "speed": 0.20400001108646393, "roll": "-0.0123229725286"}
{"pitch": "-0.0419330224395", "lat": 29.713262, "timestamp": 1603395047.404787, "alt": 19.88, "yaw": "2.11782932281", "lon": -95.4043953, "heading": 120, "speed": 0.25600001215934753, "roll": "-0.0123229725286"}
{"pitch": "-0.0530890189111", "lat": 29.7132617, "timestamp": 1603395047.847699, "alt": 19.86, "yaw": "2.09440851212", "lon": -95.4043961, "heading": 120, "speed": 0.11500000208616257, "roll": "-0.0134270312265"}
{"pitch": "-0.0530890189111", "lat": 29.7132617, "timestamp": 1603395047.90576, "alt": 19.86, "yaw": "2.09440851212", "lon": -95.4043961, "heading": 120, "speed": 0.11500000208616257, "roll": "-0.0134270312265"}
{"pitch": "0.0227761361748", "lat": 29.7132617, "timestamp": 1603395048.348927, "alt": 19.84, "yaw": "2.08767318726", "lon": -95.4043955, "heading": 119, "speed": 0.11100000888109207, "roll": "0.0449790731072"}
{"pitch": "0.0227761361748", "lat": 29.7132617, "timestamp": 1603395048.40697, "alt": 19.84, "yaw": "2.08767318726", "lon": -95.4043955, "heading": 119, "speed": 0.11100000888109207, "roll": "0.0449790731072"}
{"pitch": "-0.0140903647989", "lat": 29.7132614, "timestamp": 1603395048.850106, "alt": 19.82, "yaw": "2.07341337204", "lon": -95.4043956, "heading": 118, "speed": 0.1080000028014183, "roll": "0.0529507622123"}
{"pitch": "-0.0140903647989", "lat": 29.7132614, "timestamp": 1603395048.908425, "alt": 19.82, "yaw": "2.07341337204", "lon": -95.4043956, "heading": 118, "speed": 0.1080000028014183, "roll": "0.0529507622123"}
{"pitch": "-0.0190697424114", "lat": 29.7132612, "timestamp": 1603395049.352267, "alt": 19.81, "yaw": "2.07033538818", "lon": -95.4043959, "heading": 118, "speed": 0.18300001323223114, "roll": "-0.016358146444"}
{"pitch": "-0.0190697424114", "lat": 29.713261, "timestamp": 1603395049.409723, "alt": 19.82, "yaw": "2.07033538818", "lon": -95.404396, "heading": 119, "speed": 0.14800000190734863, "roll": "-0.016358146444"}
{"pitch": "-0.0230253376067", "lat": 29.7132609, "timestamp": 1603395049.853365, "alt": 19.83, "yaw": "2.11229538918", "lon": -95.404396, "heading": 120, "speed": 0.14400000870227814, "roll": "0.017282249406"}
{"pitch": "-0.0230253376067", "lat": 29.7132609, "timestamp": 1603395049.911024, "alt": 19.83, "yaw": "2.11229538918", "lon": -95.404396, "heading": 121, "speed": 0.07900000363588333, "roll": "0.017282249406"}
{"pitch": "-0.00211034249514", "lat": 29.7132607, "timestamp": 1603395050.354586, "alt": 19.82, "yaw": "2.11133503914", "lon": -95.404396, "heading": 121, "speed": 0.07500000298023224, "roll": "-0.014027976431"}
{"pitch": "-0.00211034249514", "lat": 29.7132607, "timestamp": 1603395050.412372, "alt": 19.82, "yaw": "2.11133503914", "lon": -95.404396, "heading": 121, "speed": 0.07500000298023224, "roll": "-0.014027976431"}
{"pitch": "-0.0284626968205", "lat": 29.7132611, "timestamp": 1603395050.855912, "alt": 19.8, "yaw": "2.06248807907", "lon": -95.404396, "heading": 118, "speed": 0.03100000135600567, "roll": "-0.0174616556615"}
{"pitch": "-0.0284626968205", "lat": 29.7132611, "timestamp": 1603395050.921265, "alt": 19.8, "yaw": "2.06248807907", "lon": -95.404396, "heading": 118, "speed": 0.03100000135600567, "roll": "-0.0174616556615"}
{"pitch": "-0.0228913147002", "lat": 29.713262, "timestamp": 1603395051.357083, "alt": 19.8, "yaw": "2.04158973694", "lon": -95.4043955, "heading": 116, "speed": 0.15000000596046448, "roll": "0.0301853958517"}
{"pitch": "-0.0228913147002", "lat": 29.713262, "timestamp": 1603395051.422923, "alt": 19.8, "yaw": "2.04158973694", "lon": -95.4043955, "heading": 116, "speed": 0.15000000596046448, "roll": "0.0301853958517"}
{"pitch": "-0.0141932349652", "lat": 29.7132629, "timestamp": 1603395051.858217, "alt": 19.82, "yaw": "2.05905628204", "lon": -95.4043948, "heading": 119, "speed": 0.12300000339746475, "roll": "0.0327873043716"}
{"pitch": "-0.0167015139014", "lat": 29.7132629, "timestamp": 1603395051.924288, "alt": 19.82, "yaw": "2.09693527222", "lon": -95.4043948, "heading": 119, "speed": 0.12300000339746475, "roll": "0.0478830598295"}
