{"pitch": "0.0100583117455", "lat": 29.7132636, "timestamp": 1603395130.655906, "alt": 9.73, "yaw": "2.10319280624", "lon": -95.4044188, "heading": 120, "speed": 0.03500000014901161, "roll": "0.00538843357936"}
{"pitch": "0.00984747707844", "lat": 29.7132641, "timestamp": 1603395131.165308, "alt": 9.76, "yaw": "2.10366678238", "lon": -95.4044191, "heading": 120, "speed": 0.04700000211596489, "roll": "0.00532291736454"}
{"pitch": "0.00984764099121", "lat": 29.7132642, "timestamp": 1603395131.666471, "alt": 9.77, "yaw": "2.10373592377", "lon": -95.4044191, "heading": 120, "speed": 0.0430000014603138, "roll": "0.0052816066891"}
{"pitch": "0.00971208885312", "lat": 29.7132646, "timestamp": 1603395132.167667, "alt": 9.78, "yaw": "2.10397386551", "lon": -95.4044192, "heading": 120, "speed": 0.04100000113248825, "roll": "0.00527782412246"}
{"pitch": "0.00972074270248", "lat": 29.7132648, "timestamp": 1603395132.668828, "alt": 9.78, "yaw": "2.10419249535", "lon": -95.4044191, "heading": 120, "speed": 0.03100000135600567, "roll": "0.0052091521211"}
{"pitch": "0.00956243276596", "lat": 29.7132652, "timestamp": 1603395133.169966, "alt": 9.77, "yaw": "2.10433411598", "lon": -95.404419, "heading": 120, "speed": 0.021000001579523087, "roll": "0.00528797972947"}
{"pitch": "0.00972817279398", "lat": 29.7132655, "timestamp": 1603395133.671154, "alt": 9.76, "yaw": "2.10448908806", "lon": -95.4044189, "heading": 120, "speed": 0.027000000700354576, "roll": "0.0052647376433"}
{"pitch": "0.00967574678361", "lat": 29.713266, "timestamp": 1603395134.172147, "alt": 9.76, "yaw": "2.10457706451", "lon": -95.4044188, "heading": 120, "speed": 0.02200000174343586, "roll": "0.00522660417482"}
{"pitch": "0.00971934199333", "lat": 29.7132665, "timestamp": 1603395134.673508, "alt": 9.75, "yaw": "2.10477733612", "lon": -95.4044186, "heading": 120, "speed": 0.021000001579523087, "roll": "0.00527659012005"}
{"pitch": "0.00971030257642", "lat": 29.713267, "timestamp": 1603395135.174813, "alt": 9.74, "yaw": "2.10492491722", "lon": -95.4044184, "heading": 120, "speed": 0.014000000432133675, "roll": "0.00518673937768"}
{"pitch": "0.00953956507146", "lat": 29.7132675, "timestamp": 1603395135.675609, "alt": 9.72, "yaw": "2.10508918762", "lon": -95.4044181, "heading": 120, "speed": 0.018000001087784767, "roll": "0.0052284845151"}
{"pitch": "0.0095350984484", "lat": 29.713268, "timestamp": 1603395136.176742, "alt": 9.7, "yaw": "2.10525798798", "lon": -95.4044177, "heading": 120, "speed": 0.04200000315904617, "roll": "0.00539154792204"}
{"pitch": "0.00950510986149", "lat": 29.7132685, "timestamp": 1603395136.677885, "alt": 9.69, "yaw": "2.10542201996", "lon": -95.4044174, "heading": 120, "speed": 0.04800000041723251, "roll": "0.00550399115309"}
{"pitch": "0.00962870568037", "lat": 29.713269, "timestamp": 1603395137.179005, "alt": 9.68, "yaw": "2.10545229912", "lon": -95.404417, "heading": 120, "speed": 0.030000001192092896, "roll": "0.00580667983741"}
{"pitch": "0.00976172089577", "lat": 29.7132695, "timestamp": 1603395137.680369, "alt": 9.66, "yaw": "2.10570049286", "lon": -95.4044167, "heading": 120, "speed": 0.05400000140070915, "roll": "0.00612526014447"}
{"pitch": "0.00968345627189", "lat": 29.71327, "timestamp": 1603395138.181807, "alt": 9.64, "yaw": "2.10593700409", "lon": -95.4044163, "heading": 120, "speed": 0.02200000174343586, "roll": "0.00625519361347"}
{"pitch": "0.00951610133052", "lat": 29.7132704, "timestamp": 1603395138.682984, "alt": 9.63, "yaw": "2.10614156723", "lon": -95.4044158, "heading": 120, "speed": 0.01100000087171793, "roll": "0.00630490947515"}
{"pitch": "0.00965898856521", "lat": 29.7132711, "timestamp": 1603395139.18416, "alt": 9.62, "yaw": "2.10610389709", "lon": -95.4044152, "heading": 120, "speed": 0.010000000707805157, "roll": "0.00647247955203"}
{"pitch": "0.0098042357713", "lat": 29.7132713, "timestamp": 1603395139.685862, "alt": 9.61, "yaw": "2.10625195503", "lon": -95.404415, "heading": 120, "speed": 0.02800000086426735, "roll": "0.00669732317328"}
{"pitch": "0.00981628522277", "lat": 29.7132717, "timestamp": 1603395140.186961, "alt": 9.6, "yaw": "2.10632371902", "lon": -95.4044143, "heading": 120, "speed": 0.01900000125169754, "roll": "0.0069345254451"}
{"pitch": "0.00993493385613", "lat": 29.7132719, "timestamp": 1603395140.688112, "alt": 9.59, "yaw": "2.10658311844", "lon": -95.4044139, "heading": 120, "speed": 0.01600000075995922, "roll": "0.00710636237636"}
{"pitch": "0.0100209582597", "lat": 29.7132721, "timestamp": 1603395141.189303, "alt": 9.6, "yaw": "2.10672283173", "lon": -95.4044135, "heading": 120, "speed": 0.012000000104308128, "roll": "0.00725470017642"}
{"pitch": "0.010117277503", "lat": 29.7132723, "timestamp": 1603395141.690473, "alt": 9.59, "yaw": "2.10691213608", "lon": -95.4044131, "heading": 120, "speed": 0.029000001028180122, "roll": "0.00738210976124"}
{"pitch": "0.0101558156312", "lat": 29.7132723, "timestamp": 1603395142.191385, "alt": 9.58, "yaw": "2.10706710815", "lon": -95.4044128, "heading": 120, "speed": 0.01900000125169754, "roll": "0.00750545738265"}
{"pitch": "0.0102511905134", "lat": 29.7132722, "timestamp": 1603395142.692549, "alt": 9.57, "yaw": "2.10728764534", "lon": -95.4044125, "heading": 120, "speed": 0.00800000037997961, "roll": "0.0075747417286"}
{"pitch": "0.0103145223111", "lat": 29.7132721, "timestamp": 1603395143.193663, "alt": 9.56, "yaw": "2.10756182671", "lon": -95.4044123, "heading": 120, "speed": 0.030000001192092896, "roll": "0.00761306658387"}
{"pitch": "0.0104113481939", "lat": 29.7132719, "timestamp": 1603395143.698368, "alt": 9.54, "yaw": "2.10774922371", "lon": -95.4044122, "heading": 120, "speed": 0.03500000014901161, "roll": "0.00767433457077"}
{"pitch": "0.0105366837233", "lat": 29.7132716, "timestamp": 1603395144.199717, "alt": 9.54, "yaw": "2.10792684555", "lon": -95.4044121, "heading": 120, "speed": 0.01100000087171793, "roll": "0.00778425205499"}
{"pitch": "0.0105281472206", "lat": 29.7132712, "timestamp": 1603395144.701174, "alt": 9.54, "yaw": "2.10798025131", "lon": -95.4044121, "heading": 120, "speed": 0.017000000923871994, "roll": "0.00785657484084"}
{"pitch": "0.010583139956", "lat": 29.7132708, "timestamp": 1603395145.202414, "alt": 9.56, "yaw": "2.10815095901", "lon": -95.4044121, "heading": 120, "speed": 0.039000000804662704, "roll": "0.00776342209429"}
{"pitch": "0.010505348444", "lat": 29.7132705, "timestamp": 1603395145.703592, "alt": 9.59, "yaw": "2.1083214283", "lon": -95.4044121, "heading": 120, "speed": 0.01900000125169754, "roll": "0.0074366685003"}
{"pitch": "0.0104873292148", "lat": 29.7132699, "timestamp": 1603395146.205085, "alt": 9.62, "yaw": "2.10845899582", "lon": -95.4044121, "heading": 120, "speed": 0.02500000037252903, "roll": "0.00722371414304"}
{"pitch": "0.0105220060796", "lat": 29.7132695, "timestamp": 1603395146.706293, "alt": 9.63, "yaw": "2.1086807251", "lon": -95.4044121, "heading": 120, "speed": 0.005000000353902578, "roll": "0.00690965354443"}
{"pitch": "0.0105631537735", "lat": 29.7132691, "timestamp": 1603395147.207443, "alt": 9.64, "yaw": "2.10889530182", "lon": -95.4044121, "heading": 120, "speed": 0.014000000432133675, "roll": "0.00678413826972"}
{"pitch": "0.010633405298", "lat": 29.7132687, "timestamp": 1603395147.708476, "alt": 9.68, "yaw": "2.10895609856", "lon": -95.4044121, "heading": 120, "speed": 0.03200000151991844, "roll": "0.00661601126194"}
{"pitch": "0.0106399226934", "lat": 29.7132683, "timestamp": 1603395148.20965, "alt": 9.7, "yaw": "2.10903358459", "lon": -95.4044121, "heading": 120, "speed": 0.039000000804662704, "roll": "0.00627443194389"}
{"pitch": "0.0107211861759", "lat": 29.7132679, "timestamp": 1603395148.716209, "alt": 9.71, "yaw": "2.10911607742", "lon": -95.4044122, "heading": 120, "speed": 0.009000000543892384, "roll": "0.00612524617463"}
{"pitch": "0.0106804240495", "lat": 29.7132676, "timestamp": 1603395149.217455, "alt": 9.74, "yaw": "2.10921382904", "lon": -95.4044123, "heading": 120, "speed": 0.01900000125169754, "roll": "0.00592287816107"}
{"pitch": "0.0106351710856", "lat": 29.7132672, "timestamp": 1603395149.718615, "alt": 9.75, "yaw": "2.10949993134", "lon": -95.4044124, "heading": 120, "speed": 0.018000001087784767, "roll": "0.00574339134619"}
{"pitch": "0.0107313711196", "lat": 29.7132668, "timestamp": 1603395150.219676, "alt": 9.76, "yaw": "2.10961961746", "lon": -95.4044125, "heading": 120, "speed": 0.01900000125169754, "roll": "0.00575409317389"}
{"pitch": "0.0108509287238", "lat": 29.7132664, "timestamp": 1603395150.720758, "alt": 9.77, "yaw": "2.10979652405", "lon": -95.4044127, "heading": 120, "speed": 0.020000001415610313, "roll": "0.00571158295497"}
{"pitch": "0.0108473673463", "lat": 29.7132661, "timestamp": 1603395151.22185, "alt": 9.8, "yaw": "2.10982084274", "lon": -95.4044129, "heading": 120, "speed": 0.021000001579523087, "roll": "0.005520706065"}
{"pitch": "0.0108646266162", "lat": 29.7132658, "timestamp": 1603395151.723135, "alt": 9.82, "yaw": "2.10993480682", "lon": -95.4044132, "heading": 120, "speed": 0.06000000238418579, "roll": "0.00526554044336"}
{"pitch": "0.010972045362", "lat": 29.7132655, "timestamp": 1603395152.224363, "alt": 9.84, "yaw": "2.10994076729", "lon": -95.4044136, "heading": 120, "speed": 0.02200000174343586, "roll": "0.00524407252669"}
{"pitch": "0.010867876932", "lat": 29.7132652, "timestamp": 1603395152.725731, "alt": 9.88, "yaw": "2.11007881165", "lon": -95.404414, "heading": 120, "speed": 0.027000000700354576, "roll": "0.00510883284733"}
{"pitch": "0.0109660848975", "lat": 29.7132648, "timestamp": 1603395153.227121, "alt": 9.91, "yaw": "2.11022472382", "lon": -95.4044146, "heading": 120, "speed": 0.03100000135600567, "roll": "0.00491211842746"}
{"pitch": "0.0108829755336", "lat": 29.7132646, "timestamp": 1603395153.746063, "alt": 9.95, "yaw": "2.11027097702", "lon": -95.4044151, "heading": 120, "speed": 0.032999999821186066, "roll": "0.00478193489835"}
{"pitch": "0.0108721535653", "lat": 29.7132644, "timestamp": 1603395154.2472, "alt": 9.99, "yaw": "2.11022138596", "lon": -95.4044155, "heading": 120, "speed": 0.007000000216066837, "roll": "0.00466039776802"}
{"pitch": "0.0109778232872", "lat": 29.7132643, "timestamp": 1603395154.748216, "alt": 10.03, "yaw": "2.11022138596", "lon": -95.4044159, "heading": 120, "speed": 0.029000001028180122, "roll": "0.00463757757097"}
{"pitch": "0.0109401922673", "lat": 29.7132642, "timestamp": 1603395155.249396, "alt": 10.06, "yaw": "2.10999393463", "lon": -95.4044163, "heading": 120, "speed": 0.02800000086426735, "roll": "0.00452571921051"}
{"pitch": "0.0109605193138", "lat": 29.7132641, "timestamp": 1603395155.750656, "alt": 10.1, "yaw": "2.10993528366", "lon": -95.4044166, "heading": 120, "speed": 0.01900000125169754, "roll": "0.00436175381765"}
{"pitch": "0.0107781328261", "lat": 29.7132641, "timestamp": 1603395156.251682, "alt": 10.12, "yaw": "2.11003398895", "lon": -95.4044168, "heading": 120, "speed": 0.02500000037252903, "roll": "0.00433713942766"}
{"pitch": "0.0107132382691", "lat": 29.713264, "timestamp": 1603395156.752629, "alt": 10.14, "yaw": "2.11012721062", "lon": -95.4044171, "heading": 120, "speed": 0.023000001907348633, "roll": "0.00439692381769"}
{"pitch": "0.0107008870691", "lat": 29.713264, "timestamp": 1603395157.253695, "alt": 10.18, "yaw": "2.11021780968", "lon": -95.4044175, "heading": 120, "speed": 0.027000000700354576, "roll": "0.004433888942"}
{"pitch": "0.0107152666897", "lat": 29.7132641, "timestamp": 1603395157.754957, "alt": 10.2, "yaw": "2.11038756371", "lon": -95.4044178, "heading": 120, "speed": 0.02500000037252903, "roll": "0.00435454305261"}
{"pitch": "0.0106884744018", "lat": 29.7132642, "timestamp": 1603395158.256443, "alt": 10.23, "yaw": "2.11058926582", "lon": -95.404418, "heading": 120, "speed": 0.04000000283122063, "roll": "0.00433225696906"}
{"pitch": "0.0105523169041", "lat": 29.7132644, "timestamp": 1603395158.78212, "alt": 10.24, "yaw": "2.11079668999", "lon": -95.4044182, "heading": 120, "speed": 0.03700000047683716, "roll": "0.00445390213281"}
{"pitch": "0.0102906506509", "lat": 29.7132644, "timestamp": 1603395159.283334, "alt": 10.29, "yaw": "2.11081457138", "lon": -95.4044185, "heading": 120, "speed": 0.027000000700354576, "roll": "0.00465221982449"}
{"pitch": "0.0102913454175", "lat": 29.7132647, "timestamp": 1603395159.784521, "alt": 10.33, "yaw": "2.11098575592", "lon": -95.4044188, "heading": 120, "speed": 0.039000000804662704, "roll": "0.00464167492464"}
{"pitch": "0.0103146340698", "lat": 29.7132649, "timestamp": 1603395160.285684, "alt": 10.38, "yaw": "2.11122560501", "lon": -95.4044191, "heading": 120, "speed": 0.0010000000474974513, "roll": "0.00478365505114"}
{"pitch": "0.010436091572", "lat": 29.7132651, "timestamp": 1603395160.786813, "alt": 10.37, "yaw": "2.11130475998", "lon": -95.4044194, "heading": 120, "speed": 0.015000000596046448, "roll": "0.0049059195444"}
{"pitch": "0.0105001199991", "lat": 29.7132652, "timestamp": 1603395161.287972, "alt": 10.35, "yaw": "2.11135601997", "lon": -95.4044198, "heading": 120, "speed": 0.010000000707805157, "roll": "0.0052772462368"}
{"pitch": "0.0104918703437", "lat": 29.7132654, "timestamp": 1603395161.789675, "alt": 10.34, "yaw": "2.11152005196", "lon": -95.4044201, "heading": 120, "speed": 0.04200000315904617, "roll": "0.00529449060559"}
{"pitch": "0.0104030091316", "lat": 29.7132656, "timestamp": 1603395162.290555, "alt": 10.34, "yaw": "2.11163187027", "lon": -95.4044204, "heading": 120, "speed": 0.024000000208616257, "roll": "0.00526207359508"}
{"pitch": "0.0101052243263", "lat": 29.7132658, "timestamp": 1603395162.791662, "alt": 10.34, "yaw": "2.11161756516", "lon": -95.4044206, "heading": 120, "speed": 0.01900000125169754, "roll": "0.00538414157927"}
{"pitch": "0.0101705566049", "lat": 29.713266, "timestamp": 1603395163.292777, "alt": 10.35, "yaw": "2.1118183136", "lon": -95.404421, "heading": 121, "speed": 0.02500000037252903, "roll": "0.0055342586711"}
{"pitch": "0.0102109331638", "lat": 29.7132662, "timestamp": 1603395163.79391, "alt": 10.35, "yaw": "2.11186146736", "lon": -95.4044213, "heading": 121, "speed": 0.02800000086426735, "roll": "0.00568705471233"}
{"pitch": "0.0101020671427", "lat": 29.7132664, "timestamp": 1603395164.295085, "alt": 10.36, "yaw": "2.11203622818", "lon": -95.4044215, "heading": 121, "speed": 0.023000001907348633, "roll": "0.00567547557876"}
{"pitch": "0.0100083183497", "lat": 29.7132666, "timestamp": 1603395164.796247, "alt": 10.37, "yaw": "2.11209821701", "lon": -95.4044216, "heading": 121, "speed": 0.03400000184774399, "roll": "0.00569687271491"}
{"pitch": "0.0099717117846", "lat": 29.7132669, "timestamp": 1603395165.297366, "alt": 10.37, "yaw": "2.11230039597", "lon": -95.4044218, "heading": 121, "speed": 0.01100000087171793, "roll": "0.00576692493632"}
{"pitch": "0.00995157286525", "lat": 29.713267, "timestamp": 1603395165.799289, "alt": 10.38, "yaw": "2.11250495911", "lon": -95.4044221, "heading": 121, "speed": 0.02200000174343586, "roll": "0.00584455719218"}
{"pitch": "0.00965448468924", "lat": 29.713267, "timestamp": 1603395166.302667, "alt": 10.38, "yaw": "2.11267471313", "lon": -95.4044222, "heading": 121, "speed": 0.021000001579523087, "roll": "0.00584861030802"}
{"pitch": "0.00960051268339", "lat": 29.7132672, "timestamp": 1603395166.803567, "alt": 10.38, "yaw": "2.11273574829", "lon": -95.4044224, "heading": 121, "speed": 0.02200000174343586, "roll": "0.0058519509621"}
{"pitch": "0.00943191722035", "lat": 29.7132673, "timestamp": 1603395167.304695, "alt": 10.4, "yaw": "2.11279201508", "lon": -95.4044225, "heading": 121, "speed": 0.005000000353902578, "roll": "0.0058437990956"}
{"pitch": "0.00930745340884", "lat": 29.7132675, "timestamp": 1603395167.80581, "alt": 10.42, "yaw": "2.11305236816", "lon": -95.4044225, "heading": 121, "speed": 0.018000001087784767, "roll": "0.00579228950664"}
{"pitch": "0.00921372883022", "lat": 29.7132676, "timestamp": 1603395168.307012, "alt": 10.48, "yaw": "2.11317825317", "lon": -95.4044224, "heading": 121, "speed": 0.030000001192092896, "roll": "0.00577358948067"}
{"pitch": "0.00905312038958", "lat": 29.7132679, "timestamp": 1603395168.808216, "alt": 10.53, "yaw": "2.11330747604", "lon": -95.4044222, "heading": 121, "speed": 0.04200000315904617, "roll": "0.00560751650482"}
{"pitch": "0.00897542014718", "lat": 29.7132682, "timestamp": 1603395169.309376, "alt": 10.58, "yaw": "2.11364221573", "lon": -95.4044219, "heading": 121, "speed": 0.010000000707805157, "roll": "0.00551392044872"}
{"pitch": "0.00890940614045", "lat": 29.7132685, "timestamp": 1603395169.81162, "alt": 10.65, "yaw": "2.11385846138", "lon": -95.4044217, "heading": 121, "speed": 0.003000000026077032, "roll": "0.00554306339473"}
{"pitch": "0.00905140303075", "lat": 29.7132688, "timestamp": 1603395170.313924, "alt": 10.7, "yaw": "2.11394119263", "lon": -95.4044214, "heading": 121, "speed": 0.02500000037252903, "roll": "0.00558308884501"}
{"pitch": "0.00916219688952", "lat": 29.7132692, "timestamp": 1603395170.815089, "alt": 10.76, "yaw": "2.11408376694", "lon": -95.4044211, "heading": 121, "speed": 0.03500000014901161, "roll": "0.00554317282513"}
{"pitch": "0.00942958332598", "lat": 29.7132695, "timestamp": 1603395171.316438, "alt": 10.78, "yaw": "2.11421513557", "lon": -95.4044209, "heading": 121, "speed": 0.01100000087171793, "roll": "0.00563989393413"}
{"pitch": "0.00961867533624", "lat": 29.7132698, "timestamp": 1603395171.817558, "alt": 10.81, "yaw": "2.11424040794", "lon": -95.4044206, "heading": 121, "speed": 0.013000000268220901, "roll": "0.00575033202767"}
{"pitch": "0.00959610380232", "lat": 29.7132701, "timestamp": 1603395172.318794, "alt": 10.84, "yaw": "2.11450004578", "lon": -95.4044204, "heading": 121, "speed": 0.03500000014901161, "roll": "0.00612177234143"}
{"pitch": "0.00962192937732", "lat": 29.7132703, "timestamp": 1603395172.820076, "alt": 10.86, "yaw": "2.11457538605", "lon": -95.4044201, "heading": 121, "speed": 0.029000001028180122, "roll": "0.00615613535047"}
{"pitch": "0.00967624597251", "lat": 29.7132707, "timestamp": 1603395173.321202, "alt": 10.9, "yaw": "2.11472654343", "lon": -95.4044196, "heading": 121, "speed": 0.04200000315904617, "roll": "0.0063521550037"}
{"pitch": "0.00975152850151", "lat": 29.713271, "timestamp": 1603395173.822358, "alt": 10.92, "yaw": "2.11477994919", "lon": -95.4044192, "heading": 121, "speed": 0.03400000184774399, "roll": "0.00616750027984"}
{"pitch": "0.00968662463129", "lat": 29.7132713, "timestamp": 1603395174.323456, "alt": 10.95, "yaw": "2.11477375031", "lon": -95.4044188, "heading": 121, "speed": 0.007000000216066837, "roll": "0.00624920148402"}
{"pitch": "0.00981134548783", "lat": 29.7132715, "timestamp": 1603395174.824571, "alt": 10.96, "yaw": "2.11480808258", "lon": -95.4044184, "heading": 121, "speed": 0.020000001415610313, "roll": "0.00635301042348"}
{"pitch": "0.00980162620544", "lat": 29.7132718, "timestamp": 1603395175.325721, "alt": 10.96, "yaw": "2.11491775513", "lon": -95.4044181, "heading": 121, "speed": 0.058000002056360245, "roll": "0.00642448104918"}
{"pitch": "0.00992239639163", "lat": 29.713272, "timestamp": 1603395175.826905, "alt": 10.96, "yaw": "2.11521482468", "lon": -95.4044178, "heading": 121, "speed": 0.032999999821186066, "roll": "0.00661218352616"}
{"pitch": "0.0100385714322", "lat": 29.7132723, "timestamp": 1603395176.328072, "alt": 10.98, "yaw": "2.11532449722", "lon": -95.4044175, "heading": 121, "speed": 0.010000000707805157, "roll": "0.00670577678829"}
{"pitch": "0.00996422767639", "lat": 29.7132724, "timestamp": 1603395176.829214, "alt": 10.98, "yaw": "2.11538648605", "lon": -95.4044172, "heading": 121, "speed": 0.02500000037252903, "roll": "0.00670088641346"}
{"pitch": "0.0100826043636", "lat": 29.7132726, "timestamp": 1603395177.330309, "alt": 10.98, "yaw": "2.11562085152", "lon": -95.404417, "heading": 121, "speed": 0.015000000596046448, "roll": "0.00675647705793"}
{"pitch": "0.0100154783577", "lat": 29.7132727, "timestamp": 1603395177.831408, "alt": 10.98, "yaw": "2.11562752724", "lon": -95.4044167, "heading": 121, "speed": 0.021000001579523087, "roll": "0.00679967505857"}
{"pitch": "0.00996419601142", "lat": 29.7132728, "timestamp": 1603395178.333852, "alt": 10.98, "yaw": "2.11554288864", "lon": -95.4044164, "heading": 121, "speed": 0.03400000184774399, "roll": "0.00677195517346"}
{"pitch": "0.00999264605343", "lat": 29.7132729, "timestamp": 1603395178.835119, "alt": 10.98, "yaw": "2.11569929123", "lon": -95.4044161, "heading": 121, "speed": 0.013000000268220901, "roll": "0.00675009377301"}
{"pitch": "0.00979444757104", "lat": 29.713273, "timestamp": 1603395179.336771, "alt": 10.98, "yaw": "2.11585426331", "lon": -95.4044158, "heading": 121, "speed": 0.049000002443790436, "roll": "0.00688685616478"}
{"pitch": "0.0098989456892", "lat": 29.7132731, "timestamp": 1603395179.840521, "alt": 10.99, "yaw": "2.11607384682", "lon": -95.4044156, "heading": 121, "speed": 0.027000000700354576, "roll": "0.00679392833263"}
{"pitch": "0.00995477475226", "lat": 29.7132733, "timestamp": 1603395180.341646, "alt": 10.99, "yaw": "2.11622476578", "lon": -95.4044153, "heading": 121, "speed": 0.012000000104308128, "roll": "0.00687925610691"}
{"pitch": "0.0100977793336", "lat": 29.7132733, "timestamp": 1603395180.842845, "alt": 11.0, "yaw": "2.11635804176", "lon": -95.4044152, "heading": 121, "speed": 0.017000000923871994, "roll": "0.00687508936971"}
{"pitch": "0.0100483167917", "lat": 29.7132733, "timestamp": 1603395181.343963, "alt": 11.01, "yaw": "2.11651802063", "lon": -95.404415, "heading": 121, "speed": 0.030000001192092896, "roll": "0.00691630039364"}
{"pitch": "0.00991103798151", "lat": 29.7132732, "timestamp": 1603395181.845118, "alt": 11.02, "yaw": "2.11661887169", "lon": -95.4044148, "heading": 121, "speed": 0.03400000184774399, "roll": "0.00694351503626"}
{"pitch": "0.0101371575147", "lat": 29.7132731, "timestamp": 1603395182.346231, "alt": 11.03, "yaw": "2.11675930023", "lon": -95.4044147, "heading": 121, "speed": 0.03400000184774399, "roll": "0.0069628348574"}
{"pitch": "0.0102841034532", "lat": 29.7132731, "timestamp": 1603395182.847416, "alt": 11.04, "yaw": "2.11683320999", "lon": -95.4044147, "heading": 121, "speed": 0.014000000432133675, "roll": "0.00687787029892"}
{"pitch": "0.0102026499808", "lat": 29.7132729, "timestamp": 1603395183.348596, "alt": 11.05, "yaw": "2.11695718765", "lon": -95.4044146, "heading": 121, "speed": 0.04100000113248825, "roll": "0.00683306064457"}
{"pitch": "0.0102495923638", "lat": 29.7132727, "timestamp": 1603395183.849797, "alt": 11.07, "yaw": "2.11713027954", "lon": -95.4044145, "heading": 121, "speed": 0.029000001028180122, "roll": "0.00689948257059"}
{"pitch": "0.0101777035743", "lat": 29.7132724, "timestamp": 1603395184.350927, "alt": 11.09, "yaw": "2.11723423004", "lon": -95.4044144, "heading": 121, "speed": 0.03100000135600567, "roll": "0.0068148560822"}
{"pitch": "0.0101586319506", "lat": 29.713272, "timestamp": 1603395184.852043, "alt": 11.1, "yaw": "2.11721992493", "lon": -95.4044143, "heading": 121, "speed": 0.06000000238418579, "roll": "0.00686003081501"}
{"pitch": "0.0101455114782", "lat": 29.7132717, "timestamp": 1603395185.353667, "alt": 11.11, "yaw": "2.11729812622", "lon": -95.4044143, "heading": 121, "speed": 0.009000000543892384, "roll": "0.00684180296957"}
{"pitch": "0.0100628696382", "lat": 29.7132713, "timestamp": 1603395185.855223, "alt": 11.13, "yaw": "2.11720633507", "lon": -95.4044142, "heading": 121, "speed": 0.02800000086426735, "roll": "0.00666170194745"}
{"pitch": "0.0100181773305", "lat": 29.7132709, "timestamp": 1603395186.356364, "alt": 11.14, "yaw": "2.11723470688", "lon": -95.4044141, "heading": 121, "speed": 0.023000001907348633, "roll": "0.00661203637719"}
{"pitch": "0.00999149866402", "lat": 29.7132704, "timestamp": 1603395186.857299, "alt": 11.16, "yaw": "2.11730742455", "lon": -95.4044141, "heading": 121, "speed": 0.012000000104308128, "roll": "0.00658786064014"}
{"pitch": "0.0103395916522", "lat": 29.7132696, "timestamp": 1603395187.358418, "alt": 11.18, "yaw": "2.11745452881", "lon": -95.4044144, "heading": 121, "speed": 0.00800000037997961, "roll": "0.00645300187171"}
{"pitch": "0.0103685334325", "lat": 29.7132692, "timestamp": 1603395187.859582, "alt": 11.19, "yaw": "2.11749410629", "lon": -95.4044147, "heading": 121, "speed": 0.030000001192092896, "roll": "0.00635481253266"}
{"pitch": "0.0103685334325", "lat": 29.7132692, "timestamp": 1603395187.998209, "alt": 11.19, "yaw": "2.11749410629", "lon": -95.4044147, "heading": 121, "speed": 0.013000000268220901, "roll": "0.00635481253266"}
{"pitch": "0.0102789103985", "lat": 29.7132686, "timestamp": 1603395188.360795, "alt": 11.2, "yaw": "2.11755371094", "lon": -95.404415, "heading": 121, "speed": 0.007000000216066837, "roll": "0.00612523406744"}
{"pitch": "0.0102789103985", "lat": 29.7132686, "timestamp": 1603395188.500083, "alt": 11.2, "yaw": "2.11755371094", "lon": -95.404415, "heading": 121, "speed": 0.007000000216066837, "roll": "0.00612523406744"}
{"pitch": "0.0102603565902", "lat": 29.713268, "timestamp": 1603395188.862215, "alt": 11.2, "yaw": "2.11783742905", "lon": -95.4044154, "heading": 121, "speed": 0.030000001192092896, "roll": "0.00609110714868"}
{"pitch": "0.0102603565902", "lat": 29.713268, "timestamp": 1603395189.001297, "alt": 11.2, "yaw": "2.11783742905", "lon": -95.4044154, "heading": 121, "speed": 0.030000001192092896, "roll": "0.00609110714868"}
{"pitch": "0.0102744456381", "lat": 29.7132677, "timestamp": 1603395189.36334, "alt": 11.2, "yaw": "2.11787891388", "lon": -95.4044156, "heading": 121, "speed": 0.046000003814697266, "roll": "0.00601729284972"}
{"pitch": "0.0102863702923", "lat": 29.7132674, "timestamp": 1603395189.502493, "alt": 11.21, "yaw": "2.11796092987", "lon": -95.4044159, "heading": 121, "speed": 0.046000003814697266, "roll": "0.00596378277987"}
{"pitch": "0.0102821104228", "lat": 29.7132671, "timestamp": 1603395189.864447, "alt": 11.21, "yaw": "2.118039608", "lon": -95.4044161, "heading": 121, "speed": 0.03200000151991844, "roll": "0.00589125882834"}
{"pitch": "0.0102821104228", "lat": 29.7132668, "timestamp": 1603395190.003611, "alt": 11.21, "yaw": "2.118039608", "lon": -95.4044163, "heading": 121, "speed": 0.02200000174343586, "roll": "0.00589125882834"}
{"pitch": "0.0102679245174", "lat": 29.7132665, "timestamp": 1603395190.365694, "alt": 11.22, "yaw": "2.11825942993", "lon": -95.4044165, "heading": 121, "speed": 0.030000001192092896, "roll": "0.00573344435543"}
{"pitch": "0.0102679245174", "lat": 29.7132663, "timestamp": 1603395190.504671, "alt": 11.23, "yaw": "2.11825942993", "lon": -95.4044168, "heading": 121, "speed": 0.02500000037252903, "roll": "0.00573344435543"}
{"pitch": "0.00871875882149", "lat": 29.7132661, "timestamp": 1603395190.866897, "alt": 11.23, "yaw": "2.1176199913", "lon": -95.4044171, "heading": 121, "speed": 0.01600000075995922, "roll": "0.00417885556817"}
{"pitch": "0.00871875882149", "lat": 29.7132661, "timestamp": 1603395191.005865, "alt": 11.23, "yaw": "2.1176199913", "lon": -95.4044171, "heading": 121, "speed": 0.01600000075995922, "roll": "0.00417885556817"}
{"pitch": "-0.00607491238043", "lat": 29.7132657, "timestamp": 1603395191.368042, "alt": 11.28, "yaw": "2.07638120651", "lon": -95.4044177, "heading": 119, "speed": 0.020000001415610313, "roll": "-0.0139454873279"}
{"pitch": "-0.00607491238043", "lat": 29.7132657, "timestamp": 1603395191.507004, "alt": 11.28, "yaw": "2.07638120651", "lon": -95.4044177, "heading": 119, "speed": 0.020000001415610313, "roll": "-0.0139454873279"}
{"pitch": "-0.0356954783201", "lat": 29.7132659, "timestamp": 1603395191.868717, "alt": 11.66, "yaw": "2.02608251572", "lon": -95.4044175, "heading": 116, "speed": 0.18700000643730164, "roll": "-0.0406523644924"}
{"pitch": "-0.0615221709013", "lat": 29.7132659, "timestamp": 1603395192.008123, "alt": 11.66, "yaw": "1.98582720757", "lon": -95.4044175, "heading": 113, "speed": 0.1340000033378601, "roll": "-0.0139134665951"}
{"pitch": "-0.00706752110273", "lat": 29.7132659, "timestamp": 1603395192.369843, "alt": 12.29, "yaw": "1.97115814686", "lon": -95.4044152, "heading": 112, "speed": 0.4490000307559967, "roll": "-0.0124474251643"}
{"pitch": "0.0570114217699", "lat": 29.7132659, "timestamp": 1603395192.509263, "alt": 12.29, "yaw": "1.98204529285", "lon": -95.4044152, "heading": 113, "speed": 0.6980000138282776, "roll": "-0.00275826151483"}
{"pitch": "0.0899466350675", "lat": 29.7132662, "timestamp": 1603395192.87103, "alt": 12.71, "yaw": "1.99406099319", "lon": -95.4044138, "heading": 114, "speed": 0.7380000352859497, "roll": "0.0114075569436"}
{"pitch": "0.092657610774", "lat": 29.7132666, "timestamp": 1603395193.010425, "alt": 13.13, "yaw": "1.99359273911", "lon": -95.4044127, "heading": 114, "speed": 0.4830000102519989, "roll": "0.0309807695448"}
{"pitch": "0.0489886328578", "lat": 29.7132673, "timestamp": 1603395193.372144, "alt": 13.68, "yaw": "1.99480164051", "lon": -95.404412, "heading": 114, "speed": 0.45600003004074097, "roll": "0.0559694617987"}
{"pitch": "0.0489886328578", "lat": 29.713268, "timestamp": 1603395193.511803, "alt": 14.23, "yaw": "1.99480164051", "lon": -95.4044117, "heading": 114, "speed": 0.45600003004074097, "roll": "0.0559694617987"}
{"pitch": "0.0510131828487", "lat": 29.7132689, "timestamp": 1603395193.873233, "alt": 14.78, "yaw": "2.06062245369", "lon": -95.4044116, "heading": 117, "speed": 0.3060000240802765, "roll": "0.0615273416042"}
{"pitch": "0.0510131828487", "lat": 29.7132699, "timestamp": 1603395194.013959, "alt": 15.33, "yaw": "2.06062245369", "lon": -95.4044117, "heading": 117, "speed": 0.3060000240802765, "roll": "0.0615273416042"}
{"pitch": "0.0369555875659", "lat": 29.7132707, "timestamp": 1603395194.375435, "alt": 15.98, "yaw": "2.02958393097", "lon": -95.404412, "heading": 116, "speed": 0.3790000081062317, "roll": "0.125346168876"}
{"pitch": "0.0369555875659", "lat": 29.7132707, "timestamp": 1603395194.515141, "alt": 15.98, "yaw": "2.02958393097", "lon": -95.404412, "heading": 116, "speed": 0.320000022649765, "roll": "0.125346168876"}
{"pitch": "0.0409577451646", "lat": 29.7132708, "timestamp": 1603395194.877191, "alt": 17.16, "yaw": "2.01918029785", "lon": -95.4044143, "heading": 115, "speed": 0.31700000166893005, "roll": "0.101908676326"}
{"pitch": "0.000777465291321", "lat": 29.7132708, "timestamp": 1603395195.016263, "alt": 17.16, "yaw": "2.01757264137", "lon": -95.4044143, "heading": 115, "speed": 0.31700000166893005, "roll": "0.0572355277836"}
{"pitch": "-0.0153115019202", "lat": 29.7132702, "timestamp": 1603395195.378366, "alt": 17.8, "yaw": "2.03399300575", "lon": -95.4044158, "heading": 116, "speed": 0.5010000467300415, "roll": "0.00270902342163"}
{"pitch": "-0.0153115019202", "lat": 29.7132697, "timestamp": 1603395195.517384, "alt": 18.38, "yaw": "2.03399300575", "lon": -95.404417, "heading": 116, "speed": 0.5010000467300415, "roll": "0.00270902342163"}
{"pitch": "-0.0300252847373", "lat": 29.7132695, "timestamp": 1603395195.879487, "alt": 18.98, "yaw": "2.06601047516", "lon": -95.4044179, "heading": 118, "speed": 0.0950000062584877, "roll": "0.00547240953892"}
{"pitch": "-0.0300252847373", "lat": 29.7132694, "timestamp": 1603395196.018565, "alt": 19.5, "yaw": "2.06601047516", "lon": -95.4044181, "heading": 118, "speed": 0.0950000062584877, "roll": "0.00547240953892"}
{"pitch": "0.0185244437307", "lat": 29.7132695, "timestamp": 1603395196.380605, "alt": 19.89, "yaw": "2.07386183739", "lon": -95.404418, "heading": 118, "speed": 0.026000000536441803, "roll": "0.0684590861201"}
{"pitch": "0.0185244437307", "lat": 29.7132697, "timestamp": 1603395196.519738, "alt": 20.2, "yaw": "2.07386183739", "lon": -95.404418, "heading": 118, "speed": 0.026000000536441803, "roll": "0.0684590861201"}
{"pitch": "0.00856648944318", "lat": 29.7132697, "timestamp": 1603395196.881773, "alt": 20.44, "yaw": "2.07482099533", "lon": -95.4044181, "heading": 118, "speed": 0.08800000697374344, "roll": "0.0737357661128"}
{"pitch": "-0.00585608836263", "lat": 29.7132697, "timestamp": 1603395197.021013, "alt": 20.65, "yaw": "2.0697183609", "lon": -95.4044181, "heading": 118, "speed": 0.0650000050663948, "roll": "0.0515777990222"}
{"pitch": "-0.00748568959534", "lat": 29.7132697, "timestamp": 1603395197.38307, "alt": 20.81, "yaw": "2.06472110748", "lon": -95.4044182, "heading": 118, "speed": 0.1510000079870224, "roll": "0.0508611947298"}
{"pitch": "-0.0162209570408", "lat": 29.7132697, "timestamp": 1603395197.522225, "alt": 20.81, "yaw": "2.06532144547", "lon": -95.4044182, "heading": 118, "speed": 0.1510000079870224, "roll": "0.062754034996"}
{"pitch": "-0.01358352229", "lat": 29.7132693, "timestamp": 1603395197.884173, "alt": 21.04, "yaw": "2.06705904007", "lon": -95.404418, "heading": 118, "speed": 0.14600001275539398, "roll": "0.0656239464879"}
{"pitch": "-0.01358352229", "lat": 29.7132693, "timestamp": 1603395198.024521, "alt": 21.04, "yaw": "2.06705904007", "lon": -95.404418, "heading": 118, "speed": 0.14600001275539398, "roll": "0.0656239464879"}
{"pitch": "-0.0193121824414", "lat": 29.7132692, "timestamp": 1603395198.385383, "alt": 21.11, "yaw": "2.07135796547", "lon": -95.404418, "heading": 118, "speed": 0.03700000047683716, "roll": "0.061598662287"}
{"pitch": "-0.0193121824414", "lat": 29.7132692, "timestamp": 1603395198.525787, "alt": 21.16, "yaw": "2.07135796547", "lon": -95.4044179, "heading": 118, "speed": 0.04800000041723251, "roll": "0.061598662287"}
{"pitch": "-0.0216443073004", "lat": 29.7132691, "timestamp": 1603395198.886502, "alt": 21.2, "yaw": "2.07666015625", "lon": -95.4044177, "heading": 119, "speed": 0.04500000178813934, "roll": "0.0771644040942"}
{"pitch": "-0.0190843623132", "lat": 29.7132688, "timestamp": 1603395199.026999, "alt": 21.24, "yaw": "2.08079814911", "lon": -95.4044175, "heading": 119, "speed": 0.12200000882148743, "roll": "0.076885022223"}
{"pitch": "-0.0222752355039", "lat": 29.7132684, "timestamp": 1603395199.387664, "alt": 21.28, "yaw": "2.08903288841", "lon": -95.4044171, "heading": 119, "speed": 0.22700001299381256, "roll": "0.0590028613806"}
{"pitch": "-0.00344675406814", "lat": 29.7132684, "timestamp": 1603395199.528166, "alt": 21.28, "yaw": "2.0901722908", "lon": -95.4044171, "heading": 119, "speed": 0.22700001299381256, "roll": "0.0621701590717"}
{"pitch": "0.0164768248796", "lat": 29.7132677, "timestamp": 1603395199.888815, "alt": 21.32, "yaw": "2.08473110199", "lon": -95.4044164, "heading": 119, "speed": 0.20800000429153442, "roll": "0.0629814639688"}
{"pitch": "0.0164768248796", "lat": 29.7132677, "timestamp": 1603395200.029361, "alt": 21.32, "yaw": "2.08473110199", "lon": -95.4044164, "heading": 119, "speed": 0.26200002431869507, "roll": "0.0629814639688"}
{"pitch": "0.00637421803549", "lat": 29.7132675, "timestamp": 1603395200.390074, "alt": 21.33, "yaw": "2.07047700882", "lon": -95.4044163, "heading": 118, "speed": 0.26600000262260437, "roll": "0.0542194694281"}
{"pitch": "0.00637421803549", "lat": 29.7132674, "timestamp": 1603395200.530671, "alt": 21.33, "yaw": "2.07047700882", "lon": -95.4044163, "heading": 118, "speed": 0.20900000631809235, "roll": "0.0542194694281"}
{"pitch": "-0.00662402948365", "lat": 29.7132674, "timestamp": 1603395200.891247, "alt": 21.33, "yaw": "2.07506942749", "lon": -95.4044163, "heading": 118, "speed": 0.19500000774860382, "roll": "0.072663448751"}
{"pitch": "-0.00662402948365", "lat": 29.7132673, "timestamp": 1603395201.031864, "alt": 21.33, "yaw": "2.07506942749", "lon": -95.4044163, "heading": 118, "speed": 0.19500000774860382, "roll": "0.072663448751"}
{"pitch": "-0.00412472803146", "lat": 29.7132673, "timestamp": 1603395201.392352, "alt": 21.34, "yaw": "2.07894706726", "lon": -95.4044163, "heading": 119, "speed": 0.20200000703334808, "roll": "0.0682660266757"}
{"pitch": "-0.00936398375779", "lat": 29.7132672, "timestamp": 1603395201.5331, "alt": 21.35, "yaw": "2.08675765991", "lon": -95.4044165, "heading": 119, "speed": 0.20200000703334808, "roll": "0.0661185979843"}
{"pitch": "-0.00313180778176", "lat": 29.713267, "timestamp": 1603395201.893446, "alt": 21.34, "yaw": "2.08944964409", "lon": -95.4044167, "heading": 119, "speed": 0.22600001096725464, "roll": "0.0610412396491"}
{"pitch": "-0.00313180778176", "lat": 29.713267, "timestamp": 1603395202.034257, "alt": 21.34, "yaw": "2.08944964409", "lon": -95.4044167, "heading": 119, "speed": 0.2980000078678131, "roll": "0.0610412396491"}
{"pitch": "-0.0043734642677", "lat": 29.7132667, "timestamp": 1603395202.394118, "alt": 21.34, "yaw": "2.08511352539", "lon": -95.404417, "heading": 119, "speed": 0.19600000977516174, "roll": "0.0457618571818"}
{"pitch": "-0.0043734642677", "lat": 29.7132667, "timestamp": 1603395202.535353, "alt": 21.34, "yaw": "2.08511352539", "lon": -95.404417, "heading": 119, "speed": 0.242000013589859, "roll": "0.0457618571818"}
{"pitch": "-0.00435233488679", "lat": 29.7132666, "timestamp": 1603395202.895332, "alt": 21.34, "yaw": "2.08596396446", "lon": -95.4044172, "heading": 119, "speed": 0.22700001299381256, "roll": "0.0553212910891"}
{"pitch": "-0.00861602835357", "lat": 29.7132666, "timestamp": 1603395203.036576, "alt": 21.33, "yaw": "2.0812048912", "lon": -95.4044174, "heading": 119, "speed": 0.22700001299381256, "roll": "0.0585254728794"}
{"pitch": "-0.0110614970326", "lat": 29.7132664, "timestamp": 1603395203.396489, "alt": 21.34, "yaw": "2.07355570793", "lon": -95.4044176, "heading": 118, "speed": 0.25200000405311584, "roll": "0.0485863499343"}
{"pitch": "-0.0024212053977", "lat": 29.7132662, "timestamp": 1603395203.53797, "alt": 21.35, "yaw": "2.07074356079", "lon": -95.4044177, "heading": 118, "speed": 0.2970000207424164, "roll": "0.0392779558897"}
{"pitch": "0.00847418233752", "lat": 29.7132659, "timestamp": 1603395203.897606, "alt": 21.35, "yaw": "2.06890106201", "lon": -95.4044178, "heading": 118, "speed": 0.3270000219345093, "roll": "0.0255226772279"}
{"pitch": "0.00847418233752", "lat": 29.7132657, "timestamp": 1603395204.039151, "alt": 21.36, "yaw": "2.06890106201", "lon": -95.4044179, "heading": 118, "speed": 0.2930000126361847, "roll": "0.0255226772279"}
{"pitch": "-0.00471581891179", "lat": 29.7132657, "timestamp": 1603395204.399228, "alt": 21.36, "yaw": "2.07010197639", "lon": -95.4044179, "heading": 118, "speed": 0.2880000174045563, "roll": "0.0239147506654"}
{"pitch": "0.00102181313559", "lat": 29.7132657, "timestamp": 1603395204.5403, "alt": 21.36, "yaw": "2.08176660538", "lon": -95.4044179, "heading": 119, "speed": 0.31300002336502075, "roll": "0.0381472893059"}
{"pitch": "0.0189826767892", "lat": 29.7132659, "timestamp": 1603395204.904385, "alt": 21.37, "yaw": "2.08915495872", "lon": -95.4044179, "heading": 119, "speed": 0.289000004529953, "roll": "0.036806859076"}
{"pitch": "0.0150569994003", "lat": 29.7132661, "timestamp": 1603395205.041415, "alt": 21.36, "yaw": "2.09109210968", "lon": -95.404418, "heading": 119, "speed": 0.289000004529953, "roll": "0.0476362667978"}
{"pitch": "-0.0016556950286", "lat": 29.7132664, "timestamp": 1603395205.40552, "alt": 21.35, "yaw": "2.09440898895", "lon": -95.4044181, "heading": 120, "speed": 0.25300002098083496, "roll": "0.0426996648312"}
{"pitch": "-0.0151620768011", "lat": 29.7132669, "timestamp": 1603395205.542547, "alt": 21.35, "yaw": "2.09315562248", "lon": -95.4044182, "heading": 120, "speed": 0.25300002098083496, "roll": "0.0497151687741"}
{"pitch": "-0.0297526232898", "lat": 29.7132675, "timestamp": 1603395205.906715, "alt": 21.35, "yaw": "2.08518075943", "lon": -95.4044183, "heading": 119, "speed": 0.2930000126361847, "roll": "0.0685359612107"}
{"pitch": "-0.0297526232898", "lat": 29.7132678, "timestamp": 1603395206.043674, "alt": 21.35, "yaw": "2.08518075943", "lon": -95.4044181, "heading": 119, "speed": 0.25300002098083496, "roll": "0.0685359612107"}
{"pitch": "-0.00657490454614", "lat": 29.7132679, "timestamp": 1603395206.407944, "alt": 21.35, "yaw": "2.09498548508", "lon": -95.4044179, "heading": 119, "speed": 0.2710000276565552, "roll": "0.072352796793"}
{"pitch": "-0.00657490454614", "lat": 29.7132678, "timestamp": 1603395206.545149, "alt": 21.35, "yaw": "2.09498548508", "lon": -95.4044177, "heading": 120, "speed": 0.30100002884864807, "roll": "0.072352796793"}
{"pitch": "0.00640049343929", "lat": 29.7132676, "timestamp": 1603395206.909191, "alt": 21.37, "yaw": "2.10445022583", "lon": -95.4044175, "heading": 120, "speed": 0.30000001192092896, "roll": "0.0470792613924"}
{"pitch": "0.00640049343929", "lat": 29.7132676, "timestamp": 1603395207.046519, "alt": 21.37, "yaw": "2.10445022583", "lon": -95.4044175, "heading": 120, "speed": 0.25699999928474426, "roll": "0.0470792613924"}
{"pitch": "0.00609384430572", "lat": 29.7132674, "timestamp": 1603395207.410295, "alt": 21.37, "yaw": "2.0995259285", "lon": -95.4044171, "heading": 120, "speed": 0.16600000858306885, "roll": "0.0481677800417"}
{"pitch": "0.00234111724421", "lat": 29.7132674, "timestamp": 1603395207.54804, "alt": 21.37, "yaw": "2.09760046005", "lon": -95.4044171, "heading": 120, "speed": 0.16600000858306885, "roll": "0.0451140925288"}
{"pitch": "-0.0036250918638", "lat": 29.7132672, "timestamp": 1603395207.91141, "alt": 21.37, "yaw": "2.09800386429", "lon": -95.4044167, "heading": 120, "speed": 0.07200000435113907, "roll": "0.0492625460029"}
{"pitch": "-0.00469744671136", "lat": 29.7132672, "timestamp": 1603395208.0492, "alt": 21.37, "yaw": "2.0961253643", "lon": -95.4044167, "heading": 120, "speed": 0.07200000435113907, "roll": "0.0464986748993"}
{"pitch": "-0.000542640686035", "lat": 29.7132671, "timestamp": 1603395208.41289, "alt": 21.37, "yaw": "2.09688138962", "lon": -95.4044165, "heading": 120, "speed": 0.04700000211596489, "roll": "0.0406909100711"}
{"pitch": "-0.000542640686035", "lat": 29.713267, "timestamp": 1603395208.550345, "alt": 21.37, "yaw": "2.09688138962", "lon": -95.4044162, "heading": 120, "speed": 0.04700000211596489, "roll": "0.0406909100711"}
{"pitch": "-0.00295252795331", "lat": 29.7132669, "timestamp": 1603395208.914107, "alt": 21.37, "yaw": "2.08649921417", "lon": -95.404416, "heading": 119, "speed": 0.05000000074505806, "roll": "0.0405248589814"}
{"pitch": "-0.00295252795331", "lat": 29.7132669, "timestamp": 1603395209.051452, "alt": 21.37, "yaw": "2.08649921417", "lon": -95.4044159, "heading": 119, "speed": 0.05000000074505806, "roll": "0.0405248589814"}
{"pitch": "-0.00272459420376", "lat": 29.7132669, "timestamp": 1603395209.415329, "alt": 21.37, "yaw": "2.0682156086", "lon": -95.4044159, "heading": 118, "speed": 0.0560000017285347, "roll": "0.0400702208281"}
{"pitch": "-0.0101870726794", "lat": 29.7132669, "timestamp": 1603395209.552559, "alt": 21.37, "yaw": "2.06978845596", "lon": -95.4044159, "heading": 118, "speed": 0.0650000050663948, "roll": "0.0407218560576"}
{"pitch": "-0.0187835190445", "lat": 29.7132668, "timestamp": 1603395209.918945, "alt": 21.37, "yaw": "2.07649374008", "lon": -95.4044158, "heading": 118, "speed": 0.1080000028014183, "roll": "0.0463736020029"}
{"pitch": "-0.0250535998493", "lat": 29.7132668, "timestamp": 1603395210.053685, "alt": 21.37, "yaw": "2.0846452713", "lon": -95.4044158, "heading": 119, "speed": 0.08700000494718552, "roll": "0.0395465791225"}
{"pitch": "-0.00585407949984", "lat": 29.7132666, "timestamp": 1603395210.420031, "alt": 21.36, "yaw": "2.09332704544", "lon": -95.4044156, "heading": 119, "speed": 0.11700000613927841, "roll": "0.0289635863155"}
{"pitch": "-0.00585407949984", "lat": 29.7132666, "timestamp": 1603395210.555121, "alt": 21.36, "yaw": "2.09332704544", "lon": -95.4044156, "heading": 120, "speed": 0.09200000762939453, "roll": "0.0289635863155"}
{"pitch": "-0.00194971263409", "lat": 29.7132666, "timestamp": 1603395210.92121, "alt": 21.35, "yaw": "2.10646867752", "lon": -95.4044155, "heading": 120, "speed": 0.11400000751018524, "roll": "0.0305256471038"}
{"pitch": "-0.00194971263409", "lat": 29.7132667, "timestamp": 1603395211.056112, "alt": 21.36, "yaw": "2.10646867752", "lon": -95.4044155, "heading": 120, "speed": 0.11400000751018524, "roll": "0.0305256471038"}
{"pitch": "0.00573073094711", "lat": 29.7132667, "timestamp": 1603395211.422762, "alt": 21.37, "yaw": "2.12952280045", "lon": -95.4044156, "heading": 122, "speed": 0.18800000846385956, "roll": "0.0620231553912"}
{"pitch": "-0.00193555234", "lat": 29.7132665, "timestamp": 1603395211.556802, "alt": 21.38, "yaw": "2.13582420349", "lon": -95.404416, "heading": 122, "speed": 0.18800000846385956, "roll": "0.0412593670189"}
{"pitch": "-0.0139724444598", "lat": 29.7132662, "timestamp": 1603395211.923945, "alt": 21.38, "yaw": "2.11868000031", "lon": -95.4044166, "heading": 121, "speed": 0.2590000033378601, "roll": "0.0155750745907"}
{"pitch": "-0.0139724444598", "lat": 29.7132662, "timestamp": 1603395212.057949, "alt": 21.38, "yaw": "2.11868000031", "lon": -95.4044166, "heading": 119, "speed": 0.24800001084804535, "roll": "0.0155750745907"}
{"pitch": "-0.0258035548031", "lat": 29.7132658, "timestamp": 1603395212.425201, "alt": 21.38, "yaw": "2.07044816017", "lon": -95.4044172, "heading": 118, "speed": 0.16700001060962677, "roll": "-0.0141041902825"}
{"pitch": "-0.0258035548031", "lat": 29.7132658, "timestamp": 1603395212.559163, "alt": 21.38, "yaw": "2.07044816017", "lon": -95.4044172, "heading": 118, "speed": 0.16700001060962677, "roll": "-0.0141041902825"}
{"pitch": "-0.0152298044413", "lat": 29.7132659, "timestamp": 1603395212.926427, "alt": 21.38, "yaw": "2.056828022", "lon": -95.4044168, "heading": 117, "speed": 0.06400000303983688, "roll": "0.015195406042"}
{"pitch": "-0.0152298044413", "lat": 29.7132659, "timestamp": 1603395213.060639, "alt": 21.38, "yaw": "2.056828022", "lon": -95.4044168, "heading": 117, "speed": 0.06400000303983688, "roll": "0.015195406042"}
{"pitch": "0.0106870252639", "lat": 29.7132661, "timestamp": 1603395213.427663, "alt": 21.38, "yaw": "2.07669830322", "lon": -95.404416, "heading": 118, "speed": 0.03200000151991844, "roll": "0.00909602176398"}
{"pitch": "0.0254187043756", "lat": 29.7132661, "timestamp": 1603395213.561737, "alt": 21.38, "yaw": "2.1030523777", "lon": -95.404416, "heading": 120, "speed": 0.05100000277161598, "roll": "0.0247655510902"}
{"pitch": "0.025243787095", "lat": 29.7132663, "timestamp": 1603395213.928933, "alt": 21.37, "yaw": "2.11998724937", "lon": -95.4044159, "heading": 121, "speed": 0.12600000202655792, "roll": "0.0181029569358"}
{"pitch": "-0.0163971558213", "lat": 29.7132667, "timestamp": 1603395214.06291, "alt": 21.38, "yaw": "2.12308883667", "lon": -95.4044161, "heading": 121, "speed": 0.2290000170469284, "roll": "0.0132002653554"}
{"pitch": "-0.0336643010378", "lat": 29.7132672, "timestamp": 1603395214.430058, "alt": 21.39, "yaw": "2.12187957764", "lon": -95.4044164, "heading": 121, "speed": 0.242000013589859, "roll": "0.00724480580539"}
{"pitch": "-0.0336643010378", "lat": 29.7132672, "timestamp": 1603395214.564399, "alt": 21.39, "yaw": "2.12187957764", "lon": -95.4044164, "heading": 121, "speed": 0.242000013589859, "roll": "0.00724480580539"}
{"pitch": "-0.0230801999569", "lat": 29.7132681, "timestamp": 1603395214.933807, "alt": 21.4, "yaw": "2.14893484116", "lon": -95.4044165, "heading": 123, "speed": 0.17800000309944153, "roll": "0.0315282680094"}
{"pitch": "-0.0230801999569", "lat": 29.7132681, "timestamp": 1603395215.066074, "alt": 21.4, "yaw": "2.14893484116", "lon": -95.4044165, "heading": 123, "speed": 0.17800000309944153, "roll": "0.0315282680094"}
{"pitch": "-0.0157516356558", "lat": 29.7132688, "timestamp": 1603395215.434994, "alt": 21.43, "yaw": "2.1548936367", "lon": -95.4044169, "heading": 123, "speed": 0.15300001204013824, "roll": "0.0370939336717"}
{"pitch": "-0.0195101629943", "lat": 29.7132688, "timestamp": 1603395215.567182, "alt": 21.43, "yaw": "2.13847255707", "lon": -95.4044169, "heading": 122, "speed": 0.17800000309944153, "roll": "0.0385248661041"}
{"pitch": "-0.059121735394", "lat": 29.7132691, "timestamp": 1603395215.936126, "alt": 21.44, "yaw": "2.10224461555", "lon": -95.4044178, "heading": 121, "speed": 0.18200001120567322, "roll": "0.0174710527062"}
{"pitch": "-0.059121735394", "lat": 29.7132691, "timestamp": 1603395216.068315, "alt": 21.44, "yaw": "2.10224461555", "lon": -95.4044178, "heading": 120, "speed": 0.16600000858306885, "roll": "0.0174710527062"}
{"pitch": "-0.0639284327626", "lat": 29.7132691, "timestamp": 1603395216.437237, "alt": 21.44, "yaw": "2.09977912903", "lon": -95.4044181, "heading": 120, "speed": 0.0690000057220459, "roll": "0.0103365955874"}
{"pitch": "-0.0594890862703", "lat": 29.713269, "timestamp": 1603395216.569483, "alt": 21.43, "yaw": "2.10919761658", "lon": -95.4044181, "heading": 120, "speed": 0.055000003427267075, "roll": "0.00190610496793"}
{"pitch": "-0.0278280079365", "lat": 29.7132688, "timestamp": 1603395216.93833, "alt": 21.43, "yaw": "2.12322592735", "lon": -95.4044177, "heading": 121, "speed": 0.19500000774860382, "roll": "0.0132598690689"}
{"pitch": "-0.0173446480185", "lat": 29.7132686, "timestamp": 1603395217.071023, "alt": 21.42, "yaw": "2.12380647659", "lon": -95.4044173, "heading": 121, "speed": 0.19500000774860382, "roll": "0.0256623458117"}
{"pitch": "-0.0123437456787", "lat": 29.7132684, "timestamp": 1603395217.439434, "alt": 21.42, "yaw": "2.11012601852", "lon": -95.4044168, "heading": 120, "speed": 0.2200000137090683, "roll": "0.0314910076559"}
{"pitch": "-0.0123437456787", "lat": 29.7132684, "timestamp": 1603395217.572488, "alt": 21.42, "yaw": "2.11012601852", "lon": -95.4044168, "heading": 120, "speed": 0.2200000137090683, "roll": "0.0314910076559"}
{"pitch": "-0.0100777596235", "lat": 29.7132679, "timestamp": 1603395217.940575, "alt": 21.4, "yaw": "2.09017086029", "lon": -95.4044163, "heading": 119, "speed": 0.19700001180171967, "roll": "0.010560406372"}
{"pitch": "-0.0100777596235", "lat": 29.7132679, "timestamp": 1603395218.073976, "alt": 21.4, "yaw": "2.09017086029", "lon": -95.4044163, "heading": 119, "speed": 0.19700001180171967, "roll": "0.010560406372"}
{"pitch": "-0.012426065281", "lat": 29.7132677, "timestamp": 1603395218.441634, "alt": 21.39, "yaw": "2.09096479416", "lon": -95.4044159, "heading": 119, "speed": 0.1680000126361847, "roll": "0.0124905491248"}
{"pitch": "-0.0149419382215", "lat": 29.7132676, "timestamp": 1603395218.574944, "alt": 21.38, "yaw": "2.09276866913", "lon": -95.4044156, "heading": 119, "speed": 0.203000009059906, "roll": "0.00962051656097"}
{"pitch": "-0.00632160203531", "lat": 29.7132675, "timestamp": 1603395218.942754, "alt": 21.38, "yaw": "2.09877347946", "lon": -95.404415, "heading": 120, "speed": 0.20100000500679016, "roll": "0.0254836939275"}
{"pitch": "0.0115512553602", "lat": 29.7132675, "timestamp": 1603395219.075645, "alt": 21.37, "yaw": "2.1049990654", "lon": -95.4044144, "heading": 120, "speed": 0.20100000500679016, "roll": "0.0372715368867"}
{"pitch": "0.0194758567959", "lat": 29.7132674, "timestamp": 1603395219.443927, "alt": 21.38, "yaw": "2.10469055176", "lon": -95.4044139, "heading": 120, "speed": 0.24700000882148743, "roll": "0.03737962991"}
{"pitch": "0.0194758567959", "lat": 29.7132674, "timestamp": 1603395219.576864, "alt": 21.38, "yaw": "2.10469055176", "lon": -95.4044139, "heading": 120, "speed": 0.15300001204013824, "roll": "0.03737962991"}
{"pitch": "0.0172339230776", "lat": 29.713267, "timestamp": 1603395219.965197, "alt": 21.37, "yaw": "2.12411165237", "lon": -95.4044134, "heading": 121, "speed": 0.0990000069141388, "roll": "0.0470341965556"}
{"pitch": "0.0172339230776", "lat": 29.713267, "timestamp": 1603395220.078011, "alt": 21.37, "yaw": "2.12411165237", "lon": -95.4044134, "heading": 122, "speed": 0.11400000751018524, "roll": "0.0470341965556"}
{"pitch": "0.0221435595304", "lat": 29.7132664, "timestamp": 1603395220.466289, "alt": 21.38, "yaw": "2.12241244316", "lon": -95.4044137, "heading": 122, "speed": 0.09000000357627869, "roll": "0.0151142291725"}
{"pitch": "0.0221435595304", "lat": 29.7132664, "timestamp": 1603395220.579056, "alt": 21.38, "yaw": "2.12241244316", "lon": -95.4044137, "heading": 120, "speed": 0.11400000751018524, "roll": "0.0151142291725"}
{"pitch": "0.0060804807581", "lat": 29.7132663, "timestamp": 1603395220.967524, "alt": 21.39, "yaw": "2.08789348602", "lon": -95.4044142, "heading": 119, "speed": 0.203000009059906, "roll": "0.00230788183399"}
{"pitch": "-0.0179033055902", "lat": 29.7132663, "timestamp": 1603395221.080132, "alt": 21.39, "yaw": "2.06769895554", "lon": -95.4044146, "heading": 119, "speed": 0.203000009059906, "roll": "0.00200032489374"}
{"pitch": "-0.0258994605392", "lat": 29.7132665, "timestamp": 1603395221.469076, "alt": 21.39, "yaw": "2.06667613983", "lon": -95.4044148, "heading": 118, "speed": 0.17800000309944153, "roll": "0.0179437156767"}
{"pitch": "-0.0258994605392", "lat": 29.7132667, "timestamp": 1603395221.581302, "alt": 21.39, "yaw": "2.06667613983", "lon": -95.4044147, "heading": 118, "speed": 0.17800000309944153, "roll": "0.0179437156767"}
{"pitch": "0.0131303705275", "lat": 29.7132669, "timestamp": 1603395221.970119, "alt": 21.39, "yaw": "2.07325363159", "lon": -95.4044145, "heading": 118, "speed": 0.1300000101327896, "roll": "0.0335944518447"}
{"pitch": "0.0131303705275", "lat": 29.713267, "timestamp": 1603395222.082816, "alt": 21.39, "yaw": "2.07325363159", "lon": -95.4044142, "heading": 118, "speed": 0.11000000685453415, "roll": "0.0335944518447"}
{"pitch": "0.0288337077945", "lat": 29.7132673, "timestamp": 1603395222.471119, "alt": 21.39, "yaw": "2.09706258774", "lon": -95.4044141, "heading": 119, "speed": 0.19500000774860382, "roll": "0.026227299124"}
{"pitch": "0.0288337077945", "lat": 29.7132676, "timestamp": 1603395222.584353, "alt": 21.39, "yaw": "2.09706258774", "lon": -95.404414, "heading": 120, "speed": 0.2070000171661377, "roll": "0.026227299124"}
{"pitch": "-0.00640953006223", "lat": 29.7132681, "timestamp": 1603395222.97195, "alt": 21.38, "yaw": "2.09662675858", "lon": -95.4044141, "heading": 120, "speed": 0.22800001502037048, "roll": "0.0321158878505"}
{"pitch": "-0.0120896967128", "lat": 29.7132681, "timestamp": 1603395223.085839, "alt": 21.38, "yaw": "2.09195899963", "lon": -95.4044141, "heading": 120, "speed": 0.22800001502037048, "roll": "0.0516583099961"}
{"pitch": "-0.00240584625863", "lat": 29.7132686, "timestamp": 1603395223.472946, "alt": 21.37, "yaw": "2.09371519089", "lon": -95.404414, "heading": 120, "speed": 0.164000004529953, "roll": "0.0506433658302"}
{"pitch": "-0.000562699045986", "lat": 29.7132689, "timestamp": 1603395223.586959, "alt": 21.35, "yaw": "2.10027980804", "lon": -95.4044139, "heading": 120, "speed": 0.164000004529953, "roll": "0.069572031498"}
{"pitch": "-0.00555175775662", "lat": 29.7132691, "timestamp": 1603395223.974144, "alt": 21.35, "yaw": "2.10095024109", "lon": -95.4044138, "heading": 120, "speed": 0.1940000057220459, "roll": "0.0583681501448"}
{"pitch": "-0.00555175775662", "lat": 29.7132691, "timestamp": 1603395224.088045, "alt": 21.35, "yaw": "2.10095024109", "lon": -95.4044139, "heading": 120, "speed": 0.1940000057220459, "roll": "0.0583681501448"}
{"pitch": "-0.000257893465459", "lat": 29.7132691, "timestamp": 1603395224.475588, "alt": 21.34, "yaw": "2.09228491783", "lon": -95.4044139, "heading": 119, "speed": 0.1850000023841858, "roll": "0.0599414855242"}
{"pitch": "-0.000257893465459", "lat": 29.7132691, "timestamp": 1603395224.589158, "alt": 21.32, "yaw": "2.09228491783", "lon": -95.4044139, "heading": 119, "speed": 0.0950000062584877, "roll": "0.0599414855242"}
{"pitch": "0.013010295108", "lat": 29.7132689, "timestamp": 1603395225.002039, "alt": 21.31, "yaw": "2.09025764465", "lon": -95.4044139, "heading": 119, "speed": 0.2760000228881836, "roll": "0.0500242523849"}
{"pitch": "0.0149187147617", "lat": 29.7132689, "timestamp": 1603395225.090426, "alt": 21.31, "yaw": "2.08104038239", "lon": -95.4044139, "heading": 119, "speed": 0.2760000228881836, "roll": "0.0380086004734"}
{"pitch": "0.0168031938374", "lat": 29.7132687, "timestamp": 1603395225.503543, "alt": 21.3, "yaw": "2.08196043968", "lon": -95.4044142, "heading": 119, "speed": 0.23500001430511475, "roll": "0.036170348525"}
{"pitch": "0.0168031938374", "lat": 29.7132687, "timestamp": 1603395225.591669, "alt": 21.3, "yaw": "2.08196043968", "lon": -95.4044142, "heading": 119, "speed": 0.23500001430511475, "roll": "0.036170348525"}
{"pitch": "0.0015696072951", "lat": 29.7132687, "timestamp": 1603395226.004929, "alt": 21.25, "yaw": "2.07146787643", "lon": -95.4044146, "heading": 118, "speed": 0.2370000183582306, "roll": "0.0326593481004"}
{"pitch": "0.0015696072951", "lat": 29.7132687, "timestamp": 1603395226.092815, "alt": 21.25, "yaw": "2.07146787643", "lon": -95.4044146, "heading": 118, "speed": 0.26500001549720764, "roll": "0.0326593481004"}
{"pitch": "0.013791475445", "lat": 29.7132686, "timestamp": 1603395226.50619, "alt": 21.19, "yaw": "2.06989240646", "lon": -95.4044149, "heading": 118, "speed": 0.2290000170469284, "roll": "0.0395894907415"}
{"pitch": "0.013791475445", "lat": 29.7132686, "timestamp": 1603395226.593964, "alt": 21.19, "yaw": "2.06989240646", "lon": -95.4044149, "heading": 119, "speed": 0.2110000103712082, "roll": "0.0395894907415"}
{"pitch": "0.0201578568667", "lat": 29.7132682, "timestamp": 1603395227.007217, "alt": 21.12, "yaw": "2.09978461266", "lon": -95.4044154, "heading": 120, "speed": 0.32100000977516174, "roll": "0.0482864566147"}
{"pitch": "0.0201578568667", "lat": 29.7132682, "timestamp": 1603395227.110298, "alt": 21.12, "yaw": "2.09978461266", "lon": -95.4044154, "heading": 120, "speed": 0.32100000977516174, "roll": "0.0482864566147"}
{"pitch": "0.000466863624752", "lat": 29.713268, "timestamp": 1603395227.508629, "alt": 21.1, "yaw": "2.12121868134", "lon": -95.404416, "heading": 121, "speed": 0.4220000207424164, "roll": "0.0110752563924"}
{"pitch": "0.000466863624752", "lat": 29.713268, "timestamp": 1603395227.611443, "alt": 21.1, "yaw": "2.12121868134", "lon": -95.404416, "heading": 121, "speed": 0.4220000207424164, "roll": "0.0110752563924"}
{"pitch": "-0.0138163026422", "lat": 29.7132675, "timestamp": 1603395228.010036, "alt": 21.03, "yaw": "2.10964441299", "lon": -95.4044171, "heading": 120, "speed": 0.30000001192092896, "roll": "0.0292919948697"}
{"pitch": "-0.0138163026422", "lat": 29.7132675, "timestamp": 1603395228.11259, "alt": 21.03, "yaw": "2.10964441299", "lon": -95.4044171, "heading": 120, "speed": 0.30000001192092896, "roll": "0.0292919948697"}
{"pitch": "-0.0245542153716", "lat": 29.713267, "timestamp": 1603395228.511446, "alt": 20.96, "yaw": "2.09897661209", "lon": -95.4044179, "heading": 120, "speed": 0.2760000228881836, "roll": "0.0468716621399"}
{"pitch": "-0.0245542153716", "lat": 29.713267, "timestamp": 1603395228.613321, "alt": 20.96, "yaw": "2.09897661209", "lon": -95.4044179, "heading": 119, "speed": 0.3320000171661377, "roll": "0.0468716621399"}
{"pitch": "-0.00841793138534", "lat": 29.7132658, "timestamp": 1603395229.012585, "alt": 20.92, "yaw": "2.10071229935", "lon": -95.4044182, "heading": 120, "speed": 0.32100000977516174, "roll": "0.00958794914186"}
{"pitch": "-0.00841793138534", "lat": 29.7132658, "timestamp": 1603395229.114343, "alt": 20.92, "yaw": "2.10071229935", "lon": -95.4044182, "heading": 120, "speed": 0.32100000977516174, "roll": "0.00958794914186"}
{"pitch": "0.0304881874472", "lat": 29.7132652, "timestamp": 1603395229.513726, "alt": 20.9, "yaw": "2.11135578156", "lon": -95.4044183, "heading": 120, "speed": 0.22300000488758087, "roll": "-0.0182573217899"}
{"pitch": "0.0304881874472", "lat": 29.713265, "timestamp": 1603395229.615909, "alt": 20.88, "yaw": "2.11135578156", "lon": -95.4044184, "heading": 120, "speed": 0.22300000488758087, "roll": "-0.0182573217899"}
{"pitch": "0.0154133234173", "lat": 29.713265, "timestamp": 1603395230.032234, "alt": 20.88, "yaw": "2.0981323719", "lon": -95.4044186, "heading": 120, "speed": 0.19600000977516174, "roll": "-0.000648788409308"}
