{"pitch": "0.00264174491167", "lat": 29.7132899, "timestamp": 1603388281.340394, "alt": 9.38, "yaw": "-0.604440808296", "lon": -95.4046209, "heading": 325, "speed": 0.013000000268220901, "roll": "-0.00284295901656"}
{"pitch": "0.00264174491167", "lat": 29.7132899, "timestamp": 1603388281.846948, "alt": 9.38, "yaw": "-0.604440808296", "lon": -95.4046209, "heading": 325, "speed": 0.013000000268220901, "roll": "-0.00284295901656"}
{"pitch": "0.00282175466418", "lat": 29.7132907, "timestamp": 1603388282.34878, "alt": 9.34, "yaw": "-0.604487299919", "lon": -95.4046219, "heading": 325, "speed": 0.03500000014901161, "roll": "-0.00292320549488"}
{"pitch": "0.00280897319317", "lat": 29.713291, "timestamp": 1603388282.84994, "alt": 9.32, "yaw": "-0.604362785816", "lon": -95.4046224, "heading": 325, "speed": 0.046000003814697266, "roll": "-0.00294733047485"}
{"pitch": "0.0029400922358", "lat": 29.7132914, "timestamp": 1603388283.351362, "alt": 9.31, "yaw": "-0.604313254356", "lon": -95.4046229, "heading": 325, "speed": 0.009000000543892384, "roll": "-0.00300175324082"}
{"pitch": "0.00320926681161", "lat": 29.7132917, "timestamp": 1603388283.85256, "alt": 9.31, "yaw": "-0.604298055172", "lon": -95.4046233, "heading": 325, "speed": 0.0020000000949949026, "roll": "-0.00294147059321"}
{"pitch": "0.00339672714472", "lat": 29.7132922, "timestamp": 1603388284.353719, "alt": 9.3, "yaw": "-0.60437476635", "lon": -95.4046238, "heading": 325, "speed": 0.029000001028180122, "roll": "-0.00290679186583"}
{"pitch": "0.00364214926958", "lat": 29.7132924, "timestamp": 1603388284.855383, "alt": 9.28, "yaw": "-0.604314565659", "lon": -95.4046242, "heading": 325, "speed": 0.01100000087171793, "roll": "-0.00285525247455"}
{"pitch": "0.00372457876801", "lat": 29.7132927, "timestamp": 1603388285.357644, "alt": 9.28, "yaw": "-0.604152441025", "lon": -95.4046246, "heading": 325, "speed": 0.02500000037252903, "roll": "-0.0028372630477"}
{"pitch": "0.00405555218458", "lat": 29.7132929, "timestamp": 1603388285.858916, "alt": 9.27, "yaw": "-0.604050159454", "lon": -95.4046249, "heading": 325, "speed": 0.015000000596046448, "roll": "-0.00274063274264"}
{"pitch": "0.00420152768493", "lat": 29.713293, "timestamp": 1603388286.360049, "alt": 9.28, "yaw": "-0.604012072086", "lon": -95.4046251, "heading": 325, "speed": 0.014000000432133675, "roll": "-0.00286189839244"}
{"pitch": "0.00427401810884", "lat": 29.7132932, "timestamp": 1603388286.861193, "alt": 9.29, "yaw": "-0.603925645351", "lon": -95.4046254, "heading": 325, "speed": 0.014000000432133675, "roll": "-0.00284038111567"}
{"pitch": "0.0042971111834", "lat": 29.7132934, "timestamp": 1603388287.3624, "alt": 9.3, "yaw": "-0.60387390852", "lon": -95.4046257, "heading": 325, "speed": 0.023000001907348633, "roll": "-0.00270526111126"}
{"pitch": "0.00420012325048", "lat": 29.7132937, "timestamp": 1603388287.863553, "alt": 9.31, "yaw": "-0.603947877884", "lon": -95.4046261, "heading": 325, "speed": 0.018000001087784767, "roll": "-0.00257285311818"}
{"pitch": "0.0042462721467", "lat": 29.7132939, "timestamp": 1603388288.364686, "alt": 9.31, "yaw": "-0.603983283043", "lon": -95.4046264, "heading": 325, "speed": 0.020000001415610313, "roll": "-0.0025321058929"}
{"pitch": "0.00424483418465", "lat": 29.7132941, "timestamp": 1603388288.865793, "alt": 9.32, "yaw": "-0.604009032249", "lon": -95.4046268, "heading": 325, "speed": 0.021000001579523087, "roll": "-0.00244248658419"}
{"pitch": "0.00411856174469", "lat": 29.7132943, "timestamp": 1603388289.36881, "alt": 9.34, "yaw": "-0.604007601738", "lon": -95.4046272, "heading": 325, "speed": 0.04400000348687172, "roll": "-0.00248123332858"}
{"pitch": "0.00406343489885", "lat": 29.7132945, "timestamp": 1603388289.871283, "alt": 9.35, "yaw": "-0.604079067707", "lon": -95.4046278, "heading": 325, "speed": 0.021000001579523087, "roll": "-0.00259225815535"}
{"pitch": "0.00390590727329", "lat": 29.7132948, "timestamp": 1603388290.373095, "alt": 9.34, "yaw": "-0.604043066502", "lon": -95.4046284, "heading": 325, "speed": 0.046000003814697266, "roll": "-0.00279246270657"}
{"pitch": "0.00372333824635", "lat": 29.713295, "timestamp": 1603388290.87456, "alt": 9.36, "yaw": "-0.604226410389", "lon": -95.4046289, "heading": 325, "speed": 0.02500000037252903, "roll": "-0.00294740870595"}
{"pitch": "0.00367316231132", "lat": 29.7132952, "timestamp": 1603388291.37584, "alt": 9.39, "yaw": "-0.604294359684", "lon": -95.4046292, "heading": 325, "speed": 0.006000000052154064, "roll": "-0.00283539295197"}
{"pitch": "0.00400598719716", "lat": 29.7132952, "timestamp": 1603388291.877077, "alt": 9.41, "yaw": "-0.604204893112", "lon": -95.4046295, "heading": 325, "speed": 0.005000000353902578, "roll": "-0.00285042449832"}
{"pitch": "0.00400128960609", "lat": 29.7132952, "timestamp": 1603388292.378293, "alt": 9.4, "yaw": "-0.604092717171", "lon": -95.4046299, "heading": 325, "speed": 0.014000000432133675, "roll": "-0.0028773508966"}
{"pitch": "0.00374452024698", "lat": 29.7132952, "timestamp": 1603388292.879409, "alt": 9.39, "yaw": "-0.603945195675", "lon": -95.4046303, "heading": 325, "speed": 0.055000003427267075, "roll": "-0.00315254181623"}
{"pitch": "0.00362054631114", "lat": 29.7132952, "timestamp": 1603388293.380548, "alt": 9.38, "yaw": "-0.603831529617", "lon": -95.4046307, "heading": 325, "speed": 0.029000001028180122, "roll": "-0.00332251563668"}
{"pitch": "0.00374112650752", "lat": 29.7132951, "timestamp": 1603388293.881422, "alt": 9.38, "yaw": "-0.603693842888", "lon": -95.4046311, "heading": 325, "speed": 0.017000000923871994, "roll": "-0.00335218012333"}
{"pitch": "0.00406521931291", "lat": 29.7132951, "timestamp": 1603388294.382602, "alt": 9.39, "yaw": "-0.603619933128", "lon": -95.4046314, "heading": 325, "speed": 0.017000000923871994, "roll": "-0.00327581912279"}
{"pitch": "0.00340288877487", "lat": 29.7132951, "timestamp": 1603388294.883707, "alt": 9.39, "yaw": "-0.603858649731", "lon": -95.4046317, "heading": 325, "speed": 0.01900000125169754, "roll": "-0.00317533314228"}
{"pitch": "0.00328628346324", "lat": 29.7132951, "timestamp": 1603388295.384794, "alt": 9.41, "yaw": "-0.604013681412", "lon": -95.404632, "heading": 325, "speed": 0.02200000174343586, "roll": "-0.00300190597773"}
{"pitch": "0.00320305675268", "lat": 29.713295, "timestamp": 1603388295.888654, "alt": 9.42, "yaw": "-0.60407602787", "lon": -95.4046322, "heading": 325, "speed": 0.023000001907348633, "roll": "-0.00293760746717"}
{"pitch": "0.00348152965307", "lat": 29.713295, "timestamp": 1603388296.389553, "alt": 9.45, "yaw": "-0.603941321373", "lon": -95.4046324, "heading": 325, "speed": 0.02200000174343586, "roll": "-0.00281108170748"}
{"pitch": "0.00363335385919", "lat": 29.713295, "timestamp": 1603388296.890732, "alt": 9.49, "yaw": "-0.604047775269", "lon": -95.4046325, "heading": 325, "speed": 0.02500000037252903, "roll": "-0.00265200808644"}
{"pitch": "0.00351754203439", "lat": 29.713295, "timestamp": 1603388297.391837, "alt": 9.49, "yaw": "-0.604125022888", "lon": -95.4046326, "heading": 325, "speed": 0.01100000087171793, "roll": "-0.00264471769333"}
{"pitch": "0.00346330553293", "lat": 29.713295, "timestamp": 1603388297.892994, "alt": 9.5, "yaw": "-0.604107379913", "lon": -95.4046326, "heading": 325, "speed": 0.00800000037997961, "roll": "-0.00255526974797"}
{"pitch": "0.00340112671256", "lat": 29.7132949, "timestamp": 1603388298.395224, "alt": 9.49, "yaw": "-0.604128241539", "lon": -95.4046326, "heading": 325, "speed": 0.006000000052154064, "roll": "-0.0023799687624"}
{"pitch": "0.00338054820895", "lat": 29.7132949, "timestamp": 1603388298.897541, "alt": 9.48, "yaw": "-0.604128718376", "lon": -95.4046325, "heading": 325, "speed": 0.020000001415610313, "roll": "-0.00218072533607"}
{"pitch": "0.00333206728101", "lat": 29.7132947, "timestamp": 1603388299.398805, "alt": 9.44, "yaw": "-0.603943109512", "lon": -95.4046323, "heading": 325, "speed": 0.014000000432133675, "roll": "-0.00230210274458"}
{"pitch": "0.00318943336606", "lat": 29.7132946, "timestamp": 1603388299.901953, "alt": 9.43, "yaw": "-0.603778243065", "lon": -95.4046321, "heading": 325, "speed": 0.00800000037997961, "roll": "-0.00238328427076"}
{"pitch": "0.00317933037877", "lat": 29.7132945, "timestamp": 1603388300.403965, "alt": 9.42, "yaw": "-0.60370606184", "lon": -95.404632, "heading": 325, "speed": 0.015000000596046448, "roll": "-0.00235762819648"}
{"pitch": "0.00324570387602", "lat": 29.7132943, "timestamp": 1603388300.905148, "alt": 9.42, "yaw": "-0.603428602219", "lon": -95.4046319, "heading": 325, "speed": 0.03100000135600567, "roll": "-0.0023995526135"}
{"pitch": "0.00307941809297", "lat": 29.7132941, "timestamp": 1603388301.406341, "alt": 9.43, "yaw": "-0.603384017944", "lon": -95.4046318, "heading": 325, "speed": 0.039000000804662704, "roll": "-0.00232680514455"}
{"pitch": "0.00279513001442", "lat": 29.713294, "timestamp": 1603388301.907482, "alt": 9.42, "yaw": "-0.603294432163", "lon": -95.4046318, "heading": 325, "speed": 0.03400000184774399, "roll": "-0.00254081562161"}
{"pitch": "0.00262342020869", "lat": 29.7132938, "timestamp": 1603388302.408593, "alt": 9.39, "yaw": "-0.603274464607", "lon": -95.4046318, "heading": 325, "speed": 0.014000000432133675, "roll": "-0.00283065438271"}
{"pitch": "0.00278791412711", "lat": 29.7132934, "timestamp": 1603388302.909699, "alt": 9.34, "yaw": "-0.603154480457", "lon": -95.4046319, "heading": 325, "speed": 0.005000000353902578, "roll": "-0.00292286649346"}
{"pitch": "0.00270911678672", "lat": 29.7132931, "timestamp": 1603388303.410791, "alt": 9.32, "yaw": "-0.602956056595", "lon": -95.4046319, "heading": 325, "speed": 0.030000001192092896, "roll": "-0.00322855636477"}
{"pitch": "0.00248458236456", "lat": 29.7132928, "timestamp": 1603388303.911928, "alt": 9.29, "yaw": "-0.602924287319", "lon": -95.404632, "heading": 325, "speed": 0.014000000432133675, "roll": "-0.00322337821126"}
{"pitch": "0.00241630896926", "lat": 29.7132925, "timestamp": 1603388304.413914, "alt": 9.29, "yaw": "-0.602984666824", "lon": -95.4046322, "heading": 325, "speed": 0.027000000700354576, "roll": "-0.00331632047892"}
{"pitch": "0.0023863054812", "lat": 29.7132921, "timestamp": 1603388304.916315, "alt": 9.32, "yaw": "-0.603079736233", "lon": -95.4046324, "heading": 325, "speed": 0.03800000250339508, "roll": "-0.00326674431562"}
{"pitch": "0.00223645567894", "lat": 29.7132919, "timestamp": 1603388305.417459, "alt": 9.37, "yaw": "-0.603050291538", "lon": -95.4046327, "heading": 325, "speed": 0.01900000125169754, "roll": "-0.00316182523966"}
{"pitch": "0.00210930407047", "lat": 29.7132914, "timestamp": 1603388305.918594, "alt": 9.46, "yaw": "-0.602892398834", "lon": -95.404633, "heading": 325, "speed": 0.03500000014901161, "roll": "-0.00317737832665"}
{"pitch": "0.0021975710988", "lat": 29.7132912, "timestamp": 1603388306.42053, "alt": 9.49, "yaw": "-0.60282933712", "lon": -95.4046331, "heading": 325, "speed": 0.03400000184774399, "roll": "-0.00306240841746"}
{"pitch": "0.00215492025018", "lat": 29.713291, "timestamp": 1603388306.921729, "alt": 9.55, "yaw": "-0.602802097797", "lon": -95.4046332, "heading": 325, "speed": 0.014000000432133675, "roll": "-0.00290651246905"}
{"pitch": "0.00212473794818", "lat": 29.7132906, "timestamp": 1603388307.422623, "alt": 9.63, "yaw": "-0.60289311409", "lon": -95.4046335, "heading": 325, "speed": 0.03400000184774399, "roll": "-0.00266200304031"}
{"pitch": "0.00189445912838", "lat": 29.7132905, "timestamp": 1603388307.923761, "alt": 9.64, "yaw": "-0.602987885475", "lon": -95.4046336, "heading": 325, "speed": 0.027000000700354576, "roll": "-0.00247674062848"}
{"pitch": "0.00185451284051", "lat": 29.7132904, "timestamp": 1603388308.424924, "alt": 9.65, "yaw": "-0.602897047997", "lon": -95.4046339, "heading": 325, "speed": 0.024000000208616257, "roll": "-0.00235748291016"}
{"pitch": "0.0017115585506", "lat": 29.7132905, "timestamp": 1603388308.926094, "alt": 9.64, "yaw": "-0.602834641933", "lon": -95.4046341, "heading": 325, "speed": 0.01600000075995922, "roll": "-0.00222289934754"}
{"pitch": "0.00135996937752", "lat": 29.7132905, "timestamp": 1603388309.427015, "alt": 9.62, "yaw": "-0.602902173996", "lon": -95.4046344, "heading": 325, "speed": 0.02500000037252903, "roll": "-0.00212726742029"}
{"pitch": "0.00139033794403", "lat": 29.7132906, "timestamp": 1603388309.928167, "alt": 9.58, "yaw": "-0.602908432484", "lon": -95.4046347, "heading": 325, "speed": 0.01600000075995922, "roll": "-0.00223711133003"}
{"pitch": "0.0012166723609", "lat": 29.7132908, "timestamp": 1603388310.429416, "alt": 9.55, "yaw": "-0.602757573128", "lon": -95.404635, "heading": 325, "speed": 0.01100000087171793, "roll": "-0.00237713381648"}
{"pitch": "0.00131504610181", "lat": 29.713291, "timestamp": 1603388310.930549, "alt": 9.53, "yaw": "-0.602766990662", "lon": -95.4046353, "heading": 325, "speed": 0.030000001192092896, "roll": "-0.0022550188005"}
{"pitch": "0.00129307433963", "lat": 29.7132913, "timestamp": 1603388311.431784, "alt": 9.49, "yaw": "-0.602682948112", "lon": -95.4046356, "heading": 325, "speed": 0.026000000536441803, "roll": "-0.00211081653833"}
{"pitch": "0.00130999833345", "lat": 29.7132916, "timestamp": 1603388311.932967, "alt": 9.43, "yaw": "-0.602652907372", "lon": -95.4046359, "heading": 325, "speed": 0.02500000037252903, "roll": "-0.00221214443445"}
{"pitch": "0.00121214613318", "lat": 29.7132919, "timestamp": 1603388312.434132, "alt": 9.37, "yaw": "-0.60266071558", "lon": -95.4046363, "heading": 325, "speed": 0.029000001028180122, "roll": "-0.00214533135295"}
{"pitch": "0.00109031796455", "lat": 29.7132924, "timestamp": 1603388312.935311, "alt": 9.29, "yaw": "-0.602624714375", "lon": -95.4046368, "heading": 325, "speed": 0.020000001415610313, "roll": "-0.00203409418464"}
{"pitch": "0.0012198984623", "lat": 29.7132927, "timestamp": 1603388313.436487, "alt": 9.2, "yaw": "-0.60260283947", "lon": -95.4046371, "heading": 325, "speed": 0.017000000923871994, "roll": "-0.00209876522422"}
{"pitch": "0.00157542154193", "lat": 29.713293, "timestamp": 1603388313.937638, "alt": 9.12, "yaw": "-0.602666318417", "lon": -95.4046374, "heading": 325, "speed": 0.03200000151991844, "roll": "-0.00202030315995"}
{"pitch": "0.00182611495256", "lat": 29.7132935, "timestamp": 1603388314.438773, "alt": 9.06, "yaw": "-0.602772712708", "lon": -95.4046378, "heading": 325, "speed": 0.020000001415610313, "roll": "-0.00204728171229"}
{"pitch": "0.00192578881979", "lat": 29.7132937, "timestamp": 1603388314.941024, "alt": 9.08, "yaw": "-0.602717280388", "lon": -95.4046381, "heading": 325, "speed": 0.02800000086426735, "roll": "-0.00210904702544"}
{"pitch": "0.00224427133799", "lat": 29.7132938, "timestamp": 1603388315.445184, "alt": 9.12, "yaw": "-0.602632641792", "lon": -95.4046383, "heading": 325, "speed": 0.029000001028180122, "roll": "-0.00217553600669"}
{"pitch": "0.00230694934726", "lat": 29.713294, "timestamp": 1603388315.946373, "alt": 9.16, "yaw": "-0.602563917637", "lon": -95.4046385, "heading": 325, "speed": 0.04500000178813934, "roll": "-0.00231600180268"}
{"pitch": "0.00263097509742", "lat": 29.7132941, "timestamp": 1603388316.447624, "alt": 9.17, "yaw": "-0.602511167526", "lon": -95.4046389, "heading": 325, "speed": 0.020000001415610313, "roll": "-0.00251880288124"}
{"pitch": "0.00227067992091", "lat": 29.7132941, "timestamp": 1603388316.948784, "alt": 9.13, "yaw": "-0.602339088917", "lon": -95.4046392, "heading": 325, "speed": 0.012000000104308128, "roll": "-0.00262548774481"}
{"pitch": "0.00273395329714", "lat": 29.7132941, "timestamp": 1603388317.449877, "alt": 9.05, "yaw": "-0.602215588093", "lon": -95.4046394, "heading": 325, "speed": 0.013000000268220901, "roll": "-0.00273005664349"}
{"pitch": "0.00307143479586", "lat": 29.7132941, "timestamp": 1603388317.95176, "alt": 9.01, "yaw": "-0.602026700974", "lon": -95.4046396, "heading": 325, "speed": 0.012000000104308128, "roll": "-0.00276472792029"}
{"pitch": "0.00292936339974", "lat": 29.7132941, "timestamp": 1603388318.453077, "alt": 9.0, "yaw": "-0.602074980736", "lon": -95.4046397, "heading": 325, "speed": 0.03200000151991844, "roll": "-0.00266337767243"}
{"pitch": "0.00294987484813", "lat": 29.713294, "timestamp": 1603388318.955865, "alt": 9.02, "yaw": "-0.602076053619", "lon": -95.4046398, "heading": 325, "speed": 0.018000001087784767, "roll": "-0.0027123875916"}
{"pitch": "0.003213185817", "lat": 29.7132939, "timestamp": 1603388319.458249, "alt": 9.03, "yaw": "-0.602192819118", "lon": -95.4046399, "heading": 325, "speed": 0.020000001415610313, "roll": "-0.00274014100432"}
{"pitch": "0.00288086384535", "lat": 29.7132939, "timestamp": 1603388319.959482, "alt": 9.04, "yaw": "-0.602261006832", "lon": -95.4046399, "heading": 325, "speed": 0.013000000268220901, "roll": "-0.00256168097258"}
{"pitch": "0.003283187747", "lat": 29.7132938, "timestamp": 1603388320.4641, "alt": 9.03, "yaw": "-0.601957798004", "lon": -95.4046398, "heading": 325, "speed": 0.02800000086426735, "roll": "-0.0023987069726"}
{"pitch": "0.00316191092134", "lat": 29.7132937, "timestamp": 1603388320.968192, "alt": 9.06, "yaw": "-0.601789236069", "lon": -95.4046397, "heading": 325, "speed": 0.017000000923871994, "roll": "-0.0023702532053"}
{"pitch": "0.00319457799196", "lat": 29.7132937, "timestamp": 1603388321.46899, "alt": 9.11, "yaw": "-0.601969122887", "lon": -95.4046396, "heading": 325, "speed": 0.006000000052154064, "roll": "-0.00220843404531"}
{"pitch": "0.00311060249805", "lat": 29.7132938, "timestamp": 1603388321.970191, "alt": 9.13, "yaw": "-0.602002084255", "lon": -95.4046397, "heading": 325, "speed": 0.0430000014603138, "roll": "-0.00229242816567"}
{"pitch": "0.00301807746291", "lat": 29.7132939, "timestamp": 1603388322.471737, "alt": 9.16, "yaw": "-0.601749897003", "lon": -95.4046399, "heading": 325, "speed": 0.049000002443790436, "roll": "-0.00241355970502"}
{"pitch": "0.00302965193987", "lat": 29.713294, "timestamp": 1603388322.973935, "alt": 9.19, "yaw": "-0.601767420769", "lon": -95.40464, "heading": 325, "speed": 0.0010000000474974513, "roll": "-0.00245051458478"}
{"pitch": "0.00290393456817", "lat": 29.7132941, "timestamp": 1603388323.475276, "alt": 9.21, "yaw": "-0.601759016514", "lon": -95.4046399, "heading": 325, "speed": 0.007000000216066837, "roll": "-0.00243093818426"}
{"pitch": "0.00286857411265", "lat": 29.7132942, "timestamp": 1603388323.976425, "alt": 9.22, "yaw": "-0.601730883121", "lon": -95.4046399, "heading": 325, "speed": 0.010000000707805157, "roll": "-0.00222508609295"}
{"pitch": "0.00266060978174", "lat": 29.7132943, "timestamp": 1603388324.477569, "alt": 9.24, "yaw": "-0.601633608341", "lon": -95.4046399, "heading": 325, "speed": 0.023000001907348633, "roll": "-0.00223870575428"}
{"pitch": "0.00254632160068", "lat": 29.7132944, "timestamp": 1603388324.978666, "alt": 9.28, "yaw": "-0.601683497429", "lon": -95.4046399, "heading": 325, "speed": 0.009000000543892384, "roll": "-0.00225383788347"}
{"pitch": "0.0023684091866", "lat": 29.7132945, "timestamp": 1603388325.479853, "alt": 9.31, "yaw": "-0.601488173008", "lon": -95.4046399, "heading": 325, "speed": 0.00800000037997961, "roll": "-0.00226075202227"}
{"pitch": "0.00248790159822", "lat": 29.7132947, "timestamp": 1603388325.981552, "alt": 9.34, "yaw": "-0.601354777813", "lon": -95.4046399, "heading": 325, "speed": 0.023000001907348633, "roll": "-0.00227242708206"}
{"pitch": "0.00241861864924", "lat": 29.7132949, "timestamp": 1603388326.482673, "alt": 9.37, "yaw": "-0.601328372955", "lon": -95.40464, "heading": 325, "speed": 0.03400000184774399, "roll": "-0.00246831402183"}
{"pitch": "0.00245605781674", "lat": 29.7132951, "timestamp": 1603388326.983783, "alt": 9.4, "yaw": "-0.601360678673", "lon": -95.40464, "heading": 325, "speed": 0.004000000189989805, "roll": "-0.00258642807603"}
{"pitch": "0.00231432169676", "lat": 29.7132952, "timestamp": 1603388327.484939, "alt": 9.43, "yaw": "-0.601218938828", "lon": -95.40464, "heading": 325, "speed": 0.02500000037252903, "roll": "-0.00265962257981"}
{"pitch": "0.00243933871388", "lat": 29.7132953, "timestamp": 1603388327.9862, "alt": 9.45, "yaw": "-0.601199030876", "lon": -95.4046401, "heading": 325, "speed": 0.032999999821186066, "roll": "-0.00274273380637"}
{"pitch": "0.00260051712394", "lat": 29.7132954, "timestamp": 1603388328.487409, "alt": 9.47, "yaw": "-0.601192057133", "lon": -95.4046402, "heading": 325, "speed": 0.05100000277161598, "roll": "-0.00282559543848"}
{"pitch": "0.00246926024556", "lat": 29.7132955, "timestamp": 1603388328.988571, "alt": 9.49, "yaw": "-0.601037025452", "lon": -95.4046403, "heading": 325, "speed": 0.030000001192092896, "roll": "-0.00284736230969"}
{"pitch": "0.00241478905082", "lat": 29.7132955, "timestamp": 1603388329.492421, "alt": 9.49, "yaw": "-0.601036667824", "lon": -95.4046403, "heading": 325, "speed": 0.012000000104308128, "roll": "-0.0029447004199"}
{"pitch": "0.00237939879298", "lat": 29.7132956, "timestamp": 1603388329.995133, "alt": 9.47, "yaw": "-0.600848197937", "lon": -95.4046404, "heading": 325, "speed": 0.014000000432133675, "roll": "-0.00287636369467"}
{"pitch": "0.00239117071033", "lat": 29.7132956, "timestamp": 1603388330.496471, "alt": 9.45, "yaw": "-0.600597560406", "lon": -95.4046403, "heading": 325, "speed": 0.015000000596046448, "roll": "-0.00278600677848"}
{"pitch": "0.0024993494153", "lat": 29.7132956, "timestamp": 1603388330.998726, "alt": 9.45, "yaw": "-0.600599884987", "lon": -95.4046403, "heading": 325, "speed": 0.01600000075995922, "roll": "-0.00275015458465"}
{"pitch": "0.00234806910157", "lat": 29.7132956, "timestamp": 1603388331.499813, "alt": 9.45, "yaw": "-0.600508570671", "lon": -95.4046403, "heading": 325, "speed": 0.030000001192092896, "roll": "-0.00265577435493"}
{"pitch": "0.00241595879197", "lat": 29.7132955, "timestamp": 1603388332.000924, "alt": 9.46, "yaw": "-0.600333452225", "lon": -95.4046402, "heading": 325, "speed": 0.046000003814697266, "roll": "-0.00253865122795"}
{"pitch": "0.00248821824789", "lat": 29.7132954, "timestamp": 1603388332.502054, "alt": 9.46, "yaw": "-0.600165724754", "lon": -95.4046401, "heading": 325, "speed": 0.023000001907348633, "roll": "-0.0023575797677"}
{"pitch": "0.00250553712249", "lat": 29.7132952, "timestamp": 1603388333.00319, "alt": 9.46, "yaw": "-0.600038230419", "lon": -95.40464, "heading": 325, "speed": 0.006000000052154064, "roll": "-0.00245333462954"}
{"pitch": "0.00260335206985", "lat": 29.713295, "timestamp": 1603388333.50431, "alt": 9.49, "yaw": "-0.599855601788", "lon": -95.4046398, "heading": 325, "speed": 0.04200000315904617, "roll": "-0.00242252647877"}
{"pitch": "0.00278907269239", "lat": 29.7132946, "timestamp": 1603388334.005425, "alt": 9.54, "yaw": "-0.599853277206", "lon": -95.4046398, "heading": 325, "speed": 0.03500000014901161, "roll": "-0.00239654257894"}
{"pitch": "0.00277185812593", "lat": 29.7132943, "timestamp": 1603388334.506538, "alt": 9.61, "yaw": "-0.59986191988", "lon": -95.4046397, "heading": 325, "speed": 0.006000000052154064, "roll": "-0.00241598859429"}
{"pitch": "0.00269626826048", "lat": 29.7132939, "timestamp": 1603388335.007645, "alt": 9.69, "yaw": "-0.599937081337", "lon": -95.4046396, "heading": 325, "speed": 0.03400000184774399, "roll": "-0.00244041904807"}
{"pitch": "0.00264650210738", "lat": 29.7132935, "timestamp": 1603388335.50874, "alt": 9.76, "yaw": "-0.599919259548", "lon": -95.4046397, "heading": 325, "speed": 0.01100000087171793, "roll": "-0.00246316194534"}
{"pitch": "0.00253539904952", "lat": 29.7132932, "timestamp": 1603388336.009855, "alt": 9.8, "yaw": "-0.600030481815", "lon": -95.4046397, "heading": 325, "speed": 0.026000000536441803, "roll": "-0.00245779007673"}
{"pitch": "0.00239415466785", "lat": 29.7132928, "timestamp": 1603388336.51102, "alt": 9.82, "yaw": "-0.59997355938", "lon": -95.4046398, "heading": 325, "speed": 0.046000003814697266, "roll": "-0.00236666947603"}
{"pitch": "0.00245057791471", "lat": 29.7132922, "timestamp": 1603388337.012218, "alt": 9.86, "yaw": "-0.600034892559", "lon": -95.4046399, "heading": 325, "speed": 0.015000000596046448, "roll": "-0.00233267620206"}
{"pitch": "0.00228935852647", "lat": 29.713292, "timestamp": 1603388337.51346, "alt": 9.87, "yaw": "-0.600037455559", "lon": -95.40464, "heading": 325, "speed": 0.03700000047683716, "roll": "-0.00242986902595"}
{"pitch": "0.00224704667926", "lat": 29.7132913, "timestamp": 1603388338.014604, "alt": 9.89, "yaw": "-0.599854707718", "lon": -95.4046403, "heading": 325, "speed": 0.005000000353902578, "roll": "-0.00240276008844"}
{"pitch": "0.00216339528561", "lat": 29.7132909, "timestamp": 1603388338.515738, "alt": 9.91, "yaw": "-0.599864959717", "lon": -95.4046405, "heading": 325, "speed": 0.018000001087784767, "roll": "-0.00247912853956"}
{"pitch": "0.00222294405103", "lat": 29.7132903, "timestamp": 1603388339.017074, "alt": 9.91, "yaw": "-0.599851310253", "lon": -95.4046406, "heading": 325, "speed": 0.01100000087171793, "roll": "-0.00246963277459"}
{"pitch": "0.00216323509812", "lat": 29.7132898, "timestamp": 1603388339.518381, "alt": 9.92, "yaw": "-0.599855422974", "lon": -95.4046406, "heading": 325, "speed": 0.012000000104308128, "roll": "-0.0024085380137"}
{"pitch": "0.00201693177223", "lat": 29.7132894, "timestamp": 1603388340.020214, "alt": 9.92, "yaw": "-0.599786400795", "lon": -95.4046408, "heading": 325, "speed": 0.009000000543892384, "roll": "-0.00238355621696"}
{"pitch": "0.00187324360013", "lat": 29.713289, "timestamp": 1603388340.521341, "alt": 9.92, "yaw": "-0.599734783173", "lon": -95.4046409, "heading": 325, "speed": 0.05400000140070915, "roll": "-0.00223464518785"}
{"pitch": "0.0019128061831", "lat": 29.7132885, "timestamp": 1603388341.022469, "alt": 9.93, "yaw": "-0.599758028984", "lon": -95.4046409, "heading": 325, "speed": 0.010000000707805157, "roll": "-0.00207632407546"}
{"pitch": "0.00188369303942", "lat": 29.7132881, "timestamp": 1603388341.523579, "alt": 9.94, "yaw": "-0.599891960621", "lon": -95.4046409, "heading": 325, "speed": 0.014000000432133675, "roll": "-0.00207610800862"}
{"pitch": "0.00190030038357", "lat": 29.7132878, "timestamp": 1603388342.024676, "alt": 9.94, "yaw": "-0.59993571043", "lon": -95.4046408, "heading": 325, "speed": 0.004000000189989805, "roll": "-0.00198841840029"}
{"pitch": "0.00187972933054", "lat": 29.7132875, "timestamp": 1603388342.525838, "alt": 9.93, "yaw": "-0.59988629818", "lon": -95.4046407, "heading": 325, "speed": 0.0020000000949949026, "roll": "-0.00202606990933"}
{"pitch": "0.00178921222687", "lat": 29.7132872, "timestamp": 1603388343.027034, "alt": 9.91, "yaw": "-0.599718868732", "lon": -95.4046406, "heading": 325, "speed": 0.004000000189989805, "roll": "-0.00194547325373"}
{"pitch": "0.00183612108231", "lat": 29.7132869, "timestamp": 1603388343.528165, "alt": 9.88, "yaw": "-0.599619686604", "lon": -95.4046405, "heading": 325, "speed": 0.04800000041723251, "roll": "-0.00185857713223"}
{"pitch": "0.00188109278679", "lat": 29.7132865, "timestamp": 1603388344.029345, "alt": 9.85, "yaw": "-0.599460721016", "lon": -95.4046404, "heading": 325, "speed": 0.039000000804662704, "roll": "-0.00180954486132"}
{"pitch": "0.00192420557141", "lat": 29.7132863, "timestamp": 1603388344.53054, "alt": 9.83, "yaw": "-0.599416673183", "lon": -95.4046401, "heading": 325, "speed": 0.04500000178813934, "roll": "-0.0016706250608"}
{"pitch": "0.00186100229621", "lat": 29.713286, "timestamp": 1603388345.03167, "alt": 9.81, "yaw": "-0.599419414997", "lon": -95.4046398, "heading": 325, "speed": 0.032999999821186066, "roll": "-0.00147894769907"}
{"pitch": "0.00179102271795", "lat": 29.7132859, "timestamp": 1603388345.53379, "alt": 9.79, "yaw": "-0.599294424057", "lon": -95.4046397, "heading": 325, "speed": 0.02500000037252903, "roll": "-0.0014567784965"}
{"pitch": "0.00165829062462", "lat": 29.7132858, "timestamp": 1603388346.03605, "alt": 9.76, "yaw": "-0.599224567413", "lon": -95.4046396, "heading": 325, "speed": 0.02200000174343586, "roll": "-0.00160925835371"}
{"pitch": "0.0015677511692", "lat": 29.7132857, "timestamp": 1603388346.537297, "alt": 9.75, "yaw": "-0.59913611412", "lon": -95.4046396, "heading": 325, "speed": 0.018000001087784767, "roll": "-0.00163511186838"}
{"pitch": "0.0014944858849", "lat": 29.7132857, "timestamp": 1603388347.038464, "alt": 9.75, "yaw": "-0.599125266075", "lon": -95.4046397, "heading": 325, "speed": 0.0430000014603138, "roll": "-0.00178707763553"}
{"pitch": "0.00155900046229", "lat": 29.7132857, "timestamp": 1603388347.539637, "alt": 9.75, "yaw": "-0.599260270596", "lon": -95.4046397, "heading": 325, "speed": 0.02200000174343586, "roll": "-0.00199350714684"}
{"pitch": "0.00161030143499", "lat": 29.7132857, "timestamp": 1603388348.040738, "alt": 9.75, "yaw": "-0.59914714098", "lon": -95.4046399, "heading": 325, "speed": 0.03200000151991844, "roll": "-0.00213736668229"}
{"pitch": "0.00154885277152", "lat": 29.7132857, "timestamp": 1603388348.543353, "alt": 9.74, "yaw": "-0.599167823792", "lon": -95.4046401, "heading": 325, "speed": 0.03200000151991844, "roll": "-0.00248287245631"}
{"pitch": "0.00165385380387", "lat": 29.7132858, "timestamp": 1603388349.044682, "alt": 9.74, "yaw": "-0.599332988262", "lon": -95.4046403, "heading": 325, "speed": 0.03500000014901161, "roll": "-0.00274083763361"}
{"pitch": "0.00167931988835", "lat": 29.7132859, "timestamp": 1603388349.545791, "alt": 9.73, "yaw": "-0.599342882633", "lon": -95.4046406, "heading": 325, "speed": 0.017000000923871994, "roll": "-0.00271480157971"}
{"pitch": "0.00163358449936", "lat": 29.7132861, "timestamp": 1603388350.046945, "alt": 9.72, "yaw": "-0.599309027195", "lon": -95.4046408, "heading": 325, "speed": 0.003000000026077032, "roll": "-0.00271700695157"}
{"pitch": "0.00171280279756", "lat": 29.7132863, "timestamp": 1603388350.54812, "alt": 9.74, "yaw": "-0.599337875843", "lon": -95.4046409, "heading": 325, "speed": 0.01100000087171793, "roll": "-0.00260381400585"}
{"pitch": "0.00177288427949", "lat": 29.7132865, "timestamp": 1603388351.049213, "alt": 9.74, "yaw": "-0.59932911396", "lon": -95.4046411, "heading": 325, "speed": 0.017000000923871994, "roll": "-0.00270676612854"}
{"pitch": "0.0018194578588", "lat": 29.7132867, "timestamp": 1603388351.550472, "alt": 9.74, "yaw": "-0.599405765533", "lon": -95.4046413, "heading": 325, "speed": 0.021000001579523087, "roll": "-0.0026838183403"}
{"pitch": "0.0018582008779", "lat": 29.7132869, "timestamp": 1603388352.051661, "alt": 9.74, "yaw": "-0.599403679371", "lon": -95.4046414, "heading": 325, "speed": 0.021000001579523087, "roll": "-0.00264934450388"}
{"pitch": "0.00189470872283", "lat": 29.7132871, "timestamp": 1603388352.553014, "alt": 9.76, "yaw": "-0.599269151688", "lon": -95.4046414, "heading": 325, "speed": 0.01100000087171793, "roll": "-0.00256289169192"}
{"pitch": "0.00193947926164", "lat": 29.7132874, "timestamp": 1603388353.054248, "alt": 9.76, "yaw": "-0.599318742752", "lon": -95.4046414, "heading": 325, "speed": 0.02800000086426735, "roll": "-0.00249966233969"}
{"pitch": "0.00212317332625", "lat": 29.7132875, "timestamp": 1603388353.555443, "alt": 9.75, "yaw": "-0.599250614643", "lon": -95.4046413, "heading": 325, "speed": 0.05000000074505806, "roll": "-0.00254950299859"}
{"pitch": "0.00228308513761", "lat": 29.7132877, "timestamp": 1603388354.056652, "alt": 9.75, "yaw": "-0.599314749241", "lon": -95.4046412, "heading": 325, "speed": 0.00800000037997961, "roll": "-0.00246652960777"}
{"pitch": "0.0024750046432", "lat": 29.7132879, "timestamp": 1603388354.557781, "alt": 9.74, "yaw": "-0.599305808544", "lon": -95.404641, "heading": 325, "speed": 0.03400000184774399, "roll": "-0.00234083458781"}
{"pitch": "0.00264654681087", "lat": 29.7132879, "timestamp": 1603388355.058954, "alt": 9.72, "yaw": "-0.599340498447", "lon": -95.4046407, "heading": 325, "speed": 0.01600000075995922, "roll": "-0.00242811441422"}
{"pitch": "0.00271502882242", "lat": 29.7132879, "timestamp": 1603388355.560113, "alt": 9.69, "yaw": "-0.599340796471", "lon": -95.4046403, "heading": 325, "speed": 0.03200000151991844, "roll": "-0.00233967602253"}
{"pitch": "0.00280602276325", "lat": 29.7132879, "timestamp": 1603388356.062954, "alt": 9.66, "yaw": "-0.599440932274", "lon": -95.40464, "heading": 325, "speed": 0.02500000037252903, "roll": "-0.002396017313"}
{"pitch": "0.00288740172982", "lat": 29.713288, "timestamp": 1603388356.564885, "alt": 9.64, "yaw": "-0.59946924448", "lon": -95.4046396, "heading": 325, "speed": 0.013000000268220901, "roll": "-0.00245400890708"}
{"pitch": "0.00311145931482", "lat": 29.713288, "timestamp": 1603388357.066132, "alt": 9.62, "yaw": "-0.599414229393", "lon": -95.4046392, "heading": 325, "speed": 0.020000001415610313, "roll": "-0.00258439406753"}
{"pitch": "0.00308982655406", "lat": 29.713288, "timestamp": 1603388357.567272, "alt": 9.62, "yaw": "-0.599257707596", "lon": -95.4046387, "heading": 325, "speed": 0.03100000135600567, "roll": "-0.00241301581264"}
{"pitch": "0.0031284019351", "lat": 29.7132881, "timestamp": 1603388358.06877, "alt": 9.6, "yaw": "-0.599015116692", "lon": -95.4046382, "heading": 325, "speed": 0.039000000804662704, "roll": "-0.00246044993401"}
{"pitch": "0.00301498547196", "lat": 29.7132882, "timestamp": 1603388358.570044, "alt": 9.57, "yaw": "-0.598883986473", "lon": -95.4046377, "heading": 325, "speed": 0.007000000216066837, "roll": "-0.00258086621761"}
{"pitch": "0.0029771886766", "lat": 29.7132883, "timestamp": 1603388359.071418, "alt": 9.53, "yaw": "-0.59887111187", "lon": -95.4046372, "heading": 325, "speed": 0.02800000086426735, "roll": "-0.00272716209292"}
{"pitch": "0.00289940834045", "lat": 29.7132885, "timestamp": 1603388359.572728, "alt": 9.49, "yaw": "-0.598864555359", "lon": -95.4046367, "heading": 325, "speed": 0.020000001415610313, "roll": "-0.00278994068503"}
{"pitch": "0.00292398408055", "lat": 29.7132887, "timestamp": 1603388360.075685, "alt": 9.43, "yaw": "-0.598730742931", "lon": -95.4046362, "heading": 325, "speed": 0.018000001087784767, "roll": "-0.00277414172888"}
{"pitch": "0.00276662781835", "lat": 29.7132891, "timestamp": 1603388360.577654, "alt": 9.39, "yaw": "-0.598647475243", "lon": -95.4046356, "heading": 325, "speed": 0.017000000923871994, "roll": "-0.00281998887658"}
{"pitch": "0.00260811299086", "lat": 29.7132894, "timestamp": 1603388361.078946, "alt": 9.35, "yaw": "-0.598675310612", "lon": -95.4046353, "heading": 325, "speed": 0.03400000184774399, "roll": "-0.00288840010762"}
{"pitch": "0.00236493349075", "lat": 29.7132898, "timestamp": 1603388361.580142, "alt": 9.3, "yaw": "-0.59874522686", "lon": -95.4046349, "heading": 325, "speed": 0.027000000700354576, "roll": "-0.00310106575489"}
{"pitch": "0.00240222364664", "lat": 29.7132901, "timestamp": 1603388362.081429, "alt": 9.25, "yaw": "-0.598682045937", "lon": -95.4046346, "heading": 325, "speed": 0.01600000075995922, "roll": "-0.00323776528239"}
{"pitch": "0.00254993885756", "lat": 29.7132905, "timestamp": 1603388362.582629, "alt": 9.21, "yaw": "-0.598616600037", "lon": -95.4046343, "heading": 325, "speed": 0.02500000037252903, "roll": "-0.00326220318675"}
{"pitch": "0.00246344506741", "lat": 29.7132907, "timestamp": 1603388363.083802, "alt": 9.18, "yaw": "-0.598729968071", "lon": -95.404634, "heading": 325, "speed": 0.005000000353902578, "roll": "-0.00341740250587"}
{"pitch": "0.00246722623706", "lat": 29.7132909, "timestamp": 1603388363.584971, "alt": 9.15, "yaw": "-0.598797142506", "lon": -95.4046336, "heading": 325, "speed": 0.021000001579523087, "roll": "-0.00370310619473"}
{"pitch": "0.00242209807038", "lat": 29.7132911, "timestamp": 1603388364.086184, "alt": 9.12, "yaw": "-0.598665058613", "lon": -95.4046332, "heading": 325, "speed": 0.012000000104308128, "roll": "-0.00392094627023"}
{"pitch": "0.00258833169937", "lat": 29.7132912, "timestamp": 1603388364.587335, "alt": 9.1, "yaw": "-0.598554968834", "lon": -95.4046328, "heading": 325, "speed": 0.009000000543892384, "roll": "-0.00391601771116"}
{"pitch": "0.00285200029612", "lat": 29.7132913, "timestamp": 1603388365.088086, "alt": 9.09, "yaw": "-0.598432660103", "lon": -95.4046324, "heading": 325, "speed": 0.005000000353902578, "roll": "-0.00387609377503"}
{"pitch": "0.00274308025837", "lat": 29.7132915, "timestamp": 1603388365.589249, "alt": 9.07, "yaw": "-0.59841376543", "lon": -95.404632, "heading": 325, "speed": 0.021000001579523087, "roll": "-0.00387164205313"}
{"pitch": "0.00268517807126", "lat": 29.7132916, "timestamp": 1603388366.090374, "alt": 9.05, "yaw": "-0.598287940025", "lon": -95.4046318, "heading": 325, "speed": 0.02200000174343586, "roll": "-0.00402896106243"}
{"pitch": "0.00233419239521", "lat": 29.7132918, "timestamp": 1603388366.591553, "alt": 9.04, "yaw": "-0.598273217678", "lon": -95.4046315, "heading": 325, "speed": 0.024000000208616257, "roll": "-0.00397690758109"}
{"pitch": "0.00257499888539", "lat": 29.713292, "timestamp": 1603388367.092508, "alt": 9.01, "yaw": "-0.598040759563", "lon": -95.4046313, "heading": 325, "speed": 0.023000001907348633, "roll": "-0.0040034390986"}
{"pitch": "0.00249077007174", "lat": 29.7132922, "timestamp": 1603388367.59396, "alt": 8.99, "yaw": "-0.59792971611", "lon": -95.4046313, "heading": 325, "speed": 0.006000000052154064, "roll": "-0.00413407757878"}
{"pitch": "0.00208884105086", "lat": 29.7132924, "timestamp": 1603388368.09603, "alt": 8.94, "yaw": "-0.597900271416", "lon": -95.4046314, "heading": 325, "speed": 0.017000000923871994, "roll": "-0.00417080894113"}
{"pitch": "0.00226021185517", "lat": 29.7132928, "timestamp": 1603388368.597449, "alt": 8.9, "yaw": "-0.597907602787", "lon": -95.4046314, "heading": 325, "speed": 0.01100000087171793, "roll": "-0.00402268394828"}
{"pitch": "0.00208769366145", "lat": 29.7132931, "timestamp": 1603388369.09828, "alt": 8.89, "yaw": "-0.597909867764", "lon": -95.4046315, "heading": 325, "speed": 0.03100000135600567, "roll": "-0.00393012538552"}
{"pitch": "0.00223354995251", "lat": 29.7132934, "timestamp": 1603388369.599497, "alt": 8.87, "yaw": "-0.597780108452", "lon": -95.4046316, "heading": 325, "speed": 0.014000000432133675, "roll": "-0.00397638976574"}
{"pitch": "0.00247710943222", "lat": 29.7132937, "timestamp": 1603388370.101247, "alt": 8.85, "yaw": "-0.597776770592", "lon": -95.4046316, "heading": 325, "speed": 0.009000000543892384, "roll": "-0.00382381677628"}
{"pitch": "0.00241909921169", "lat": 29.713294, "timestamp": 1603388370.604827, "alt": 8.84, "yaw": "-0.597616493702", "lon": -95.4046317, "heading": 325, "speed": 0.021000001579523087, "roll": "-0.00374273210764"}
{"pitch": "0.00231828540564", "lat": 29.7132943, "timestamp": 1603388371.10593, "alt": 8.86, "yaw": "-0.597650706768", "lon": -95.4046318, "heading": 325, "speed": 0.006000000052154064, "roll": "-0.00364300981164"}
{"pitch": "0.00216250494123", "lat": 29.7132945, "timestamp": 1603388371.608376, "alt": 8.88, "yaw": "-0.597523987293", "lon": -95.4046319, "heading": 325, "speed": 0.01600000075995922, "roll": "-0.00356878712773"}
{"pitch": "0.00236965343356", "lat": 29.7132948, "timestamp": 1603388372.112217, "alt": 8.9, "yaw": "-0.597411990166", "lon": -95.404632, "heading": 325, "speed": 0.006000000052154064, "roll": "-0.00355714932084"}
{"pitch": "0.00196251645684", "lat": 29.7132951, "timestamp": 1603388372.614645, "alt": 8.93, "yaw": "-0.597422659397", "lon": -95.4046321, "heading": 325, "speed": 0.013000000268220901, "roll": "-0.00345549732447"}
{"pitch": "0.00219888985157", "lat": 29.7132954, "timestamp": 1603388373.115752, "alt": 8.96, "yaw": "-0.597561120987", "lon": -95.4046321, "heading": 325, "speed": 0.039000000804662704, "roll": "-0.00335947051644"}
{"pitch": "0.00239520519972", "lat": 29.7132956, "timestamp": 1603388373.616971, "alt": 8.98, "yaw": "-0.597453117371", "lon": -95.4046322, "heading": 325, "speed": 0.01900000125169754, "roll": "-0.00334705784917"}
{"pitch": "0.00243081152439", "lat": 29.7132958, "timestamp": 1603388374.117934, "alt": 8.98, "yaw": "-0.597404181957", "lon": -95.4046322, "heading": 325, "speed": 0.00800000037997961, "roll": "-0.00321865826845"}
{"pitch": "0.00242738798261", "lat": 29.7132959, "timestamp": 1603388374.619875, "alt": 9.01, "yaw": "-0.597339034081", "lon": -95.4046321, "heading": 325, "speed": 0.00800000037997961, "roll": "-0.00319566577673"}
{"pitch": "0.00249023362994", "lat": 29.7132959, "timestamp": 1603388375.121649, "alt": 9.05, "yaw": "-0.597171187401", "lon": -95.404632, "heading": 325, "speed": 0.014000000432133675, "roll": "-0.00328355655074"}
{"pitch": "0.00279201194644", "lat": 29.7132959, "timestamp": 1603388375.623093, "alt": 9.11, "yaw": "-0.597184598446", "lon": -95.4046318, "heading": 325, "speed": 0.04400000348687172, "roll": "-0.00324394181371"}
{"pitch": "0.00269896909595", "lat": 29.7132959, "timestamp": 1603388376.124127, "alt": 9.19, "yaw": "-0.597025513649", "lon": -95.4046315, "heading": 325, "speed": 0.015000000596046448, "roll": "-0.0031704492867"}
{"pitch": "0.00276927649975", "lat": 29.7132957, "timestamp": 1603388376.625259, "alt": 9.26, "yaw": "-0.596771717072", "lon": -95.4046313, "heading": 325, "speed": 0.026000000536441803, "roll": "-0.0031784363091"}
{"pitch": "0.00271419808269", "lat": 29.7132956, "timestamp": 1603388377.127393, "alt": 9.33, "yaw": "-0.596760630608", "lon": -95.4046311, "heading": 325, "speed": 0.013000000268220901, "roll": "-0.00327873602509"}
{"pitch": "0.00289092585444", "lat": 29.7132954, "timestamp": 1603388377.628809, "alt": 9.4, "yaw": "-0.596649646759", "lon": -95.404631, "heading": 325, "speed": 0.06800000369548798, "roll": "-0.00325357913971"}
{"pitch": "0.00290256366134", "lat": 29.7132951, "timestamp": 1603388378.129947, "alt": 9.47, "yaw": "-0.596572995186", "lon": -95.4046308, "heading": 325, "speed": 0.020000001415610313, "roll": "-0.00331535190344"}
{"pitch": "0.00280023366213", "lat": 29.7132949, "timestamp": 1603388378.631094, "alt": 9.53, "yaw": "-0.596544504166", "lon": -95.4046306, "heading": 325, "speed": 0.03800000250339508, "roll": "-0.00332074612379"}
{"pitch": "0.0029398240149", "lat": 29.7132946, "timestamp": 1603388379.132238, "alt": 9.61, "yaw": "-0.59663105011", "lon": -95.4046301, "heading": 325, "speed": 0.027000000700354576, "roll": "-0.00313323736191"}
{"pitch": "0.00308741629124", "lat": 29.7132943, "timestamp": 1603388379.634373, "alt": 9.67, "yaw": "-0.596544265747", "lon": -95.4046297, "heading": 325, "speed": 0.018000001087784767, "roll": "-0.00314132496715"}
{"pitch": "0.00288452208042", "lat": 29.7132941, "timestamp": 1603388380.135746, "alt": 9.72, "yaw": "-0.596628904343", "lon": -95.4046293, "heading": 325, "speed": 0.02500000037252903, "roll": "-0.0031281709671"}
{"pitch": "0.00296929478645", "lat": 29.7132939, "timestamp": 1603388380.637721, "alt": 9.78, "yaw": "-0.596509158611", "lon": -95.4046289, "heading": 325, "speed": 0.020000001415610313, "roll": "-0.00303429365158"}
{"pitch": "0.0028172954917", "lat": 29.7132937, "timestamp": 1603388381.139016, "alt": 9.84, "yaw": "-0.596522688866", "lon": -95.4046286, "heading": 325, "speed": 0.04400000348687172, "roll": "-0.0031274408102"}
{"pitch": "0.00264857709408", "lat": 29.7132935, "timestamp": 1603388381.640059, "alt": 9.9, "yaw": "-0.596429765224", "lon": -95.4046283, "heading": 325, "speed": 0.00800000037997961, "roll": "-0.00307789072394"}
{"pitch": "0.00248056277633", "lat": 29.7132934, "timestamp": 1603388382.141249, "alt": 9.93, "yaw": "-0.596332609653", "lon": -95.4046281, "heading": 325, "speed": 0.013000000268220901, "roll": "-0.00312299653888"}
{"pitch": "0.00242337957025", "lat": 29.7132932, "timestamp": 1603388382.64248, "alt": 9.95, "yaw": "-0.596179187298", "lon": -95.404628, "heading": 325, "speed": 0.03400000184774399, "roll": "-0.00324921309948"}
{"pitch": "0.00227741524577", "lat": 29.7132929, "timestamp": 1603388383.143628, "alt": 9.96, "yaw": "-0.595997333527", "lon": -95.4046277, "heading": 325, "speed": 0.029000001028180122, "roll": "-0.00330788269639"}
{"pitch": "0.00195599347353", "lat": 29.7132929, "timestamp": 1603388383.644871, "alt": 9.96, "yaw": "-0.595920860767", "lon": -95.4046276, "heading": 325, "speed": 0.009000000543892384, "roll": "-0.00354817509651"}
{"pitch": "0.00174257904291", "lat": 29.7132927, "timestamp": 1603388384.146167, "alt": 9.95, "yaw": "-0.595802247524", "lon": -95.4046274, "heading": 325, "speed": 0.04500000178813934, "roll": "-0.00361916422844"}
{"pitch": "0.00171291828156", "lat": 29.7132926, "timestamp": 1603388384.648341, "alt": 9.94, "yaw": "-0.595778882504", "lon": -95.4046272, "heading": 325, "speed": 0.00800000037997961, "roll": "-0.0035539790988"}
{"pitch": "0.00168791040778", "lat": 29.7132926, "timestamp": 1603388385.150236, "alt": 9.95, "yaw": "-0.595720410347", "lon": -95.404627, "heading": 325, "speed": 0.00800000037997961, "roll": "-0.00351570546627"}
{"pitch": "0.00159780308604", "lat": 29.7132926, "timestamp": 1603388385.651386, "alt": 9.94, "yaw": "-0.595701634884", "lon": -95.4046269, "heading": 325, "speed": 0.005000000353902578, "roll": "-0.0034507215023"}
{"pitch": "0.00161513313651", "lat": 29.7132926, "timestamp": 1603388386.152545, "alt": 9.92, "yaw": "-0.595765471458", "lon": -95.4046267, "heading": 325, "speed": 0.03100000135600567, "roll": "-0.00351731479168"}
{"pitch": "0.00168840587139", "lat": 29.7132926, "timestamp": 1603388386.653677, "alt": 9.91, "yaw": "-0.595837414265", "lon": -95.4046266, "heading": 325, "speed": 0.012000000104308128, "roll": "-0.00353429839015"}
{"pitch": "0.00152840837836", "lat": 29.7132927, "timestamp": 1603388387.154794, "alt": 9.92, "yaw": "-0.595767140388", "lon": -95.4046264, "heading": 325, "speed": 0.00800000037997961, "roll": "-0.00348919257522"}
{"pitch": "0.00170957297087", "lat": 29.7132928, "timestamp": 1603388387.656021, "alt": 9.92, "yaw": "-0.595887005329", "lon": -95.4046262, "heading": 325, "speed": 0.01600000075995922, "roll": "-0.00340759754181"}
{"pitch": "0.00160558894277", "lat": 29.7132929, "timestamp": 1603388388.157178, "alt": 9.93, "yaw": "-0.595787346363", "lon": -95.4046259, "heading": 325, "speed": 0.012000000104308128, "roll": "-0.00348065048456"}
{"pitch": "0.00147388875484", "lat": 29.7132931, "timestamp": 1603388388.658498, "alt": 9.94, "yaw": "-0.595656394958", "lon": -95.4046257, "heading": 325, "speed": 0.021000001579523087, "roll": "-0.0035898797214"}
{"pitch": "0.00176819786429", "lat": 29.7132932, "timestamp": 1603388389.15965, "alt": 9.92, "yaw": "-0.595512986183", "lon": -95.4046255, "heading": 325, "speed": 0.023000001907348633, "roll": "-0.00356490537524"}
{"pitch": "0.0019227899611", "lat": 29.7132933, "timestamp": 1603388389.660861, "alt": 9.89, "yaw": "-0.595368683338", "lon": -95.4046252, "heading": 325, "speed": 0.02800000086426735, "roll": "-0.00364606082439"}
{"pitch": "0.00176560506225", "lat": 29.7132934, "timestamp": 1603388390.162044, "alt": 9.86, "yaw": "-0.595581889153", "lon": -95.404625, "heading": 325, "speed": 0.03800000250339508, "roll": "-0.00367242097855"}
{"pitch": "0.00169758871198", "lat": 29.7132935, "timestamp": 1603388390.663244, "alt": 9.87, "yaw": "-0.595486700535", "lon": -95.4046248, "heading": 325, "speed": 0.03500000014901161, "roll": "-0.00392751023173"}
{"pitch": "0.00187197327614", "lat": 29.7132936, "timestamp": 1603388391.164528, "alt": 9.87, "yaw": "-0.595431685448", "lon": -95.4046248, "heading": 325, "speed": 0.01900000125169754, "roll": "-0.00400514528155"}
{"pitch": "0.00178791210055", "lat": 29.7132938, "timestamp": 1603388391.66687, "alt": 9.87, "yaw": "-0.595395505428", "lon": -95.4046247, "heading": 325, "speed": 0.032999999821186066, "roll": "-0.00402330979705"}
{"pitch": "0.00182493031025", "lat": 29.7132941, "timestamp": 1603388392.168911, "alt": 9.84, "yaw": "-0.595428586006", "lon": -95.4046248, "heading": 325, "speed": 0.032999999821186066, "roll": "-0.00408742949367"}
{"pitch": "0.00161015614867", "lat": 29.7132944, "timestamp": 1603388392.672575, "alt": 9.78, "yaw": "-0.595562815666", "lon": -95.404625, "heading": 325, "speed": 0.021000001579523087, "roll": "-0.00415606051683"}
{"pitch": "0.00159290060401", "lat": 29.7132947, "timestamp": 1603388393.173662, "alt": 9.71, "yaw": "-0.595346391201", "lon": -95.4046252, "heading": 325, "speed": 0.014000000432133675, "roll": "-0.00420429185033"}
{"pitch": "0.00153991580009", "lat": 29.713295, "timestamp": 1603388393.674819, "alt": 9.68, "yaw": "-0.595171749592", "lon": -95.4046254, "heading": 325, "speed": 0.02800000086426735, "roll": "-0.00428158417344"}
{"pitch": "0.00171488150954", "lat": 29.7132953, "timestamp": 1603388394.17592, "alt": 9.68, "yaw": "-0.595133602619", "lon": -95.4046256, "heading": 325, "speed": 0.030000001192092896, "roll": "-0.00423423945904"}
{"pitch": "0.00197080150247", "lat": 29.7132956, "timestamp": 1603388394.677126, "alt": 9.66, "yaw": "-0.595130741596", "lon": -95.4046257, "heading": 325, "speed": 0.02500000037252903, "roll": "-0.00408163294196"}
{"pitch": "0.00189915671945", "lat": 29.7132959, "timestamp": 1603388395.178275, "alt": 9.65, "yaw": "-0.595220208168", "lon": -95.404626, "heading": 325, "speed": 0.03700000047683716, "roll": "-0.00397949665785"}
{"pitch": "0.00201096013188", "lat": 29.7132961, "timestamp": 1603388395.679484, "alt": 9.64, "yaw": "-0.595119416714", "lon": -95.4046262, "heading": 325, "speed": 0.036000002175569534, "roll": "-0.00396216660738"}
{"pitch": "0.00179231539369", "lat": 29.7132964, "timestamp": 1603388396.180731, "alt": 9.62, "yaw": "-0.595150947571", "lon": -95.4046264, "heading": 325, "speed": 0.012000000104308128, "roll": "-0.00395147502422"}
{"pitch": "0.00166502967477", "lat": 29.7132967, "timestamp": 1603388396.681978, "alt": 9.62, "yaw": "-0.595039606094", "lon": -95.4046266, "heading": 325, "speed": 0.032999999821186066, "roll": "-0.00387158989906"}
{"pitch": "0.00196319818497", "lat": 29.713297, "timestamp": 1603388397.18341, "alt": 9.63, "yaw": "-0.595072507858", "lon": -95.4046267, "heading": 325, "speed": 0.03100000135600567, "roll": "-0.00383814796805"}
{"pitch": "0.00227459147573", "lat": 29.7132972, "timestamp": 1603388397.68559, "alt": 9.64, "yaw": "-0.594922065735", "lon": -95.4046269, "heading": 325, "speed": 0.02500000037252903, "roll": "-0.00377469882369"}
{"pitch": "0.00225393474102", "lat": 29.7132974, "timestamp": 1603388398.187501, "alt": 9.64, "yaw": "-0.594775259495", "lon": -95.404627, "heading": 325, "speed": 0.010000000707805157, "roll": "-0.00361227989197"}
{"pitch": "0.00246559455991", "lat": 29.7132978, "timestamp": 1603388398.688921, "alt": 9.66, "yaw": "-0.594665825367", "lon": -95.4046272, "heading": 325, "speed": 0.01900000125169754, "roll": "-0.00367743894458"}
{"pitch": "0.00275669246912", "lat": 29.713298, "timestamp": 1603388399.190106, "alt": 9.69, "yaw": "-0.59454447031", "lon": -95.4046274, "heading": 325, "speed": 0.020000001415610313, "roll": "-0.00367512926459"}
{"pitch": "0.00267627462745", "lat": 29.7132982, "timestamp": 1603388399.691305, "alt": 9.73, "yaw": "-0.594417452812", "lon": -95.4046277, "heading": 325, "speed": 0.02800000086426735, "roll": "-0.0036914087832"}
{"pitch": "0.00269028916955", "lat": 29.7132983, "timestamp": 1603388400.192626, "alt": 9.79, "yaw": "-0.594259738922", "lon": -95.4046279, "heading": 325, "speed": 0.02200000174343586, "roll": "-0.00371792539954"}
{"pitch": "0.00266306474805", "lat": 29.7132984, "timestamp": 1603388400.693741, "alt": 9.84, "yaw": "-0.594193041325", "lon": -95.404628, "heading": 325, "speed": 0.03400000184774399, "roll": "-0.0036686360836"}
{"pitch": "0.00266199931502", "lat": 29.7132986, "timestamp": 1603388401.194857, "alt": 9.88, "yaw": "-0.594243168831", "lon": -95.4046281, "heading": 325, "speed": 0.03500000014901161, "roll": "-0.00347447395325"}
{"pitch": "0.002754855901", "lat": 29.7132987, "timestamp": 1603388401.696047, "alt": 9.92, "yaw": "-0.594093561172", "lon": -95.4046281, "heading": 325, "speed": 0.026000000536441803, "roll": "-0.00339708849788"}
{"pitch": "0.00293280929327", "lat": 29.7132988, "timestamp": 1603388402.197179, "alt": 9.95, "yaw": "-0.593848049641", "lon": -95.4046282, "heading": 325, "speed": 0.02800000086426735, "roll": "-0.00337154790759"}
{"pitch": "0.0029578730464", "lat": 29.7132989, "timestamp": 1603388402.698392, "alt": 9.98, "yaw": "-0.593835353851", "lon": -95.4046283, "heading": 325, "speed": 0.01100000087171793, "roll": "-0.00341468676925"}
{"pitch": "0.00282783061266", "lat": 29.713299, "timestamp": 1603388403.199526, "alt": 10.01, "yaw": "-0.593634068966", "lon": -95.4046284, "heading": 325, "speed": 0.01900000125169754, "roll": "-0.0033624432981"}
{"pitch": "0.00279786810279", "lat": 29.7132991, "timestamp": 1603388403.700818, "alt": 10.03, "yaw": "-0.593588531017", "lon": -95.4046283, "heading": 325, "speed": 0.03200000151991844, "roll": "-0.00330563262105"}
{"pitch": "0.00302543491125", "lat": 29.7132991, "timestamp": 1603388404.202577, "alt": 10.05, "yaw": "-0.593545019627", "lon": -95.4046282, "heading": 326, "speed": 0.027000000700354576, "roll": "-0.00302647426724"}
{"pitch": "0.00278389081359", "lat": 29.7132991, "timestamp": 1603388404.703703, "alt": 10.07, "yaw": "-0.593692541122", "lon": -95.4046281, "heading": 325, "speed": 0.009000000543892384, "roll": "-0.00303551927209"}
{"pitch": "0.00277807936072", "lat": 29.713299, "timestamp": 1603388405.204841, "alt": 10.1, "yaw": "-0.593500971794", "lon": -95.404628, "heading": 326, "speed": 0.029000001028180122, "roll": "-0.00317822396755"}
{"pitch": "0.00279182940722", "lat": 29.7132991, "timestamp": 1603388405.705931, "alt": 10.11, "yaw": "-0.593487739563", "lon": -95.404628, "heading": 326, "speed": 0.0020000000949949026, "roll": "-0.00315273925662"}
{"pitch": "0.0023065507412", "lat": 29.7132991, "timestamp": 1603388406.207289, "alt": 10.12, "yaw": "-0.593421459198", "lon": -95.404628, "heading": 326, "speed": 0.01600000075995922, "roll": "-0.00322143733501"}
{"pitch": "0.00214308127761", "lat": 29.7132992, "timestamp": 1603388406.709484, "alt": 10.12, "yaw": "-0.593366026878", "lon": -95.4046279, "heading": 326, "speed": 0.009000000543892384, "roll": "-0.0032599568367"}
{"pitch": "0.00243160501122", "lat": 29.7132993, "timestamp": 1603388407.210675, "alt": 10.12, "yaw": "-0.593215703964", "lon": -95.4046279, "heading": 326, "speed": 0.00800000037997961, "roll": "-0.00312024727464"}
{"pitch": "0.00255124643445", "lat": 29.7132994, "timestamp": 1603388407.711816, "alt": 10.13, "yaw": "-0.593244254589", "lon": -95.4046277, "heading": 326, "speed": 0.03400000184774399, "roll": "-0.00301223993301"}
{"pitch": "0.00267573073506", "lat": 29.7132995, "timestamp": 1603388408.213054, "alt": 10.14, "yaw": "-0.593282878399", "lon": -95.4046275, "heading": 326, "speed": 0.017000000923871994, "roll": "-0.00299943238497"}
{"pitch": "0.00246157497168", "lat": 29.7132996, "timestamp": 1603388408.714564, "alt": 10.14, "yaw": "-0.593256175518", "lon": -95.4046273, "heading": 326, "speed": 0.030000001192092896, "roll": "-0.00301326811314"}
{"pitch": "0.00249841809273", "lat": 29.7132997, "timestamp": 1603388409.216121, "alt": 10.15, "yaw": "-0.593160748482", "lon": -95.4046272, "heading": 326, "speed": 0.015000000596046448, "roll": "-0.00303762033582"}
{"pitch": "0.00261224061251", "lat": 29.7132998, "timestamp": 1603388409.717275, "alt": 10.14, "yaw": "-0.593084573746", "lon": -95.404627, "heading": 326, "speed": 0.04500000178813934, "roll": "-0.00293332710862"}
{"pitch": "0.00263738259673", "lat": 29.7132999, "timestamp": 1603388410.21863, "alt": 10.13, "yaw": "-0.593114495277", "lon": -95.4046268, "heading": 326, "speed": 0.007000000216066837, "roll": "-0.00295334681869"}
{"pitch": "0.00261007994413", "lat": 29.7133, "timestamp": 1603388410.72057, "alt": 10.15, "yaw": "-0.593047559261", "lon": -95.4046267, "heading": 326, "speed": 0.03100000135600567, "roll": "-0.00297620892525"}
{"pitch": "0.00259323045611", "lat": 29.7132999, "timestamp": 1603388411.221662, "alt": 10.17, "yaw": "-0.592910051346", "lon": -95.4046265, "heading": 326, "speed": 0.03800000250339508, "roll": "-0.00306094810367"}
{"pitch": "0.00269781053066", "lat": 29.7132999, "timestamp": 1603388411.722757, "alt": 10.19, "yaw": "-0.592965126038", "lon": -95.4046263, "heading": 326, "speed": 0.012000000104308128, "roll": "-0.00304563716054"}
{"pitch": "0.0026681125164", "lat": 29.7132999, "timestamp": 1603388412.223879, "alt": 10.23, "yaw": "-0.592914879322", "lon": -95.4046262, "heading": 326, "speed": 0.03800000250339508, "roll": "-0.00321467220783"}
{"pitch": "0.00283343344927", "lat": 29.7132999, "timestamp": 1603388412.725045, "alt": 10.25, "yaw": "-0.592953801155", "lon": -95.4046261, "heading": 326, "speed": 0.01100000087171793, "roll": "-0.0034365542233"}
{"pitch": "0.00274443626404", "lat": 29.7132999, "timestamp": 1603388413.226328, "alt": 10.28, "yaw": "-0.592955291271", "lon": -95.4046259, "heading": 326, "speed": 0.026000000536441803, "roll": "-0.00356022268534"}
{"pitch": "0.00272667780519", "lat": 29.7132998, "timestamp": 1603388413.730572, "alt": 10.28, "yaw": "-0.592964291573", "lon": -95.4046258, "heading": 326, "speed": 0.007000000216066837, "roll": "-0.00359607487917"}
{"pitch": "0.00184209272265", "lat": 29.7132998, "timestamp": 1603388414.231695, "alt": 10.29, "yaw": "-0.593279600143", "lon": -95.4046257, "heading": 326, "speed": 0.023000001907348633, "roll": "-0.00351329892874"}
{"pitch": "0.00179248675704", "lat": 29.7132998, "timestamp": 1603388414.732853, "alt": 10.32, "yaw": "-0.593148708344", "lon": -95.4046256, "heading": 326, "speed": 0.013000000268220901, "roll": "-0.00359274074435"}
{"pitch": "0.00184845551848", "lat": 29.7132997, "timestamp": 1603388415.234194, "alt": 10.33, "yaw": "-0.593284666538", "lon": -95.4046255, "heading": 326, "speed": 0.01600000075995922, "roll": "-0.00347368046641"}
{"pitch": "0.0023525133729", "lat": 29.7132996, "timestamp": 1603388415.735595, "alt": 10.32, "yaw": "-0.593250870705", "lon": -95.4046255, "heading": 326, "speed": 0.021000001579523087, "roll": "-0.00344290956855"}
{"pitch": "0.00242902711034", "lat": 29.7132995, "timestamp": 1603388416.236817, "alt": 10.29, "yaw": "-0.593164920807", "lon": -95.4046255, "heading": 326, "speed": 0.007000000216066837, "roll": "-0.00344924628735"}
{"pitch": "0.0026242621243", "lat": 29.7132994, "timestamp": 1603388416.73894, "alt": 10.25, "yaw": "-0.593125283718", "lon": -95.4046256, "heading": 326, "speed": 0.039000000804662704, "roll": "-0.00350730866194"}
{"pitch": "0.00236070901155", "lat": 29.7132993, "timestamp": 1603388417.240217, "alt": 10.24, "yaw": "-0.593163669109", "lon": -95.4046257, "heading": 326, "speed": 0.03100000135600567, "roll": "-0.0034950748086"}
{"pitch": "0.00270057842135", "lat": 29.7132992, "timestamp": 1603388417.74131, "alt": 10.26, "yaw": "-0.593053936958", "lon": -95.4046257, "heading": 326, "speed": 0.023000001907348633, "roll": "-0.00351636484265"}
{"pitch": "0.00251810997725", "lat": 29.7132993, "timestamp": 1603388418.242429, "alt": 10.29, "yaw": "-0.592989206314", "lon": -95.4046259, "heading": 326, "speed": 0.023000001907348633, "roll": "-0.00356838479638"}
{"pitch": "0.00247741490602", "lat": 29.7132994, "timestamp": 1603388418.74373, "alt": 10.32, "yaw": "-0.593013763428", "lon": -95.404626, "heading": 326, "speed": 0.036000002175569534, "roll": "-0.00346077233553"}
{"pitch": "0.00216660276055", "lat": 29.7132996, "timestamp": 1603388419.244854, "alt": 10.34, "yaw": "-0.593073606491", "lon": -95.4046262, "heading": 326, "speed": 0.026000000536441803, "roll": "-0.0034269168973"}
{"pitch": "0.00207314640284", "lat": 29.7132998, "timestamp": 1603388419.746083, "alt": 10.35, "yaw": "-0.593064010143", "lon": -95.4046264, "heading": 326, "speed": 0.00800000037997961, "roll": "-0.00347723439336"}
{"pitch": "0.0021248832345", "lat": 29.7133, "timestamp": 1603388420.247277, "alt": 10.37, "yaw": "-0.592969357967", "lon": -95.4046267, "heading": 326, "speed": 0.021000001579523087, "roll": "-0.00348616018891"}
{"pitch": "0.00210604071617", "lat": 29.7133002, "timestamp": 1603388420.748466, "alt": 10.38, "yaw": "-0.592909693718", "lon": -95.4046271, "heading": 326, "speed": 0.017000000923871994, "roll": "-0.00362483412027"}
