{"pitch": "-0.00125807384029", "lat": 29.7133094, "timestamp": 1603396062.008092, "alt": 10.5, "yaw": "2.08185005188", "lon": -95.4044331, "heading": 119, "speed": 0.026000000536441803, "roll": "-0.0215115901083"}
{"pitch": "-0.00140004698187", "lat": 29.71331, "timestamp": 1603396062.516918, "alt": 10.51, "yaw": "2.08172273636", "lon": -95.4044334, "heading": 119, "speed": 0.014000000432133675, "roll": "-0.0215783901513"}
{"pitch": "-0.00132401008159", "lat": 29.7133101, "timestamp": 1603396063.018311, "alt": 10.52, "yaw": "2.08168363571", "lon": -95.4044334, "heading": 119, "speed": 0.00800000037997961, "roll": "-0.0215797014534"}
{"pitch": "-0.00119004724547", "lat": 29.7133103, "timestamp": 1603396063.519487, "alt": 10.54, "yaw": "2.08181929588", "lon": -95.4044334, "heading": 119, "speed": 0.01900000125169754, "roll": "-0.021535852924"}
{"pitch": "-0.00137339578941", "lat": 29.7133104, "timestamp": 1603396064.020605, "alt": 10.54, "yaw": "2.08196258545", "lon": -95.4044334, "heading": 119, "speed": 0.03400000184774399, "roll": "-0.0215065777302"}
{"pitch": "-0.0013652308844", "lat": 29.7133106, "timestamp": 1603396064.521797, "alt": 10.56, "yaw": "2.08204078674", "lon": -95.4044333, "heading": 119, "speed": 0.017000000923871994, "roll": "-0.0215731170028"}
{"pitch": "-0.00150217115879", "lat": 29.7133108, "timestamp": 1603396065.023094, "alt": 10.58, "yaw": "2.08197069168", "lon": -95.4044331, "heading": 119, "speed": 0.029000001028180122, "roll": "-0.0217591300607"}
{"pitch": "-0.00144739681855", "lat": 29.713311, "timestamp": 1603396065.524284, "alt": 10.59, "yaw": "2.08214402199", "lon": -95.404433, "heading": 119, "speed": 0.005000000353902578, "roll": "-0.0218834672123"}
{"pitch": "-0.00140531314537", "lat": 29.7133112, "timestamp": 1603396066.025402, "alt": 10.6, "yaw": "2.08235836029", "lon": -95.404433, "heading": 119, "speed": 0.0430000014603138, "roll": "-0.0217519123107"}
{"pitch": "-0.0013654041104", "lat": 29.7133112, "timestamp": 1603396066.526485, "alt": 10.6, "yaw": "2.08230400085", "lon": -95.4044329, "heading": 119, "speed": 0.024000000208616257, "roll": "-0.021543269977"}
{"pitch": "-0.00133163202554", "lat": 29.7133113, "timestamp": 1603396067.042823, "alt": 10.59, "yaw": "2.08225774765", "lon": -95.4044327, "heading": 119, "speed": 0.03100000135600567, "roll": "-0.0216322429478"}
{"pitch": "-0.00134656205773", "lat": 29.7133113, "timestamp": 1603396067.544134, "alt": 10.6, "yaw": "2.08227920532", "lon": -95.4044326, "heading": 119, "speed": 0.015000000596046448, "roll": "-0.0216837804765"}
{"pitch": "-0.00124430656433", "lat": 29.7133113, "timestamp": 1603396068.045287, "alt": 10.6, "yaw": "2.08232545853", "lon": -95.4044325, "heading": 119, "speed": 0.05400000140070915, "roll": "-0.0217325873673"}
{"pitch": "-0.00114300614223", "lat": 29.7133112, "timestamp": 1603396068.54598, "alt": 10.61, "yaw": "2.08240771294", "lon": -95.4044324, "heading": 119, "speed": 0.01600000075995922, "roll": "-0.0218001808971"}
{"pitch": "-0.00101937074214", "lat": 29.7133112, "timestamp": 1603396069.046955, "alt": 10.61, "yaw": "2.08256340027", "lon": -95.4044322, "heading": 119, "speed": 0.010000000707805157, "roll": "-0.0219634901732"}
{"pitch": "-0.000975959468633", "lat": 29.713311, "timestamp": 1603396069.548182, "alt": 10.59, "yaw": "2.08276414871", "lon": -95.404432, "heading": 119, "speed": 0.029000001028180122, "roll": "-0.0220263618976"}
{"pitch": "-0.00105660548434", "lat": 29.7133108, "timestamp": 1603396070.049318, "alt": 10.55, "yaw": "2.08271026611", "lon": -95.4044318, "heading": 119, "speed": 0.01900000125169754, "roll": "-0.0219664499164"}
{"pitch": "-0.000891814939678", "lat": 29.7133106, "timestamp": 1603396070.550338, "alt": 10.54, "yaw": "2.08269500732", "lon": -95.4044314, "heading": 119, "speed": 0.018000001087784767, "roll": "-0.0220506284386"}
{"pitch": "-0.000912705436349", "lat": 29.7133104, "timestamp": 1603396071.051366, "alt": 10.52, "yaw": "2.082726717", "lon": -95.4044311, "heading": 119, "speed": 0.03100000135600567, "roll": "-0.0222249794751"}
{"pitch": "-0.000813249964267", "lat": 29.7133101, "timestamp": 1603396071.552769, "alt": 10.51, "yaw": "2.08288550377", "lon": -95.4044308, "heading": 119, "speed": 0.027000000700354576, "roll": "-0.022074604407"}
{"pitch": "-0.000764707103372", "lat": 29.7133099, "timestamp": 1603396072.05882, "alt": 10.5, "yaw": "2.0829167366", "lon": -95.4044305, "heading": 119, "speed": 0.023000001907348633, "roll": "-0.0219660326838"}
{"pitch": "-0.000587753020227", "lat": 29.7133097, "timestamp": 1603396072.560036, "alt": 10.46, "yaw": "2.08291149139", "lon": -95.4044302, "heading": 119, "speed": 0.0430000014603138, "roll": "-0.0219565778971"}
{"pitch": "-0.000381163321435", "lat": 29.7133096, "timestamp": 1603396073.061165, "alt": 10.44, "yaw": "2.08305931091", "lon": -95.4044299, "heading": 119, "speed": 0.015000000596046448, "roll": "-0.0220282264054"}
{"pitch": "-0.000386761501431", "lat": 29.7133094, "timestamp": 1603396073.562047, "alt": 10.42, "yaw": "2.08302545547", "lon": -95.4044297, "heading": 119, "speed": 0.015000000596046448, "roll": "-0.022054830566"}
{"pitch": "-0.000296189449728", "lat": 29.7133092, "timestamp": 1603396074.062825, "alt": 10.42, "yaw": "2.08302688599", "lon": -95.4044295, "heading": 119, "speed": 0.03100000135600567, "roll": "-0.0220066551119"}
{"pitch": "-0.000209818594158", "lat": 29.7133089, "timestamp": 1603396074.563932, "alt": 10.42, "yaw": "2.08297681808", "lon": -95.4044293, "heading": 119, "speed": 0.023000001907348633, "roll": "-0.0218925345689"}
{"pitch": "-0.000217568594962", "lat": 29.7133085, "timestamp": 1603396075.06515, "alt": 10.43, "yaw": "2.08280801773", "lon": -95.404429, "heading": 119, "speed": 0.03700000047683716, "roll": "-0.0218424815685"}
{"pitch": "-0.000162818934768", "lat": 29.7133082, "timestamp": 1603396075.566306, "alt": 10.43, "yaw": "2.08280277252", "lon": -95.4044288, "heading": 119, "speed": 0.01100000087171793, "roll": "-0.0217742957175"}
{"pitch": "-3.3300369978e-05", "lat": 29.7133079, "timestamp": 1603396076.067497, "alt": 10.43, "yaw": "2.08280205727", "lon": -95.4044285, "heading": 119, "speed": 0.01100000087171793, "roll": "-0.0216561388224"}
{"pitch": "-2.34041363001e-06", "lat": 29.7133076, "timestamp": 1603396076.568728, "alt": 10.42, "yaw": "2.08290815353", "lon": -95.4044282, "heading": 119, "speed": 0.01100000087171793, "roll": "-0.021545926109"}
{"pitch": "-1.22007913888e-05", "lat": 29.7133072, "timestamp": 1603396077.077336, "alt": 10.41, "yaw": "2.08280658722", "lon": -95.4044279, "heading": 119, "speed": 0.03400000184774399, "roll": "-0.0213995408267"}
{"pitch": "3.57134267688e-05", "lat": 29.7133068, "timestamp": 1603396077.57844, "alt": 10.42, "yaw": "2.08278799057", "lon": -95.4044276, "heading": 119, "speed": 0.04800000041723251, "roll": "-0.0214564260095"}
{"pitch": "0.000101080164313", "lat": 29.7133065, "timestamp": 1603396078.079606, "alt": 10.43, "yaw": "2.08276414871", "lon": -95.4044273, "heading": 119, "speed": 0.020000001415610313, "roll": "-0.0214760359377"}
{"pitch": "5.40590845048e-05", "lat": 29.7133063, "timestamp": 1603396078.288995, "alt": 10.43, "yaw": "2.08280444145", "lon": -95.4044272, "heading": 119, "speed": 0.030000001192092896, "roll": "-0.0215175002813"}
{"pitch": "7.23884440958e-05", "lat": 29.7133062, "timestamp": 1603396078.580766, "alt": 10.43, "yaw": "2.08277225494", "lon": -95.4044271, "heading": 119, "speed": 0.04500000178813934, "roll": "-0.0214992407709"}
{"pitch": "0.000151792075485", "lat": 29.713306, "timestamp": 1603396078.790175, "alt": 10.42, "yaw": "2.08278465271", "lon": -95.404427, "heading": 119, "speed": 0.04500000178813934, "roll": "-0.0216012261808"}
{"pitch": "9.37399454415e-05", "lat": 29.7133058, "timestamp": 1603396079.082046, "alt": 10.42, "yaw": "2.08269548416", "lon": -95.4044269, "heading": 119, "speed": 0.02800000086426735, "roll": "-0.0215909779072"}
{"pitch": "2.47461721301e-05", "lat": 29.7133056, "timestamp": 1603396079.291265, "alt": 10.42, "yaw": "2.08271503448", "lon": -95.4044268, "heading": 119, "speed": 0.01600000075995922, "roll": "-0.0215931683779"}
{"pitch": "-6.93360343575e-05", "lat": 29.7133054, "timestamp": 1603396079.583197, "alt": 10.42, "yaw": "2.0827627182", "lon": -95.4044267, "heading": 119, "speed": 0.03200000151991844, "roll": "-0.0215814318508"}
{"pitch": "-0.00015021674335", "lat": 29.7133052, "timestamp": 1603396079.792393, "alt": 10.42, "yaw": "2.08284902573", "lon": -95.4044266, "heading": 119, "speed": 0.04000000283122063, "roll": "-0.0216339603066"}
{"pitch": "-0.000127836130559", "lat": 29.713305, "timestamp": 1603396080.084364, "alt": 10.43, "yaw": "2.08290958405", "lon": -95.4044265, "heading": 119, "speed": 0.029000001028180122, "roll": "-0.0217734184116"}
{"pitch": "-0.000150819774717", "lat": 29.7133049, "timestamp": 1603396080.293487, "alt": 10.44, "yaw": "2.0828602314", "lon": -95.4044264, "heading": 119, "speed": 0.029000001028180122, "roll": "-0.0219445563853"}
{"pitch": "-0.000149705912918", "lat": 29.7133047, "timestamp": 1603396080.585614, "alt": 10.45, "yaw": "2.08294248581", "lon": -95.4044262, "heading": 119, "speed": 0.00800000037997961, "roll": "-0.0221333373338"}
{"pitch": "0.000170667190105", "lat": 29.7133046, "timestamp": 1603396080.794637, "alt": 10.46, "yaw": "2.08262634277", "lon": -95.4044261, "heading": 119, "speed": 0.010000000707805157, "roll": "-0.022250700742"}
{"pitch": "0.00141381751746", "lat": 29.7133045, "timestamp": 1603396081.087075, "alt": 10.46, "yaw": "2.08252763748", "lon": -95.404426, "heading": 119, "speed": 0.00800000037997961, "roll": "-0.0222759991884"}
{"pitch": "0.00141381751746", "lat": 29.7133045, "timestamp": 1603396081.295589, "alt": 10.46, "yaw": "2.08252763748", "lon": -95.404426, "heading": 119, "speed": 0.021000001579523087, "roll": "-0.0222759991884"}
{"pitch": "0.00100195547566", "lat": 29.7133045, "timestamp": 1603396081.588398, "alt": 10.47, "yaw": "2.08138227463", "lon": -95.404426, "heading": 119, "speed": 0.03800000250339508, "roll": "-0.0214427374303"}
{"pitch": "-0.0185186099261", "lat": 29.7133044, "timestamp": 1603396081.796732, "alt": 10.5, "yaw": "2.04676294327", "lon": -95.4044259, "heading": 114, "speed": 0.02800000086426735, "roll": "-0.021777395159"}
{"pitch": "-0.00717378361151", "lat": 29.7133043, "timestamp": 1603396082.092338, "alt": 10.63, "yaw": "1.93334102631", "lon": -95.4044258, "heading": 108, "speed": 0.08800000697374344, "roll": "-0.00842449069023"}
{"pitch": "-0.00518193747848", "lat": 29.7133043, "timestamp": 1603396082.297859, "alt": 10.86, "yaw": "1.82094347477", "lon": -95.4044256, "heading": 102, "speed": 0.15800000727176666, "roll": "-0.028595328331"}
{"pitch": "0.0160244163126", "lat": 29.7133045, "timestamp": 1603396082.593633, "alt": 11.16, "yaw": "1.76314115524", "lon": -95.4044253, "heading": 100, "speed": 0.1290000081062317, "roll": "-0.0333140306175"}
{"pitch": "0.0139065608382", "lat": 29.7133048, "timestamp": 1603396082.798985, "alt": 11.53, "yaw": "1.73515832424", "lon": -95.4044249, "heading": 100, "speed": 0.1290000081062317, "roll": "-0.0187120325863"}
{"pitch": "0.0189845450222", "lat": 29.7133052, "timestamp": 1603396083.094728, "alt": 11.93, "yaw": "1.73548638821", "lon": -95.4044246, "heading": 99, "speed": 0.26200002431869507, "roll": "0.000425467034802"}
{"pitch": "0.0241786371917", "lat": 29.7133055, "timestamp": 1603396083.300144, "alt": 12.39, "yaw": "1.75040614605", "lon": -95.4044244, "heading": 99, "speed": 0.26200002431869507, "roll": "0.00824692752212"}
{"pitch": "0.0206416454166", "lat": 29.7133057, "timestamp": 1603396083.596381, "alt": 12.92, "yaw": "1.77658629417", "lon": -95.4044244, "heading": 100, "speed": 0.09000000357627869, "roll": "0.00448634196073"}
{"pitch": "0.0120577774942", "lat": 29.7133057, "timestamp": 1603396083.801322, "alt": 13.38, "yaw": "1.79885613918", "lon": -95.4044246, "heading": 102, "speed": 0.04200000315904617, "roll": "-0.00270735030062"}
{"pitch": "0.00756057398394", "lat": 29.7133058, "timestamp": 1603396084.097827, "alt": 13.95, "yaw": "1.81426334381", "lon": -95.404425, "heading": 103, "speed": 0.3060000240802765, "roll": "0.00963658932596"}
{"pitch": "0.00756057398394", "lat": 29.7133058, "timestamp": 1603396084.302447, "alt": 13.95, "yaw": "1.81426334381", "lon": -95.404425, "heading": 104, "speed": 0.3100000023841858, "roll": "0.00963658932596"}
{"pitch": "-0.020316651091", "lat": 29.7133056, "timestamp": 1603396084.599063, "alt": 15.1, "yaw": "1.82979738712", "lon": -95.4044264, "heading": 105, "speed": 0.3460000157356262, "roll": "0.0163065325469"}
{"pitch": "-0.0353190638125", "lat": 29.7133056, "timestamp": 1603396084.803638, "alt": 15.1, "yaw": "1.83731162548", "lon": -95.4044264, "heading": 105, "speed": 0.3460000157356262, "roll": "-0.00474449060857"}
{"pitch": "-0.0363006107509", "lat": 29.7133052, "timestamp": 1603396085.100189, "alt": 15.63, "yaw": "1.84994673729", "lon": -95.4044267, "heading": 105, "speed": 0.24300001561641693, "roll": "-0.0249917060137"}
{"pitch": "-0.0154022593051", "lat": 29.7133048, "timestamp": 1603396085.305119, "alt": 16.24, "yaw": "1.86648929119", "lon": -95.4044268, "heading": 106, "speed": 0.1720000058412552, "roll": "-0.035555485636"}
{"pitch": "0.00418002484366", "lat": 29.7133047, "timestamp": 1603396085.601218, "alt": 16.92, "yaw": "1.87968623638", "lon": -95.4044266, "heading": 107, "speed": 0.07800000160932541, "roll": "-0.0222890097648"}
{"pitch": "0.00200009113178", "lat": 29.7133047, "timestamp": 1603396085.806225, "alt": 17.54, "yaw": "1.8826431036", "lon": -95.4044264, "heading": 107, "speed": 0.1290000081062317, "roll": "-0.0116595728323"}
{"pitch": "0.00947407446802", "lat": 29.7133048, "timestamp": 1603396086.102737, "alt": 18.17, "yaw": "1.88451099396", "lon": -95.4044261, "heading": 107, "speed": 0.11600000411272049, "roll": "-0.00749440304935"}
{"pitch": "0.00947407446802", "lat": 29.7133048, "timestamp": 1603396086.307555, "alt": 18.17, "yaw": "1.88451099396", "lon": -95.4044261, "heading": 108, "speed": 0.09400000423192978, "roll": "-0.00749440304935"}
{"pitch": "0.00974401272833", "lat": 29.713305, "timestamp": 1603396086.604703, "alt": 18.75, "yaw": "1.89438617229", "lon": -95.4044259, "heading": 108, "speed": 0.09400000423192978, "roll": "0.00115125393495"}
{"pitch": "0.00336580211297", "lat": 29.7133052, "timestamp": 1603396086.809578, "alt": 19.39, "yaw": "1.9025272131", "lon": -95.4044257, "heading": 108, "speed": 0.16300000250339508, "roll": "0.00637374259531"}
{"pitch": "0.0192233268172", "lat": 29.7133053, "timestamp": 1603396087.726779, "alt": 21.31, "yaw": "1.91481101513", "lon": -95.4044252, "heading": 109, "speed": 0.1420000046491623, "roll": "0.0133736701682"}
{"pitch": "0.0192233268172", "lat": 29.7133053, "timestamp": 1603396087.727552, "alt": 21.31, "yaw": "1.91481101513", "lon": -95.4044252, "heading": 109, "speed": 0.1420000046491623, "roll": "0.0133736701682"}
{"pitch": "0.00266694603488", "lat": 29.713305, "timestamp": 1603396088.229847, "alt": 22.54, "yaw": "1.91203153133", "lon": -95.4044258, "heading": 109, "speed": 0.19200000166893005, "roll": "-0.0106710363179"}
{"pitch": "0.00266694603488", "lat": 29.713305, "timestamp": 1603396088.234497, "alt": 22.54, "yaw": "1.91203153133", "lon": -95.4044258, "heading": 109, "speed": 0.19200000166893005, "roll": "-0.0106710363179"}
{"pitch": "-0.0408917181194", "lat": 29.7133049, "timestamp": 1603396088.731573, "alt": 23.76, "yaw": "1.89708197117", "lon": -95.4044265, "heading": 108, "speed": 0.1850000023841858, "roll": "-0.0357722342014"}
{"pitch": "-0.0408917181194", "lat": 29.7133049, "timestamp": 1603396088.736138, "alt": 23.76, "yaw": "1.89708197117", "lon": -95.4044265, "heading": 108, "speed": 0.1850000023841858, "roll": "-0.0357722342014"}
{"pitch": "0.00467072660103", "lat": 29.7133051, "timestamp": 1603396089.233143, "alt": 25.0, "yaw": "1.90940654278", "lon": -95.4044258, "heading": 108, "speed": 0.06599999964237213, "roll": "0.0210690181702"}
{"pitch": "0.00467072660103", "lat": 29.7133051, "timestamp": 1603396089.238845, "alt": 25.0, "yaw": "1.90940654278", "lon": -95.4044258, "heading": 108, "speed": 0.06599999964237213, "roll": "0.0210690181702"}
{"pitch": "0.0403809696436", "lat": 29.7133047, "timestamp": 1603396089.735768, "alt": 26.17, "yaw": "1.96074545383", "lon": -95.4044253, "heading": 111, "speed": 0.06599999964237213, "roll": "0.00944389030337"}
{"pitch": "0.0403809696436", "lat": 29.7133047, "timestamp": 1603396089.743344, "alt": 26.17, "yaw": "1.96074545383", "lon": -95.4044253, "heading": 111, "speed": 0.06599999964237213, "roll": "0.00944389030337"}
{"pitch": "0.00553545029834", "lat": 29.7133047, "timestamp": 1603396090.237085, "alt": 26.82, "yaw": "1.97576236725", "lon": -95.4044255, "heading": 113, "speed": 0.19100001454353333, "roll": "-0.0149835804477"}
{"pitch": "0.00553545029834", "lat": 29.7133047, "timestamp": 1603396090.244589, "alt": 26.82, "yaw": "1.97576236725", "lon": -95.4044255, "heading": 113, "speed": 0.19100001454353333, "roll": "-0.0149835804477"}
{"pitch": "-0.0305197909474", "lat": 29.7133052, "timestamp": 1603396090.738273, "alt": 28.08, "yaw": "1.99822878838", "lon": -95.4044265, "heading": 114, "speed": 0.30400002002716064, "roll": "0.00410798937082"}
{"pitch": "-0.0305197909474", "lat": 29.7133052, "timestamp": 1603396090.745718, "alt": 28.08, "yaw": "1.99822878838", "lon": -95.4044265, "heading": 114, "speed": 0.30400002002716064, "roll": "0.00410798937082"}
{"pitch": "-0.0417667776346", "lat": 29.7133056, "timestamp": 1603396091.24007, "alt": 28.93, "yaw": "2.00985574722", "lon": -95.4044268, "heading": 114, "speed": 0.10700000822544098, "roll": "0.00670314393938"}
{"pitch": "-0.0417667776346", "lat": 29.7133056, "timestamp": 1603396091.246812, "alt": 28.93, "yaw": "2.00985574722", "lon": -95.4044268, "heading": 115, "speed": 0.15700000524520874, "roll": "0.00670314393938"}
{"pitch": "-0.0407692529261", "lat": 29.7133057, "timestamp": 1603396091.743708, "alt": 29.27, "yaw": "2.00445961952", "lon": -95.4044266, "heading": 114, "speed": 0.09300000220537186, "roll": "0.0241351481527"}
{"pitch": "-0.0407692529261", "lat": 29.7133057, "timestamp": 1603396091.748155, "alt": 29.27, "yaw": "2.00445961952", "lon": -95.4044266, "heading": 114, "speed": 0.09300000220537186, "roll": "0.0241351481527"}
{"pitch": "-0.0129140159115", "lat": 29.7133054, "timestamp": 1603396092.245267, "alt": 29.78, "yaw": "1.98137927055", "lon": -95.404426, "heading": 114, "speed": 0.17000000178813934, "roll": "-0.00262053008191"}
{"pitch": "-0.0129140159115", "lat": 29.7133054, "timestamp": 1603396092.249972, "alt": 29.78, "yaw": "1.98137927055", "lon": -95.404426, "heading": 114, "speed": 0.17000000178813934, "roll": "-0.00262053008191"}
{"pitch": "-0.0103929536417", "lat": 29.7133054, "timestamp": 1603396092.746369, "alt": 30.02, "yaw": "2.00034022331", "lon": -95.4044253, "heading": 114, "speed": 0.15300001204013824, "roll": "0.0215337965637"}
{"pitch": "-0.0103929536417", "lat": 29.7133054, "timestamp": 1603396092.750979, "alt": 30.02, "yaw": "2.00034022331", "lon": -95.4044253, "heading": 114, "speed": 0.15300001204013824, "roll": "0.0215337965637"}
{"pitch": "-0.000501273665577", "lat": 29.7133057, "timestamp": 1603396093.247471, "alt": 30.16, "yaw": "2.00417423248", "lon": -95.4044249, "heading": 114, "speed": 0.10600000619888306, "roll": "0.0236863214523"}
{"pitch": "-0.000501273665577", "lat": 29.7133057, "timestamp": 1603396093.251979, "alt": 30.16, "yaw": "2.00417423248", "lon": -95.4044249, "heading": 114, "speed": 0.10600000619888306, "roll": "0.0236863214523"}
{"pitch": "-0.00650278571993", "lat": 29.7133058, "timestamp": 1603396093.748928, "alt": 30.26, "yaw": "1.99124467373", "lon": -95.4044247, "heading": 113, "speed": 0.06100000441074371, "roll": "0.0264890156686"}
{"pitch": "-0.00650278571993", "lat": 29.7133058, "timestamp": 1603396093.753076, "alt": 30.26, "yaw": "1.99124467373", "lon": -95.4044247, "heading": 113, "speed": 0.06100000441074371, "roll": "0.0264890156686"}
{"pitch": "0.00110161211342", "lat": 29.7133059, "timestamp": 1603396094.251106, "alt": 30.29, "yaw": "1.98893678188", "lon": -95.4044247, "heading": 113, "speed": 0.09400000423192978, "roll": "0.0374745950103"}
{"pitch": "0.00110161211342", "lat": 29.7133059, "timestamp": 1603396094.254148, "alt": 30.29, "yaw": "1.98893678188", "lon": -95.4044247, "heading": 113, "speed": 0.09400000423192978, "roll": "0.0374745950103"}
{"pitch": "-0.0165719538927", "lat": 29.7133058, "timestamp": 1603396094.753347, "alt": 30.35, "yaw": "1.99350333214", "lon": -95.404425, "heading": 114, "speed": 0.07100000232458115, "roll": "0.0253919158131"}
{"pitch": "-0.0165719538927", "lat": 29.7133058, "timestamp": 1603396094.755725, "alt": 30.35, "yaw": "1.99350333214", "lon": -95.404425, "heading": 114, "speed": 0.07100000232458115, "roll": "0.0253919158131"}
{"pitch": "-0.0229291506112", "lat": 29.7133054, "timestamp": 1603396095.255219, "alt": 30.38, "yaw": "2.00715112686", "lon": -95.4044254, "heading": 115, "speed": 0.06400000303983688, "roll": "0.0138827264309"}
{"pitch": "-0.0229291506112", "lat": 29.7133054, "timestamp": 1603396095.257384, "alt": 30.38, "yaw": "2.00715112686", "lon": -95.4044254, "heading": 115, "speed": 0.06400000303983688, "roll": "0.0138827264309"}
{"pitch": "-0.00207097036764", "lat": 29.7133051, "timestamp": 1603396095.756839, "alt": 30.39, "yaw": "2.01082611084", "lon": -95.4044255, "heading": 115, "speed": 0.04200000315904617, "roll": "0.00995693448931"}
{"pitch": "-0.00207097036764", "lat": 29.7133051, "timestamp": 1603396095.758783, "alt": 30.39, "yaw": "2.01082611084", "lon": -95.4044255, "heading": 115, "speed": 0.04200000315904617, "roll": "0.00995693448931"}
{"pitch": "0.00456344289705", "lat": 29.7133051, "timestamp": 1603396096.259139, "alt": 30.38, "yaw": "2.00576019287", "lon": -95.4044256, "heading": 114, "speed": 0.02200000174343586, "roll": "0.0333717279136"}
{"pitch": "0.00456344289705", "lat": 29.7133051, "timestamp": 1603396096.260367, "alt": 30.38, "yaw": "2.00576019287", "lon": -95.4044256, "heading": 114, "speed": 0.02200000174343586, "roll": "0.0333717279136"}
{"pitch": "-0.00794626306742", "lat": 29.7133051, "timestamp": 1603396096.762062, "alt": 30.39, "yaw": "2.01563096046", "lon": -95.4044259, "heading": 115, "speed": 0.03800000250339508, "roll": "0.013224911876"}
{"pitch": "-0.00794626306742", "lat": 29.7133051, "timestamp": 1603396096.766777, "alt": 30.39, "yaw": "2.01563096046", "lon": -95.4044259, "heading": 115, "speed": 0.10500000417232513, "roll": "0.013224911876"}
{"pitch": "-0.0211086068302", "lat": 29.713305, "timestamp": 1603396097.268662, "alt": 30.4, "yaw": "2.01204442978", "lon": -95.4044265, "heading": 115, "speed": 0.049000002443790436, "roll": "0.0145415961742"}
{"pitch": "-0.0211086068302", "lat": 29.713305, "timestamp": 1603396097.270387, "alt": 30.4, "yaw": "2.01204442978", "lon": -95.4044265, "heading": 115, "speed": 0.049000002443790436, "roll": "0.0145415961742"}
{"pitch": "-0.0200579557568", "lat": 29.7133052, "timestamp": 1603396097.770706, "alt": 30.41, "yaw": "2.02336835861", "lon": -95.4044268, "heading": 116, "speed": 0.05100000277161598, "roll": "0.0191927012056"}
{"pitch": "-0.0200579557568", "lat": 29.7133052, "timestamp": 1603396097.772028, "alt": 30.41, "yaw": "2.02336835861", "lon": -95.4044268, "heading": 116, "speed": 0.05100000277161598, "roll": "0.0191927012056"}
{"pitch": "-0.0101331956685", "lat": 29.7133051, "timestamp": 1603396098.271793, "alt": 30.42, "yaw": "2.04311561584", "lon": -95.4044271, "heading": 117, "speed": 0.010000000707805157, "roll": "0.0202787984163"}
{"pitch": "-0.0101331956685", "lat": 29.7133051, "timestamp": 1603396098.27295, "alt": 30.42, "yaw": "2.04311561584", "lon": -95.4044271, "heading": 117, "speed": 0.010000000707805157, "roll": "0.0202787984163"}
{"pitch": "-0.0217654556036", "lat": 29.7133048, "timestamp": 1603396098.772961, "alt": 30.43, "yaw": "2.039249897", "lon": -95.4044273, "heading": 116, "speed": 0.020000001415610313, "roll": "0.00715490896255"}
{"pitch": "-0.0217654556036", "lat": 29.7133048, "timestamp": 1603396098.773946, "alt": 30.43, "yaw": "2.039249897", "lon": -95.4044273, "heading": 116, "speed": 0.020000001415610313, "roll": "0.00715490896255"}
{"pitch": "-0.0202302690595", "lat": 29.7133047, "timestamp": 1603396099.275179, "alt": 30.43, "yaw": "2.03673553467", "lon": -95.4044273, "heading": 116, "speed": 0.018000001087784767, "roll": "0.0135530857369"}
{"pitch": "-0.0202302690595", "lat": 29.7133047, "timestamp": 1603396099.276994, "alt": 30.43, "yaw": "2.03673553467", "lon": -95.4044273, "heading": 116, "speed": 0.018000001087784767, "roll": "0.0135530857369"}
{"pitch": "-0.0180983487517", "lat": 29.7133046, "timestamp": 1603396099.779248, "alt": 30.43, "yaw": "2.03282833099", "lon": -95.404427, "heading": 116, "speed": 0.08900000154972076, "roll": "0.0144048724324"}
{"pitch": "-0.0180983487517", "lat": 29.7133046, "timestamp": 1603396099.779799, "alt": 30.43, "yaw": "2.03282833099", "lon": -95.404427, "heading": 116, "speed": 0.08900000154972076, "roll": "0.0144048724324"}
{"pitch": "0.000841216184199", "lat": 29.7133045, "timestamp": 1603396100.280348, "alt": 30.43, "yaw": "2.02120637894", "lon": -95.4044264, "heading": 115, "speed": 0.07300000637769699, "roll": "0.0115942619741"}
{"pitch": "0.000841216184199", "lat": 29.7133045, "timestamp": 1603396100.280998, "alt": 30.43, "yaw": "2.02120637894", "lon": -95.4044264, "heading": 115, "speed": 0.07300000637769699, "roll": "0.0115942619741"}
{"pitch": "-0.0045379078947", "lat": 29.7133044, "timestamp": 1603396100.782034, "alt": 30.42, "yaw": "2.01262426376", "lon": -95.4044259, "heading": 115, "speed": 0.11400000751018524, "roll": "0.0116797918454"}
{"pitch": "-0.0045379078947", "lat": 29.7133044, "timestamp": 1603396100.783299, "alt": 30.42, "yaw": "2.01262426376", "lon": -95.4044259, "heading": 115, "speed": 0.11400000751018524, "roll": "0.0116797918454"}
{"pitch": "-0.00180891295895", "lat": 29.7133044, "timestamp": 1603396101.283806, "alt": 30.42, "yaw": "2.01960945129", "lon": -95.4044257, "heading": 115, "speed": 0.07600000500679016, "roll": "0.00922765489668"}
{"pitch": "-0.00180891295895", "lat": 29.7133044, "timestamp": 1603396101.284465, "alt": 30.42, "yaw": "2.01960945129", "lon": -95.4044257, "heading": 115, "speed": 0.07600000500679016, "roll": "0.00922765489668"}
{"pitch": "-0.00522105768323", "lat": 29.7133044, "timestamp": 1603396101.785155, "alt": 30.42, "yaw": "2.0205514431", "lon": -95.4044255, "heading": 115, "speed": 0.08000000566244125, "roll": "0.00846924819052"}
{"pitch": "-0.00522105768323", "lat": 29.7133044, "timestamp": 1603396101.785757, "alt": 30.42, "yaw": "2.0205514431", "lon": -95.4044255, "heading": 115, "speed": 0.08000000566244125, "roll": "0.00846924819052"}
{"pitch": "-0.00146074220538", "lat": 29.7133045, "timestamp": 1603396102.286969, "alt": 30.42, "yaw": "2.0341026783", "lon": -95.4044252, "heading": 116, "speed": 0.05400000140070915, "roll": "0.0196054372936"}
{"pitch": "-0.00146074220538", "lat": 29.7133045, "timestamp": 1603396102.288664, "alt": 30.42, "yaw": "2.0341026783", "lon": -95.4044252, "heading": 116, "speed": 0.05400000140070915, "roll": "0.0196054372936"}
{"pitch": "-0.00295752380043", "lat": 29.7133045, "timestamp": 1603396102.789224, "alt": 30.43, "yaw": "2.04259157181", "lon": -95.4044253, "heading": 116, "speed": 0.06100000441074371, "roll": "0.0128937242553"}
{"pitch": "-0.00295752380043", "lat": 29.7133045, "timestamp": 1603396102.789974, "alt": 30.43, "yaw": "2.04259157181", "lon": -95.4044253, "heading": 116, "speed": 0.06100000441074371, "roll": "0.0128937242553"}
{"pitch": "-0.00730011379346", "lat": 29.7133046, "timestamp": 1603396103.290456, "alt": 30.43, "yaw": "2.03892946243", "lon": -95.4044255, "heading": 116, "speed": 0.09800000488758087, "roll": "0.0105954119936"}
{"pitch": "-0.00730011379346", "lat": 29.7133046, "timestamp": 1603396103.291081, "alt": 30.43, "yaw": "2.03892946243", "lon": -95.4044255, "heading": 116, "speed": 0.09800000488758087, "roll": "0.0105954119936"}
{"pitch": "-0.00997012294829", "lat": 29.7133049, "timestamp": 1603396103.792108, "alt": 30.44, "yaw": "2.02806520462", "lon": -95.4044256, "heading": 116, "speed": 0.04500000178813934, "roll": "0.0160647034645"}
{"pitch": "-0.00997012294829", "lat": 29.7133049, "timestamp": 1603396103.792654, "alt": 30.44, "yaw": "2.02806520462", "lon": -95.4044256, "heading": 116, "speed": 0.04500000178813934, "roll": "0.0160647034645"}
{"pitch": "-0.00912143476307", "lat": 29.713305, "timestamp": 1603396104.293293, "alt": 30.43, "yaw": "2.02469372749", "lon": -95.4044257, "heading": 116, "speed": 0.08800000697374344, "roll": "0.0165319200605"}
{"pitch": "-0.00912143476307", "lat": 29.713305, "timestamp": 1603396104.293616, "alt": 30.43, "yaw": "2.02469372749", "lon": -95.4044257, "heading": 116, "speed": 0.08800000697374344, "roll": "0.0165319200605"}
{"pitch": "-0.0152107290924", "lat": 29.7133054, "timestamp": 1603396104.794828, "alt": 30.42, "yaw": "2.03178215027", "lon": -95.404426, "heading": 116, "speed": 0.1080000028014183, "roll": "0.0164027474821"}
{"pitch": "-0.0152107290924", "lat": 29.7133054, "timestamp": 1603396104.795443, "alt": 30.42, "yaw": "2.03178215027", "lon": -95.404426, "heading": 116, "speed": 0.1080000028014183, "roll": "0.0164027474821"}
{"pitch": "-0.0148975625634", "lat": 29.7133056, "timestamp": 1603396105.296171, "alt": 30.42, "yaw": "2.05250883102", "lon": -95.4044262, "heading": 117, "speed": 0.08100000023841858, "roll": "0.0107877282426"}
{"pitch": "-0.0148975625634", "lat": 29.7133056, "timestamp": 1603396105.29684, "alt": 30.42, "yaw": "2.05250883102", "lon": -95.4044262, "heading": 117, "speed": 0.08100000023841858, "roll": "0.0107877282426"}
{"pitch": "-0.00875772349536", "lat": 29.7133056, "timestamp": 1603396105.797358, "alt": 30.41, "yaw": "2.05388355255", "lon": -95.4044261, "heading": 117, "speed": 0.08500000089406967, "roll": "0.0204204395413"}
{"pitch": "-0.00875772349536", "lat": 29.7133056, "timestamp": 1603396105.798119, "alt": 30.41, "yaw": "2.05388355255", "lon": -95.4044261, "heading": 117, "speed": 0.08500000089406967, "roll": "0.0204204395413"}
{"pitch": "-0.00833502225578", "lat": 29.7133055, "timestamp": 1603396106.298485, "alt": 30.41, "yaw": "2.04587554932", "lon": -95.4044262, "heading": 116, "speed": 0.11100000888109207, "roll": "0.0124007482082"}
{"pitch": "-0.00833502225578", "lat": 29.7133055, "timestamp": 1603396106.299157, "alt": 30.41, "yaw": "2.04587554932", "lon": -95.4044262, "heading": 116, "speed": 0.11100000888109207, "roll": "0.0124007482082"}
{"pitch": "-0.00678837718442", "lat": 29.7133051, "timestamp": 1603396106.799738, "alt": 30.42, "yaw": "2.03445863724", "lon": -95.4044262, "heading": 116, "speed": 0.09400000423192978, "roll": "0.00463542435318"}
{"pitch": "-0.00678837718442", "lat": 29.7133051, "timestamp": 1603396106.800336, "alt": 30.42, "yaw": "2.03445863724", "lon": -95.4044262, "heading": 116, "speed": 0.09400000423192978, "roll": "0.00463542435318"}
{"pitch": "-0.0083655975759", "lat": 29.713305, "timestamp": 1603396107.300899, "alt": 30.44, "yaw": "2.02980709076", "lon": -95.4044259, "heading": 116, "speed": 0.06800000369548798, "roll": "0.00928294286132"}
{"pitch": "-0.0083655975759", "lat": 29.713305, "timestamp": 1603396107.30125, "alt": 30.44, "yaw": "2.02980709076", "lon": -95.4044259, "heading": 116, "speed": 0.06800000369548798, "roll": "0.00928294286132"}
{"pitch": "0.0134306922555", "lat": 29.7133049, "timestamp": 1603396107.802352, "alt": 30.46, "yaw": "2.04280376434", "lon": -95.4044254, "heading": 116, "speed": 0.026000000536441803, "roll": "0.0137857636437"}
{"pitch": "0.0134306922555", "lat": 29.7133049, "timestamp": 1603396107.803003, "alt": 30.46, "yaw": "2.04280376434", "lon": -95.4044254, "heading": 116, "speed": 0.026000000536441803, "roll": "0.0137857636437"}
{"pitch": "0.0152784604579", "lat": 29.7133048, "timestamp": 1603396108.304556, "alt": 30.49, "yaw": "2.05131149292", "lon": -95.4044249, "heading": 117, "speed": 0.11100000888109207, "roll": "0.0136436214671"}
{"pitch": "0.0152784604579", "lat": 29.7133048, "timestamp": 1603396108.305953, "alt": 30.49, "yaw": "2.05131149292", "lon": -95.4044249, "heading": 117, "speed": 0.11100000888109207, "roll": "0.0136436214671"}
{"pitch": "0.0063381367363", "lat": 29.7133048, "timestamp": 1603396108.808677, "alt": 30.49, "yaw": "2.04109406471", "lon": -95.4044248, "heading": 117, "speed": 0.10300000756978989, "roll": "0.0241544656456"}
{"pitch": "0.0063381367363", "lat": 29.7133048, "timestamp": 1603396108.810044, "alt": 30.49, "yaw": "2.04109406471", "lon": -95.4044248, "heading": 117, "speed": 0.10300000756978989, "roll": "0.0241544656456"}
{"pitch": "0.0103029031307", "lat": 29.7133045, "timestamp": 1603396109.310585, "alt": 30.54, "yaw": "2.04316139221", "lon": -95.4044249, "heading": 116, "speed": 0.17100000381469727, "roll": "0.00718792993575"}
{"pitch": "0.0103029031307", "lat": 29.7133045, "timestamp": 1603396109.311796, "alt": 30.54, "yaw": "2.04316139221", "lon": -95.4044249, "heading": 116, "speed": 0.17100000381469727, "roll": "0.00718792993575"}
{"pitch": "-0.00184184452519", "lat": 29.7133043, "timestamp": 1603396109.813307, "alt": 30.56, "yaw": "2.05862689018", "lon": -95.4044255, "heading": 117, "speed": 0.20900000631809235, "roll": "0.00468843523413"}
{"pitch": "-0.00184184452519", "lat": 29.7133043, "timestamp": 1603396109.815189, "alt": 30.56, "yaw": "2.05862689018", "lon": -95.4044255, "heading": 117, "speed": 0.20900000631809235, "roll": "0.00468843523413"}
{"pitch": "-0.00322945625521", "lat": 29.7133043, "timestamp": 1603396110.316858, "alt": 30.59, "yaw": "2.06126308441", "lon": -95.4044263, "heading": 118, "speed": 0.22800001502037048, "roll": "0.00900549255311"}
{"pitch": "-0.00322945625521", "lat": 29.7133043, "timestamp": 1603396110.318503, "alt": 30.59, "yaw": "2.06126308441", "lon": -95.4044263, "heading": 118, "speed": 0.22800001502037048, "roll": "0.00900549255311"}
{"pitch": "-0.0127495527267", "lat": 29.7133044, "timestamp": 1603396110.819811, "alt": 30.62, "yaw": "2.05934429169", "lon": -95.4044268, "heading": 118, "speed": 0.13900001347064972, "roll": "0.00496336538345"}
{"pitch": "-0.0127495527267", "lat": 29.7133044, "timestamp": 1603396110.820947, "alt": 30.62, "yaw": "2.05934429169", "lon": -95.4044268, "heading": 118, "speed": 0.13900001347064972, "roll": "0.00496336538345"}
{"pitch": "-0.011318128556", "lat": 29.7133044, "timestamp": 1603396111.321456, "alt": 30.63, "yaw": "2.05728673935", "lon": -95.404427, "heading": 117, "speed": 0.07000000029802322, "roll": "0.0013191611506"}
{"pitch": "-0.011318128556", "lat": 29.7133044, "timestamp": 1603396111.32223, "alt": 30.63, "yaw": "2.05728673935", "lon": -95.404427, "heading": 117, "speed": 0.07000000029802322, "roll": "0.0013191611506"}
{"pitch": "-0.0010227332823", "lat": 29.7133044, "timestamp": 1603396111.822666, "alt": 30.62, "yaw": "2.05657672882", "lon": -95.404427, "heading": 117, "speed": 0.08300000429153442, "roll": "0.000858621438965"}
{"pitch": "-0.0010227332823", "lat": 29.7133044, "timestamp": 1603396111.824073, "alt": 30.62, "yaw": "2.05657672882", "lon": -95.404427, "heading": 117, "speed": 0.08300000429153442, "roll": "0.000858621438965"}
{"pitch": "-0.000965895596892", "lat": 29.7133047, "timestamp": 1603396112.326178, "alt": 30.61, "yaw": "2.05402851105", "lon": -95.4044269, "heading": 117, "speed": 0.058000002056360245, "roll": "0.0175110865384"}
{"pitch": "-0.000965895596892", "lat": 29.7133047, "timestamp": 1603396112.327621, "alt": 30.61, "yaw": "2.05402851105", "lon": -95.4044269, "heading": 117, "speed": 0.058000002056360245, "roll": "0.0175110865384"}
{"pitch": "0.000452001579106", "lat": 29.713305, "timestamp": 1603396112.828371, "alt": 30.61, "yaw": "2.05789661407", "lon": -95.4044266, "heading": 117, "speed": 0.07700000703334808, "roll": "0.0277091246098"}
{"pitch": "0.000452001579106", "lat": 29.713305, "timestamp": 1603396112.830066, "alt": 30.61, "yaw": "2.05789661407", "lon": -95.4044266, "heading": 117, "speed": 0.07700000703334808, "roll": "0.0277091246098"}
{"pitch": "0.00382082676515", "lat": 29.7133048, "timestamp": 1603396113.33201, "alt": 30.62, "yaw": "2.05713367462", "lon": -95.4044265, "heading": 117, "speed": 0.11900000274181366, "roll": "0.0182170979679"}
{"pitch": "0.00382082676515", "lat": 29.7133048, "timestamp": 1603396113.333091, "alt": 30.62, "yaw": "2.05713367462", "lon": -95.4044265, "heading": 117, "speed": 0.11900000274181366, "roll": "0.0182170979679"}
{"pitch": "0.00832003168762", "lat": 29.7133048, "timestamp": 1603396113.837293, "alt": 30.62, "yaw": "2.06555318832", "lon": -95.4044265, "heading": 118, "speed": 0.1380000114440918, "roll": "0.00345193990506"}
{"pitch": "0.00832003168762", "lat": 29.7133048, "timestamp": 1603396113.840459, "alt": 30.62, "yaw": "2.06555318832", "lon": -95.4044265, "heading": 118, "speed": 0.1380000114440918, "roll": "0.00345193990506"}
{"pitch": "0.00978702120483", "lat": 29.7133047, "timestamp": 1603396114.342942, "alt": 30.64, "yaw": "2.06542420387", "lon": -95.4044266, "heading": 118, "speed": 0.03700000047683716, "roll": "-0.00792168918997"}
{"pitch": "0.00978702120483", "lat": 29.7133047, "timestamp": 1603396114.343999, "alt": 30.64, "yaw": "2.06542420387", "lon": -95.4044266, "heading": 118, "speed": 0.03700000047683716, "roll": "-0.00792168918997"}
{"pitch": "-0.00679453322664", "lat": 29.7133051, "timestamp": 1603396114.845691, "alt": 30.66, "yaw": "2.04790759087", "lon": -95.4044267, "heading": 117, "speed": 0.06100000441074371, "roll": "0.000929885776713"}
{"pitch": "-0.00679453322664", "lat": 29.7133051, "timestamp": 1603396114.846247, "alt": 30.66, "yaw": "2.04790759087", "lon": -95.4044267, "heading": 117, "speed": 0.06100000441074371, "roll": "0.000929885776713"}
{"pitch": "0.00561109604314", "lat": 29.7133056, "timestamp": 1603396115.347381, "alt": 30.66, "yaw": "2.05651545525", "lon": -95.4044263, "heading": 117, "speed": 0.10000000149011612, "roll": "0.025442911312"}
{"pitch": "0.00561109604314", "lat": 29.7133056, "timestamp": 1603396115.346797, "alt": 30.66, "yaw": "2.05651545525", "lon": -95.4044263, "heading": 117, "speed": 0.10000000149011612, "roll": "0.025442911312"}
{"pitch": "0.00599025422707", "lat": 29.7133058, "timestamp": 1603396115.848439, "alt": 30.66, "yaw": "2.0608997345", "lon": -95.4044259, "heading": 118, "speed": 0.07900000363588333, "roll": "0.0238997898996"}
{"pitch": "0.00599025422707", "lat": 29.7133058, "timestamp": 1603396115.849219, "alt": 30.66, "yaw": "2.0608997345", "lon": -95.4044259, "heading": 118, "speed": 0.07900000363588333, "roll": "0.0238997898996"}
{"pitch": "0.000635603908449", "lat": 29.7133059, "timestamp": 1603396116.352975, "alt": 30.68, "yaw": "2.05613636971", "lon": -95.4044257, "heading": 117, "speed": 0.07500000298023224, "roll": "0.0181607920676"}
{"pitch": "0.000635603908449", "lat": 29.7133059, "timestamp": 1603396116.353553, "alt": 30.68, "yaw": "2.05613636971", "lon": -95.4044257, "heading": 117, "speed": 0.07500000298023224, "roll": "0.0181607920676"}
{"pitch": "0.00482401577756", "lat": 29.713306, "timestamp": 1603396116.854127, "alt": 30.7, "yaw": "2.06227064133", "lon": -95.4044255, "heading": 118, "speed": 0.08800000697374344, "roll": "0.0238285325468"}
{"pitch": "0.00482401577756", "lat": 29.713306, "timestamp": 1603396116.854822, "alt": 30.7, "yaw": "2.06227064133", "lon": -95.4044255, "heading": 118, "speed": 0.08800000697374344, "roll": "0.0238285325468"}
{"pitch": "0.0108759794384", "lat": 29.713306, "timestamp": 1603396117.355377, "alt": 30.73, "yaw": "2.071215868", "lon": -95.4044255, "heading": 118, "speed": 0.04400000348687172, "roll": "0.0291116926819"}
{"pitch": "0.0108759794384", "lat": 29.713306, "timestamp": 1603396117.35596, "alt": 30.73, "yaw": "2.071215868", "lon": -95.4044255, "heading": 118, "speed": 0.04400000348687172, "roll": "0.0291116926819"}
{"pitch": "-0.00317703746259", "lat": 29.7133059, "timestamp": 1603396117.857135, "alt": 30.76, "yaw": "2.06768131256", "lon": -95.4044258, "heading": 118, "speed": 0.01600000075995922, "roll": "0.0208527538925"}
{"pitch": "-0.00317703746259", "lat": 29.7133059, "timestamp": 1603396117.857906, "alt": 30.76, "yaw": "2.06768131256", "lon": -95.4044258, "heading": 118, "speed": 0.01600000075995922, "roll": "0.0208527538925"}
{"pitch": "0.00503440340981", "lat": 29.7133056, "timestamp": 1603396118.358499, "alt": 30.79, "yaw": "2.06854104996", "lon": -95.404426, "heading": 118, "speed": 0.05400000140070915, "roll": "0.0144305797294"}
{"pitch": "0.00503440340981", "lat": 29.7133056, "timestamp": 1603396118.359064, "alt": 30.79, "yaw": "2.06854104996", "lon": -95.404426, "heading": 118, "speed": 0.05400000140070915, "roll": "0.0144305797294"}
{"pitch": "0.0104079563171", "lat": 29.7133052, "timestamp": 1603396118.859279, "alt": 30.82, "yaw": "2.0666012764", "lon": -95.4044261, "heading": 118, "speed": 0.04000000283122063, "roll": "0.0162499397993"}
{"pitch": "0.0104079563171", "lat": 29.7133052, "timestamp": 1603396118.860043, "alt": 30.82, "yaw": "2.0666012764", "lon": -95.4044261, "heading": 118, "speed": 0.04000000283122063, "roll": "0.0162499397993"}
{"pitch": "0.00699073867872", "lat": 29.7133049, "timestamp": 1603396119.36049, "alt": 30.85, "yaw": "2.06169629097", "lon": -95.4044262, "heading": 118, "speed": 0.03500000014901161, "roll": "0.016134839505"}
{"pitch": "0.00699073867872", "lat": 29.7133049, "timestamp": 1603396119.36114, "alt": 30.85, "yaw": "2.06169629097", "lon": -95.4044262, "heading": 118, "speed": 0.03500000014901161, "roll": "0.016134839505"}
{"pitch": "0.0136381201446", "lat": 29.7133048, "timestamp": 1603396119.861692, "alt": 30.86, "yaw": "2.06790971756", "lon": -95.4044263, "heading": 118, "speed": 0.05900000408291817, "roll": "0.012485280633"}
{"pitch": "0.0136381201446", "lat": 29.7133048, "timestamp": 1603396119.862282, "alt": 30.86, "yaw": "2.06790971756", "lon": -95.4044263, "heading": 118, "speed": 0.05900000408291817, "roll": "0.012485280633"}
{"pitch": "0.00933622196317", "lat": 29.7133047, "timestamp": 1603396120.362788, "alt": 30.89, "yaw": "2.06255841255", "lon": -95.4044265, "heading": 118, "speed": 0.021000001579523087, "roll": "0.0104189552367"}
{"pitch": "0.00933622196317", "lat": 29.7133047, "timestamp": 1603396120.363477, "alt": 30.89, "yaw": "2.06255841255", "lon": -95.4044265, "heading": 118, "speed": 0.021000001579523087, "roll": "0.0104189552367"}
{"pitch": "0.0016277753748", "lat": 29.7133048, "timestamp": 1603396120.863714, "alt": 30.91, "yaw": "2.05090665817", "lon": -95.4044268, "heading": 117, "speed": 0.08500000089406967, "roll": "0.0135694500059"}
{"pitch": "0.0016277753748", "lat": 29.7133048, "timestamp": 1603396120.864419, "alt": 30.91, "yaw": "2.05090665817", "lon": -95.4044268, "heading": 117, "speed": 0.08500000089406967, "roll": "0.0135694500059"}
{"pitch": "0.00482362834737", "lat": 29.713305, "timestamp": 1603396121.369767, "alt": 30.94, "yaw": "2.0481698513", "lon": -95.4044268, "heading": 117, "speed": 0.1080000028014183, "roll": "0.0286442246288"}
{"pitch": "0.00482362834737", "lat": 29.713305, "timestamp": 1603396121.370322, "alt": 30.94, "yaw": "2.0481698513", "lon": -95.4044268, "heading": 117, "speed": 0.1080000028014183, "roll": "0.0286442246288"}
{"pitch": "0.0103346221149", "lat": 29.7133051, "timestamp": 1603396121.870907, "alt": 30.93, "yaw": "2.03992080688", "lon": -95.4044268, "heading": 117, "speed": 0.10500000417232513, "roll": "0.0212157554924"}
{"pitch": "0.0103346221149", "lat": 29.7133051, "timestamp": 1603396121.871504, "alt": 30.93, "yaw": "2.03992080688", "lon": -95.4044268, "heading": 117, "speed": 0.10500000417232513, "roll": "0.0212157554924"}
{"pitch": "0.00561481388286", "lat": 29.7133052, "timestamp": 1603396122.371573, "alt": 30.93, "yaw": "2.03661394119", "lon": -95.4044267, "heading": 116, "speed": 0.0820000022649765, "roll": "0.0199665613472"}
{"pitch": "0.00561481388286", "lat": 29.7133052, "timestamp": 1603396122.372542, "alt": 30.93, "yaw": "2.03661394119", "lon": -95.4044267, "heading": 116, "speed": 0.0820000022649765, "roll": "0.0199665613472"}
{"pitch": "0.0103060118854", "lat": 29.7133051, "timestamp": 1603396122.872682, "alt": 30.93, "yaw": "2.04841375351", "lon": -95.4044264, "heading": 117, "speed": 0.11400000751018524, "roll": "0.0194598212838"}
{"pitch": "0.0103060118854", "lat": 29.7133051, "timestamp": 1603396122.873511, "alt": 30.93, "yaw": "2.04841375351", "lon": -95.4044264, "heading": 117, "speed": 0.11400000751018524, "roll": "0.0194598212838"}
{"pitch": "0.0136881824583", "lat": 29.713305, "timestamp": 1603396123.373957, "alt": 30.93, "yaw": "2.06003785133", "lon": -95.4044262, "heading": 118, "speed": 0.08700000494718552, "roll": "0.0204267986119"}
{"pitch": "0.0136881824583", "lat": 29.713305, "timestamp": 1603396123.374659, "alt": 30.93, "yaw": "2.06003785133", "lon": -95.4044262, "heading": 118, "speed": 0.08700000494718552, "roll": "0.0204267986119"}
{"pitch": "0.0140166096389", "lat": 29.7133051, "timestamp": 1603396123.875217, "alt": 30.93, "yaw": "2.07231140137", "lon": -95.4044259, "heading": 118, "speed": 0.07900000363588333, "roll": "0.0247155837715"}
{"pitch": "0.0140166096389", "lat": 29.7133051, "timestamp": 1603396123.875837, "alt": 30.93, "yaw": "2.07231140137", "lon": -95.4044259, "heading": 118, "speed": 0.07900000363588333, "roll": "0.0247155837715"}
{"pitch": "0.0225949827582", "lat": 29.7133053, "timestamp": 1603396124.376387, "alt": 30.93, "yaw": "2.0625462532", "lon": -95.4044256, "heading": 118, "speed": 0.04700000211596489, "roll": "0.0204528085887"}
{"pitch": "0.0225949827582", "lat": 29.7133053, "timestamp": 1603396124.377522, "alt": 30.93, "yaw": "2.0625462532", "lon": -95.4044256, "heading": 118, "speed": 0.04700000211596489, "roll": "0.0204528085887"}
{"pitch": "0.00713120726869", "lat": 29.7133056, "timestamp": 1603396124.879348, "alt": 30.94, "yaw": "2.06275486946", "lon": -95.4044253, "heading": 118, "speed": 0.04000000283122063, "roll": "0.0289916396141"}
{"pitch": "0.00713120726869", "lat": 29.7133056, "timestamp": 1603396124.879958, "alt": 30.94, "yaw": "2.06275486946", "lon": -95.4044253, "heading": 118, "speed": 0.04000000283122063, "roll": "0.0289916396141"}
{"pitch": "0.0194598492235", "lat": 29.7133057, "timestamp": 1603396125.381173, "alt": 30.94, "yaw": "2.07543540001", "lon": -95.4044253, "heading": 118, "speed": 0.0560000017285347, "roll": "0.0278489161283"}
{"pitch": "0.0194598492235", "lat": 29.7133057, "timestamp": 1603396125.38174, "alt": 30.94, "yaw": "2.07543540001", "lon": -95.4044253, "heading": 118, "speed": 0.0560000017285347, "roll": "0.0278489161283"}
{"pitch": "0.0151677783579", "lat": 29.7133055, "timestamp": 1603396125.882459, "alt": 30.94, "yaw": "2.07399606705", "lon": -95.4044254, "heading": 118, "speed": 0.15800000727176666, "roll": "0.0295233726501"}
{"pitch": "0.0151677783579", "lat": 29.7133055, "timestamp": 1603396125.882374, "alt": 30.94, "yaw": "2.07399606705", "lon": -95.4044254, "heading": 118, "speed": 0.15800000727176666, "roll": "0.0295233726501"}
{"pitch": "0.0105220954865", "lat": 29.7133051, "timestamp": 1603396126.38566, "alt": 30.91, "yaw": "2.0684094429", "lon": -95.404426, "heading": 118, "speed": 0.1980000138282776, "roll": "0.0147420000285"}
{"pitch": "0.0105220954865", "lat": 29.7133051, "timestamp": 1603396126.386278, "alt": 30.91, "yaw": "2.0684094429", "lon": -95.404426, "heading": 118, "speed": 0.1980000138282776, "roll": "0.0147420000285"}
{"pitch": "0.00445848470554", "lat": 29.7133048, "timestamp": 1603396126.886848, "alt": 30.91, "yaw": "2.06217813492", "lon": -95.4044266, "heading": 118, "speed": 0.04000000283122063, "roll": "-0.0222386643291"}
{"pitch": "0.00445848470554", "lat": 29.7133048, "timestamp": 1603396126.887438, "alt": 30.91, "yaw": "2.06217813492", "lon": -95.4044266, "heading": 118, "speed": 0.04000000283122063, "roll": "-0.0222386643291"}
{"pitch": "0.0063445311971", "lat": 29.7133051, "timestamp": 1603396127.387994, "alt": 30.91, "yaw": "2.06349802017", "lon": -95.4044265, "heading": 118, "speed": 0.046000003814697266, "roll": "0.0216773189604"}
{"pitch": "0.0063445311971", "lat": 29.7133051, "timestamp": 1603396127.388539, "alt": 30.91, "yaw": "2.06349802017", "lon": -95.4044265, "heading": 118, "speed": 0.046000003814697266, "roll": "0.0216773189604"}
{"pitch": "0.00624958379194", "lat": 29.7133052, "timestamp": 1603396127.88913, "alt": 30.91, "yaw": "2.04751753807", "lon": -95.4044265, "heading": 117, "speed": 0.0690000057220459, "roll": "0.0387579351664"}
{"pitch": "0.00624958379194", "lat": 29.7133052, "timestamp": 1603396127.889699, "alt": 30.91, "yaw": "2.04751753807", "lon": -95.4044265, "heading": 117, "speed": 0.0690000057220459, "roll": "0.0387579351664"}
{"pitch": "0.00434203678742", "lat": 29.7133048, "timestamp": 1603396128.390763, "alt": 30.92, "yaw": "2.04492902756", "lon": -95.4044265, "heading": 117, "speed": 0.027000000700354576, "roll": "0.0122525682673"}
{"pitch": "0.00434203678742", "lat": 29.7133048, "timestamp": 1603396128.391388, "alt": 30.92, "yaw": "2.04492902756", "lon": -95.4044265, "heading": 117, "speed": 0.027000000700354576, "roll": "0.0122525682673"}
{"pitch": "0.0158798843622", "lat": 29.7133044, "timestamp": 1603396128.891974, "alt": 30.92, "yaw": "2.05368852615", "lon": -95.4044264, "heading": 117, "speed": 0.05400000140070915, "roll": "-0.00992071442306"}
{"pitch": "0.0158798843622", "lat": 29.7133044, "timestamp": 1603396128.892554, "alt": 30.92, "yaw": "2.05368852615", "lon": -95.4044264, "heading": 117, "speed": 0.05400000140070915, "roll": "-0.00992071442306"}
{"pitch": "0.0350635014474", "lat": 29.7133044, "timestamp": 1603396129.393144, "alt": 30.79, "yaw": "2.09308195114", "lon": -95.4044261, "heading": 119, "speed": 0.04700000211596489, "roll": "0.012850029394"}
{"pitch": "0.0350635014474", "lat": 29.7133044, "timestamp": 1603396129.393695, "alt": 30.79, "yaw": "2.09308195114", "lon": -95.4044261, "heading": 119, "speed": 0.04700000211596489, "roll": "0.012850029394"}
{"pitch": "0.0334737636149", "lat": 29.7133048, "timestamp": 1603396129.894048, "alt": 30.38, "yaw": "2.12879276276", "lon": -95.4044262, "heading": 121, "speed": 0.3330000042915344, "roll": "0.0022287806496"}
{"pitch": "0.0334737636149", "lat": 29.7133048, "timestamp": 1603396129.894697, "alt": 30.38, "yaw": "2.12879276276", "lon": -95.4044262, "heading": 121, "speed": 0.3330000042915344, "roll": "0.0022287806496"}
{"pitch": "-0.00474023586139", "lat": 29.7133053, "timestamp": 1603396130.395279, "alt": 30.04, "yaw": "2.10658454895", "lon": -95.4044259, "heading": 118, "speed": 0.22500000894069672, "roll": "0.00907978974283"}{"pitch": "-0.00474023586139", "lat": 29.7133053, "timestamp": 1603396130.395824, "alt": 30.04, "yaw": "2.10658454895", "lon": -95.4044259, "heading": 118, "speed": 0.22500000894069672, "roll": "0.00907978974283"}

{"pitch": "0.0016951286234", "lat": 29.7133061, "timestamp": 1603396130.897193, "alt": 29.2, "yaw": "2.03755903244", "lon": -95.4044245, "heading": 116, "speed": 0.1720000058412552, "roll": "0.0273409225047"}{"pitch": "0.0016951286234", "lat": 29.7133061, "timestamp": 1603396130.898082, "alt": 29.2, "yaw": "2.03755903244", "lon": -95.4044245, "heading": 116, "speed": 0.1720000058412552, "roll": "0.0273409225047"}

{"pitch": "0.0784571170807", "lat": 29.7133067, "timestamp": 1603396131.399836, "alt": 28.39, "yaw": "2.05216789246", "lon": -95.4044233, "heading": 117, "speed": 0.1860000044107437, "roll": "0.0451423376799"}
{"pitch": "0.0784571170807", "lat": 29.7133067, "timestamp": 1603396131.400947, "alt": 28.39, "yaw": "2.05216789246", "lon": -95.4044233, "heading": 117, "speed": 0.1860000044107437, "roll": "0.0451423376799"}
{"pitch": "0.0393761247396", "lat": 29.7133075, "timestamp": 1603396131.901003, "alt": 27.56, "yaw": "2.05416321754", "lon": -95.4044239, "heading": 117, "speed": 0.28300002217292786, "roll": "0.0586259141564"}
{"pitch": "0.0393761247396", "lat": 29.7133075, "timestamp": 1603396131.901918, "alt": 27.56, "yaw": "2.05416321754", "lon": -95.4044239, "heading": 117, "speed": 0.28300002217292786, "roll": "0.0586259141564"}
{"pitch": "0.0403394773602", "lat": 29.7133082, "timestamp": 1603396132.402129, "alt": 26.7, "yaw": "2.06139373779", "lon": -95.404426, "heading": 118, "speed": 0.40300002694129944, "roll": "0.0534691996872"}
{"pitch": "0.0403394773602", "lat": 29.7133082, "timestamp": 1603396132.402871, "alt": 26.7, "yaw": "2.06139373779", "lon": -95.404426, "heading": 118, "speed": 0.40300002694129944, "roll": "0.0534691996872"}
{"pitch": "0.0110747683793", "lat": 29.7133085, "timestamp": 1603396132.903283, "alt": 26.33, "yaw": "2.05678701401", "lon": -95.4044272, "heading": 117, "speed": 0.40400001406669617, "roll": "0.0248815715313"}
{"pitch": "0.0110747683793", "lat": 29.7133085, "timestamp": 1603396132.903934, "alt": 26.33, "yaw": "2.05678701401", "lon": -95.4044272, "heading": 117, "speed": 0.40400001406669617, "roll": "0.0248815715313"}
{"pitch": "-0.0183759145439", "lat": 29.713309, "timestamp": 1603396133.404658, "alt": 25.51, "yaw": "2.05407357216", "lon": -95.4044296, "heading": 117, "speed": 0.4740000367164612, "roll": "0.0259743835777"}
{"pitch": "-0.0183759145439", "lat": 29.713309, "timestamp": 1603396133.405207, "alt": 25.51, "yaw": "2.05407357216", "lon": -95.4044296, "heading": 117, "speed": 0.4740000367164612, "roll": "0.0259743835777"}
{"pitch": "0.0359850637615", "lat": 29.7133092, "timestamp": 1603396133.906086, "alt": 24.65, "yaw": "2.07300281525", "lon": -95.4044314, "heading": 118, "speed": 0.30900001525878906, "roll": "0.0391725562513"}
{"pitch": "0.0359850637615", "lat": 29.7133092, "timestamp": 1603396133.90677, "alt": 24.65, "yaw": "2.07300281525", "lon": -95.4044314, "heading": 118, "speed": 0.30900001525878906, "roll": "0.0391725562513"}
{"pitch": "0.0188413895667", "lat": 29.7133093, "timestamp": 1603396134.407192, "alt": 23.84, "yaw": "2.09472155571", "lon": -95.4044332, "heading": 119, "speed": 0.32500001788139343, "roll": "0.0290813632309"}
{"pitch": "0.0188413895667", "lat": 29.7133093, "timestamp": 1603396134.407749, "alt": 23.84, "yaw": "2.09472155571", "lon": -95.4044332, "heading": 119, "speed": 0.32500001788139343, "roll": "0.0290813632309"}
{"pitch": "0.000468815211207", "lat": 29.7133098, "timestamp": 1603396134.908778, "alt": 23.04, "yaw": "2.08796310425", "lon": -95.4044352, "heading": 119, "speed": 0.3100000023841858, "roll": "0.0247374828905"}
{"pitch": "0.000468815211207", "lat": 29.7133098, "timestamp": 1603396134.909476, "alt": 23.04, "yaw": "2.08796310425", "lon": -95.4044352, "heading": 119, "speed": 0.3100000023841858, "roll": "0.0247374828905"}
{"pitch": "-0.0160961076617", "lat": 29.71331, "timestamp": 1603396135.410509, "alt": 22.19, "yaw": "2.0879881382", "lon": -95.404437, "heading": 119, "speed": 0.34700000286102295, "roll": "0.0438291467726"}{"pitch": "-0.0160961076617", "lat": 29.71331, "timestamp": 1603396135.411043, "alt": 22.19, "yaw": "2.0879881382", "lon": -95.404437, "heading": 119, "speed": 0.34700000286102295, "roll": "0.0438291467726"}

{"pitch": "-0.0070893522352", "lat": 29.7133098, "timestamp": 1603396135.912143, "alt": 21.78, "yaw": "2.11529016495", "lon": -95.4044378, "heading": 121, "speed": 0.2750000059604645, "roll": "0.026141108945"}{"pitch": "-0.0070893522352", "lat": 29.7133098, "timestamp": 1603396135.912664, "alt": 21.78, "yaw": "2.11529016495", "lon": -95.4044378, "heading": 121, "speed": 0.2750000059604645, "roll": "0.026141108945"}

{"pitch": "-0.00763571634889", "lat": 29.7133095, "timestamp": 1603396136.413904, "alt": 21.04, "yaw": "2.08054018021", "lon": -95.4044393, "heading": 118, "speed": 0.28200000524520874, "roll": "0.0279398653656"}
{"pitch": "-0.00763571634889", "lat": 29.7133095, "timestamp": 1603396136.419985, "alt": 21.04, "yaw": "2.08054018021", "lon": -95.4044393, "heading": 118, "speed": 0.28200000524520874, "roll": "0.0279398653656"}
{"pitch": "-0.0195799469948", "lat": 29.7133092, "timestamp": 1603396136.915108, "alt": 20.41, "yaw": "2.02815675735", "lon": -95.4044405, "heading": 116, "speed": 0.35100001096725464, "roll": "0.0360901765525"}
{"pitch": "-0.0195799469948", "lat": 29.7133092, "timestamp": 1603396136.921053, "alt": 20.41, "yaw": "2.02815675735", "lon": -95.4044405, "heading": 116, "speed": 0.35100001096725464, "roll": "0.0360901765525"}
{"pitch": "-0.00156780984253", "lat": 29.7133079, "timestamp": 1603396137.416212, "alt": 20.09, "yaw": "2.04384541512", "lon": -95.4044415, "heading": 116, "speed": 0.27800002694129944, "roll": "-0.0332527384162"}
{"pitch": "-0.00156780984253", "lat": 29.7133079, "timestamp": 1603396137.422191, "alt": 20.09, "yaw": "2.04384541512", "lon": -95.4044415, "heading": 116, "speed": 0.27800002694129944, "roll": "-0.0332527384162"}
{"pitch": "0.000710420776159", "lat": 29.7133075, "timestamp": 1603396137.917295, "alt": 19.85, "yaw": "2.05642557144", "lon": -95.4044419, "heading": 118, "speed": 0.3410000205039978, "roll": "-0.0306247770786"}
{"pitch": "0.000710420776159", "lat": 29.7133075, "timestamp": 1603396137.92397, "alt": 19.85, "yaw": "2.05642557144", "lon": -95.4044419, "heading": 118, "speed": 0.3410000205039978, "roll": "-0.0306247770786"}
{"pitch": "-0.0128891244531", "lat": 29.7133077, "timestamp": 1603396138.418459, "alt": 19.66, "yaw": "2.06716227531", "lon": -95.4044421, "heading": 118, "speed": 0.23100000619888306, "roll": "-0.00915276445448"}
{"pitch": "-0.0128891244531", "lat": 29.7133077, "timestamp": 1603396138.427289, "alt": 19.66, "yaw": "2.06716227531", "lon": -95.4044421, "heading": 118, "speed": 0.23100000619888306, "roll": "-0.00915276445448"}
{"pitch": "-0.00285477587022", "lat": 29.7133084, "timestamp": 1603396138.91976, "alt": 19.35, "yaw": "2.0643556118", "lon": -95.4044416, "heading": 118, "speed": 0.021000001579523087, "roll": "1.87302939594e-05"}
{"pitch": "-0.00285477587022", "lat": 29.7133084, "timestamp": 1603396138.92849, "alt": 19.35, "yaw": "2.0643556118", "lon": -95.4044416, "heading": 118, "speed": 0.021000001579523087, "roll": "1.87302939594e-05"}
{"pitch": "-0.00502787576988", "lat": 29.7133089, "timestamp": 1603396139.421518, "alt": 19.09, "yaw": "2.07031583786", "lon": -95.4044412, "heading": 118, "speed": 0.23400001227855682, "roll": "-0.00740583054721"}
{"pitch": "-0.00502787576988", "lat": 29.7133089, "timestamp": 1603396139.430477, "alt": 19.09, "yaw": "2.07031583786", "lon": -95.4044412, "heading": 118, "speed": 0.23400001227855682, "roll": "-0.00740583054721"}
{"pitch": "-0.00774197420105", "lat": 29.7133097, "timestamp": 1603396139.923952, "alt": 18.81, "yaw": "2.07067298889", "lon": -95.4044409, "heading": 118, "speed": 0.17400000989437103, "roll": "-0.000418182229623"}
{"pitch": "-0.00774197420105", "lat": 29.7133097, "timestamp": 1603396139.932284, "alt": 18.81, "yaw": "2.07067298889", "lon": -95.4044409, "heading": 118, "speed": 0.17400000989437103, "roll": "-0.000418182229623"}
{"pitch": "-0.00357661559246", "lat": 29.7133107, "timestamp": 1603396140.427193, "alt": 18.55, "yaw": "2.07650184631", "lon": -95.4044408, "heading": 118, "speed": 0.39100003242492676, "roll": "0.0133783593774"}
{"pitch": "-0.00357661559246", "lat": 29.7133107, "timestamp": 1603396140.435332, "alt": 18.55, "yaw": "2.07650184631", "lon": -95.4044408, "heading": 118, "speed": 0.39100003242492676, "roll": "0.0133783593774"}
{"pitch": "-0.00290092942305", "lat": 29.7133112, "timestamp": 1603396140.930789, "alt": 18.43, "yaw": "2.09251379967", "lon": -95.404441, "heading": 119, "speed": 0.05400000140070915, "roll": "-0.00327939284034"}
{"pitch": "-0.00290092942305", "lat": 29.7133112, "timestamp": 1603396140.943696, "alt": 18.43, "yaw": "2.09251379967", "lon": -95.404441, "heading": 119, "speed": 0.05400000140070915, "roll": "-0.00327939284034"}
