{"pitch": "-0.000381071120501", "lat": 29.7132059, "timestamp": 1603389856.94668, "alt": 14.64, "yaw": "2.10157775879", "lon": -95.404502, "heading": 120, "speed": 0.010000000707805157, "roll": "0.0428919121623"}
{"pitch": "-0.000381071120501", "lat": 29.7132059, "timestamp": 1603389857.455002, "alt": 14.64, "yaw": "2.10157775879", "lon": -95.404502, "heading": 120, "speed": 0.012000000104308128, "roll": "0.0428919121623"}
{"pitch": "-0.00114189460874", "lat": 29.7132064, "timestamp": 1603389857.956152, "alt": 14.67, "yaw": "2.10167646408", "lon": -95.404503, "heading": 120, "speed": 0.021000001579523087, "roll": "0.0428930111229"}
{"pitch": "-0.00134042650461", "lat": 29.7132066, "timestamp": 1603389858.457512, "alt": 14.68, "yaw": "2.10161018372", "lon": -95.4045033, "heading": 120, "speed": 0.02200000174343586, "roll": "0.0429510250688"}
{"pitch": "-0.00121263042092", "lat": 29.7132067, "timestamp": 1603389858.958525, "alt": 14.71, "yaw": "2.10171461105", "lon": -95.4045037, "heading": 120, "speed": 0.01100000087171793, "roll": "0.042939864099"}
{"pitch": "-0.00130289047956", "lat": 29.7132069, "timestamp": 1603389859.460159, "alt": 14.72, "yaw": "2.1017036438", "lon": -95.404504, "heading": 120, "speed": 0.03800000250339508, "roll": "0.0429584085941"}
{"pitch": "-0.00127862766385", "lat": 29.7132071, "timestamp": 1603389859.961547, "alt": 14.74, "yaw": "2.10163021088", "lon": -95.4045044, "heading": 120, "speed": 0.009000000543892384, "roll": "0.0429088026285"}
{"pitch": "-0.00136326998472", "lat": 29.7132072, "timestamp": 1603389860.462569, "alt": 14.76, "yaw": "2.10168933868", "lon": -95.4045047, "heading": 120, "speed": 0.0430000014603138, "roll": "0.0429885387421"}
{"pitch": "-0.00136736035347", "lat": 29.7132073, "timestamp": 1603389860.96372, "alt": 14.78, "yaw": "2.10183191299", "lon": -95.4045051, "heading": 120, "speed": 0.014000000432133675, "roll": "0.04302437976"}
{"pitch": "-0.00141195580363", "lat": 29.7132077, "timestamp": 1603389861.46491, "alt": 14.84, "yaw": "2.1017844677", "lon": -95.4045057, "heading": 120, "speed": 0.020000001415610313, "roll": "0.0430464223027"}
{"pitch": "-0.00126684829593", "lat": 29.7132079, "timestamp": 1603389861.966072, "alt": 14.88, "yaw": "2.10178089142", "lon": -95.4045061, "heading": 120, "speed": 0.014000000432133675, "roll": "0.0430017448962"}
{"pitch": "-0.00114715844393", "lat": 29.7132082, "timestamp": 1603389862.467208, "alt": 14.93, "yaw": "2.10187530518", "lon": -95.4045065, "heading": 120, "speed": 0.012000000104308128, "roll": "0.0430124104023"}
{"pitch": "-0.0010149218142", "lat": 29.7132085, "timestamp": 1603389862.968366, "alt": 14.98, "yaw": "2.10193657875", "lon": -95.4045067, "heading": 120, "speed": 0.021000001579523087, "roll": "0.0430454909801"}
{"pitch": "-0.000846475362778", "lat": 29.7132087, "timestamp": 1603389863.471468, "alt": 15.05, "yaw": "2.1019821167", "lon": -95.4045069, "heading": 120, "speed": 0.02800000086426735, "roll": "0.0430639609694"}
{"pitch": "-0.00104229897261", "lat": 29.7132089, "timestamp": 1603389863.972751, "alt": 15.08, "yaw": "2.10190272331", "lon": -95.4045069, "heading": 120, "speed": 0.030000001192092896, "roll": "0.0430345274508"}
{"pitch": "-0.00109527632594", "lat": 29.7132091, "timestamp": 1603389864.474073, "alt": 15.12, "yaw": "2.10205221176", "lon": -95.404507, "heading": 120, "speed": 0.036000002175569534, "roll": "0.0430495813489"}
{"pitch": "-0.00120775029063", "lat": 29.7132093, "timestamp": 1603389864.975164, "alt": 15.15, "yaw": "2.10221242905", "lon": -95.404507, "heading": 120, "speed": 0.023000001907348633, "roll": "0.0430630147457"}
{"pitch": "-0.00125202536583", "lat": 29.7132096, "timestamp": 1603389865.475825, "alt": 15.18, "yaw": "2.10227656364", "lon": -95.4045071, "heading": 120, "speed": 0.026000000536441803, "roll": "0.043102286756"}
{"pitch": "-0.0011827647686", "lat": 29.7132099, "timestamp": 1603389865.977134, "alt": 15.2, "yaw": "2.10224723816", "lon": -95.404507, "heading": 120, "speed": 0.04400000348687172, "roll": "0.0429721027613"}
{"pitch": "-0.00129803270102", "lat": 29.7132101, "timestamp": 1603389866.478375, "alt": 15.21, "yaw": "2.10235977173", "lon": -95.4045068, "heading": 120, "speed": 0.026000000536441803, "roll": "0.0428966619074"}
{"pitch": "-0.00121466442943", "lat": 29.7132103, "timestamp": 1603389866.979632, "alt": 15.21, "yaw": "2.10233783722", "lon": -95.4045066, "heading": 120, "speed": 0.013000000268220901, "roll": "0.0427980162203"}
{"pitch": "-0.00119079276919", "lat": 29.7132105, "timestamp": 1603389867.481194, "alt": 15.2, "yaw": "2.10238361359", "lon": -95.4045063, "heading": 120, "speed": 0.014000000432133675, "roll": "0.0426629967988"}
{"pitch": "-0.00111308693886", "lat": 29.7132106, "timestamp": 1603389867.982689, "alt": 15.2, "yaw": "2.10245895386", "lon": -95.404506, "heading": 120, "speed": 0.01900000125169754, "roll": "0.0426879227161"}
{"pitch": "-0.00101276859641", "lat": 29.7132108, "timestamp": 1603389868.501477, "alt": 15.2, "yaw": "2.10273170471", "lon": -95.4045054, "heading": 120, "speed": 0.036000002175569534, "roll": "0.042770139873"}
{"pitch": "-0.00101822987199", "lat": 29.7132109, "timestamp": 1603389869.003231, "alt": 15.2, "yaw": "2.10286664963", "lon": -95.4045049, "heading": 120, "speed": 0.02200000174343586, "roll": "0.0427506491542"}
{"pitch": "-0.000854957848787", "lat": 29.713211, "timestamp": 1603389869.504425, "alt": 15.19, "yaw": "2.10300159454", "lon": -95.4045045, "heading": 120, "speed": 0.03100000135600567, "roll": "0.042836483568"}
{"pitch": "-0.000734739005566", "lat": 29.7132111, "timestamp": 1603389870.005647, "alt": 15.19, "yaw": "2.10297131538", "lon": -95.4045042, "heading": 120, "speed": 0.012000000104308128, "roll": "0.0428819209337"}
{"pitch": "-0.000499654561281", "lat": 29.7132112, "timestamp": 1603389870.506826, "alt": 15.19, "yaw": "2.10301303864", "lon": -95.4045038, "heading": 120, "speed": 0.01600000075995922, "roll": "0.0428609549999"}
{"pitch": "-0.000399932265282", "lat": 29.7132112, "timestamp": 1603389871.008122, "alt": 15.18, "yaw": "2.10312175751", "lon": -95.4045034, "heading": 120, "speed": 0.04700000211596489, "roll": "0.0429084897041"}
{"pitch": "-0.000255022197962", "lat": 29.7132112, "timestamp": 1603389871.509353, "alt": 15.14, "yaw": "2.10319447517", "lon": -95.404503, "heading": 120, "speed": 0.020000001415610313, "roll": "0.0428951829672"}
{"pitch": "4.62047755718e-05", "lat": 29.7132113, "timestamp": 1603389872.010507, "alt": 15.12, "yaw": "2.10318827629", "lon": -95.4045027, "heading": 120, "speed": 0.023000001907348633, "roll": "0.0429193526506"}
{"pitch": "0.0002671033144", "lat": 29.7132113, "timestamp": 1603389872.511693, "alt": 15.07, "yaw": "2.10331892967", "lon": -95.4045024, "heading": 120, "speed": 0.009000000543892384, "roll": "0.0428907647729"}
{"pitch": "0.000392768532038", "lat": 29.7132114, "timestamp": 1603389872.77192, "alt": 15.06, "yaw": "2.10330247879", "lon": -95.4045023, "heading": 120, "speed": 0.027000000700354576, "roll": "0.0429590493441"}
{"pitch": "0.000426489859819", "lat": 29.7132114, "timestamp": 1603389873.012999, "alt": 15.04, "yaw": "2.1032333374", "lon": -95.4045022, "heading": 120, "speed": 0.027000000700354576, "roll": "0.0429683737457"}
{"pitch": "0.000454865396023", "lat": 29.7132114, "timestamp": 1603389873.273644, "alt": 15.04, "yaw": "2.1032128334", "lon": -95.4045021, "heading": 120, "speed": 0.005000000353902578, "roll": "0.0429219081998"}
{"pitch": "0.000524707138538", "lat": 29.7132113, "timestamp": 1603389873.518725, "alt": 15.02, "yaw": "2.10332107544", "lon": -95.404502, "heading": 120, "speed": 0.015000000596046448, "roll": "0.0430203005672"}
{"pitch": "0.000502724200487", "lat": 29.7132113, "timestamp": 1603389873.7755, "alt": 15.0, "yaw": "2.10330820084", "lon": -95.4045019, "heading": 120, "speed": 0.03200000151991844, "roll": "0.0430571176112"}
{"pitch": "0.000570397824049", "lat": 29.7132113, "timestamp": 1603389874.019836, "alt": 14.99, "yaw": "2.10336112976", "lon": -95.4045018, "heading": 120, "speed": 0.00800000037997961, "roll": "0.0430826693773"}
{"pitch": "0.000650525093079", "lat": 29.7132113, "timestamp": 1603389874.277507, "alt": 14.97, "yaw": "2.10329818726", "lon": -95.4045017, "heading": 120, "speed": 0.04400000348687172, "roll": "0.0430739596486"}
{"pitch": "0.000767249614", "lat": 29.7132113, "timestamp": 1603389874.520937, "alt": 14.95, "yaw": "2.10332036018", "lon": -95.4045017, "heading": 120, "speed": 0.010000000707805157, "roll": "0.0430936142802"}
{"pitch": "0.000911790877581", "lat": 29.7132113, "timestamp": 1603389874.7783, "alt": 14.93, "yaw": "2.10331845284", "lon": -95.4045017, "heading": 120, "speed": 0.01600000075995922, "roll": "0.043036673218"}
{"pitch": "0.00102466344833", "lat": 29.7132113, "timestamp": 1603389875.022076, "alt": 14.92, "yaw": "2.10343575478", "lon": -95.4045017, "heading": 120, "speed": 0.02800000086426735, "roll": "0.0430036261678"}
{"pitch": "0.00110179930925", "lat": 29.7132113, "timestamp": 1603389875.279482, "alt": 14.89, "yaw": "2.1038351059", "lon": -95.4045017, "heading": 120, "speed": 0.03400000184774399, "roll": "0.0429973267019"}
{"pitch": "0.00111546739936", "lat": 29.7132113, "timestamp": 1603389875.523309, "alt": 14.88, "yaw": "2.10380649567", "lon": -95.4045018, "heading": 120, "speed": 0.03800000250339508, "roll": "0.043225646019"}
{"pitch": "0.00111546739936", "lat": 29.7132113, "timestamp": 1603389875.781616, "alt": 14.88, "yaw": "2.10380649567", "lon": -95.4045019, "heading": 120, "speed": 0.03800000250339508, "roll": "0.043225646019"}
{"pitch": "-0.000453647226095", "lat": 29.7132113, "timestamp": 1603389876.024733, "alt": 14.9, "yaw": "2.10243153572", "lon": -95.4045019, "heading": 120, "speed": 0.01600000075995922, "roll": "0.0432524308562"}
{"pitch": "-0.0151151474565", "lat": 29.7132114, "timestamp": 1603389876.283177, "alt": 15.03, "yaw": "2.0767288208", "lon": -95.404502, "heading": 118, "speed": 0.015000000596046448, "roll": "0.0350199192762"}
{"pitch": "-0.0259630866349", "lat": 29.7132116, "timestamp": 1603389876.52602, "alt": 15.22, "yaw": "1.98907661438", "lon": -95.404502, "heading": 113, "speed": 0.0860000029206276, "roll": "0.048720587045"}
{"pitch": "-0.0335402302444", "lat": 29.7132116, "timestamp": 1603389876.784392, "alt": 15.22, "yaw": "1.95390677452", "lon": -95.404502, "heading": 111, "speed": 0.21900001168251038, "roll": "0.0612866729498"}
{"pitch": "-0.02177811414", "lat": 29.7132119, "timestamp": 1603389877.027167, "alt": 15.48, "yaw": "1.93803870678", "lon": -95.4045017, "heading": 110, "speed": 0.2760000228881836, "roll": "0.0511589758098"}
{"pitch": "0.00690740346909", "lat": 29.7132122, "timestamp": 1603389877.285516, "alt": 15.82, "yaw": "1.93785822392", "lon": -95.4045012, "heading": 111, "speed": 0.14600001275539398, "roll": "0.0567967146635"}
{"pitch": "0.00982706993818", "lat": 29.7132123, "timestamp": 1603389877.528341, "alt": 16.2, "yaw": "1.93482768536", "lon": -95.4045009, "heading": 110, "speed": 0.0860000029206276, "roll": "0.0530409142375"}
{"pitch": "0.00957165658474", "lat": 29.7132124, "timestamp": 1603389877.786681, "alt": 16.6, "yaw": "1.93800652027", "lon": -95.4045008, "heading": 110, "speed": 0.0860000029206276, "roll": "0.0537010319531"}
{"pitch": "-0.00752077624202", "lat": 29.7132128, "timestamp": 1603389878.029502, "alt": 17.08, "yaw": "1.95786726475", "lon": -95.404501, "heading": 111, "speed": 0.12600000202655792, "roll": "0.050433523953"}
{"pitch": "-0.00752077624202", "lat": 29.7132134, "timestamp": 1603389878.287914, "alt": 17.59, "yaw": "1.95786726475", "lon": -95.4045013, "heading": 112, "speed": 0.2600000202655792, "roll": "0.050433523953"}
{"pitch": "-0.0259254667908", "lat": 29.713214, "timestamp": 1603389878.532278, "alt": 18.11, "yaw": "1.99000370502", "lon": -95.4045016, "heading": 114, "speed": 0.31300002336502075, "roll": "0.0739574432373"}
{"pitch": "-0.0357668437064", "lat": 29.7132144, "timestamp": 1603389878.789044, "alt": 18.68, "yaw": "1.9687949419", "lon": -95.4045021, "heading": 112, "speed": 0.2880000174045563, "roll": "0.103312246501"}
{"pitch": "-0.0296067930758", "lat": 29.7132144, "timestamp": 1603389879.035268, "alt": 18.68, "yaw": "1.97366988659", "lon": -95.4045021, "heading": 113, "speed": 0.16900001466274261, "roll": "0.107033506036"}
{"pitch": "-0.0316174514592", "lat": 29.7132147, "timestamp": 1603389879.290216, "alt": 19.24, "yaw": "1.99387145042", "lon": -95.4045026, "heading": 114, "speed": 0.19700001180171967, "roll": "0.113799117506"}
{"pitch": "-0.0277595166117", "lat": 29.7132146, "timestamp": 1603389879.536483, "alt": 19.86, "yaw": "2.01058673859", "lon": -95.4045034, "heading": 114, "speed": 0.19700001180171967, "roll": "0.0890856087208"}
{"pitch": "-0.0475090220571", "lat": 29.7132143, "timestamp": 1603389879.791359, "alt": 20.42, "yaw": "1.98621821404", "lon": -95.4045041, "heading": 115, "speed": 0.18800000846385956, "roll": "0.0643064305186"}
{"pitch": "-0.0475090220571", "lat": 29.713214, "timestamp": 1603389880.037634, "alt": 21.05, "yaw": "1.98621821404", "lon": -95.404505, "heading": 113, "speed": 0.2110000103712082, "roll": "0.0643064305186"}
{"pitch": "-0.084310516715", "lat": 29.7132139, "timestamp": 1603389880.292704, "alt": 21.59, "yaw": "1.93053948879", "lon": -95.4045053, "heading": 111, "speed": 0.21400001645088196, "roll": "0.0688528865576"}
{"pitch": "-0.084310516715", "lat": 29.7132138, "timestamp": 1603389880.538777, "alt": 22.19, "yaw": "1.93053948879", "lon": -95.4045053, "heading": 110, "speed": 0.1290000081062317, "roll": "0.0688528865576"}
{"pitch": "-0.0667909681797", "lat": 29.7132137, "timestamp": 1603389880.794019, "alt": 22.73, "yaw": "1.94253146648", "lon": -95.404505, "heading": 111, "speed": 0.03100000135600567, "roll": "0.0807480365038"}
{"pitch": "-0.0423998385668", "lat": 29.7132134, "timestamp": 1603389881.039932, "alt": 23.33, "yaw": "1.94968962669", "lon": -95.4045044, "heading": 111, "speed": 0.18700000643730164, "roll": "0.0930640995502"}
{"pitch": "-0.0219055227935", "lat": 29.713213, "timestamp": 1603389881.295294, "alt": 23.98, "yaw": "1.95393264294", "lon": -95.404504, "heading": 111, "speed": 0.12800000607967377, "roll": "0.0586352013052"}
{"pitch": "-0.0267230048776", "lat": 29.713213, "timestamp": 1603389881.541157, "alt": 23.98, "yaw": "1.95256006718", "lon": -95.404504, "heading": 111, "speed": 0.12800000607967377, "roll": "0.0568347126245"}
{"pitch": "-0.0496815294027", "lat": 29.713213, "timestamp": 1603389881.796462, "alt": 24.64, "yaw": "1.96317863464", "lon": -95.4045035, "heading": 112, "speed": 0.0560000017285347, "roll": "0.0928291976452"}
{"pitch": "-0.0292386449873", "lat": 29.7132131, "timestamp": 1603389882.041857, "alt": 25.2, "yaw": "1.97333502769", "lon": -95.4045032, "heading": 112, "speed": 0.19700001180171967, "roll": "0.109478071332"}
{"pitch": "-0.0241485070437", "lat": 29.713213, "timestamp": 1603389882.297549, "alt": 25.75, "yaw": "1.96740400791", "lon": -95.4045028, "heading": 113, "speed": 0.16900001466274261, "roll": "0.0909157544374"}
{"pitch": "-0.0214142855257", "lat": 29.7132126, "timestamp": 1603389882.543025, "alt": 26.35, "yaw": "1.95780026913", "lon": -95.4045024, "heading": 112, "speed": 0.164000004529953, "roll": "0.0770848244429"}
{"pitch": "-0.0214142855257", "lat": 29.7132122, "timestamp": 1603389882.798705, "alt": 26.93, "yaw": "1.95780026913", "lon": -95.4045021, "heading": 112, "speed": 0.14000000059604645, "roll": "0.0770848244429"}
{"pitch": "-0.00820399075747", "lat": 29.713212, "timestamp": 1603389883.044717, "alt": 27.59, "yaw": "1.9593578577", "lon": -95.4045019, "heading": 112, "speed": 0.14300000667572021, "roll": "0.0234117861837"}
{"pitch": "-0.0467249378562", "lat": 29.7132122, "timestamp": 1603389883.29984, "alt": 28.17, "yaw": "1.9671652317", "lon": -95.4045017, "heading": 112, "speed": 0.14000000059604645, "roll": "0.0493301749229"}
{"pitch": "-0.037085134536", "lat": 29.7132126, "timestamp": 1603389883.545853, "alt": 28.8, "yaw": "1.97306227684", "lon": -95.4045014, "heading": 112, "speed": 0.14000000059604645, "roll": "0.106196470559"}
{"pitch": "-0.00779500044882", "lat": 29.7132128, "timestamp": 1603389883.800961, "alt": 29.35, "yaw": "1.98539233208", "lon": -95.4045013, "heading": 113, "speed": 0.07900000363588333, "roll": "0.121177867055"}
{"pitch": "-0.00828365795314", "lat": 29.7132131, "timestamp": 1603389884.04717, "alt": 30.04, "yaw": "2.00517892838", "lon": -95.4045018, "heading": 114, "speed": 0.12200000882148743, "roll": "0.108965441585"}
{"pitch": "-0.0500421598554", "lat": 29.7132131, "timestamp": 1603389884.302078, "alt": 30.04, "yaw": "2.01017189026", "lon": -95.4045018, "heading": 115, "speed": 0.23900000751018524, "roll": "0.0847674608231"}
{"pitch": "-0.092522226274", "lat": 29.7132135, "timestamp": 1603389884.548359, "alt": 31.15, "yaw": "2.00750637054", "lon": -95.4045033, "heading": 115, "speed": 0.22500000894069672, "roll": "0.072736762464"}
{"pitch": "-0.132051184773", "lat": 29.7132135, "timestamp": 1603389884.803214, "alt": 31.15, "yaw": "1.99682426453", "lon": -95.4045033, "heading": 114, "speed": 0.2680000066757202, "roll": "0.0897408425808"}
{"pitch": "-0.132051184773", "lat": 29.7132138, "timestamp": 1603389885.049523, "alt": 31.72, "yaw": "1.99682426453", "lon": -95.4045037, "heading": 113, "speed": 0.17800000309944153, "roll": "0.0897408425808"}
{"pitch": "-0.101006269455", "lat": 29.7132137, "timestamp": 1603389885.304031, "alt": 32.28, "yaw": "1.99123311043", "lon": -95.4045037, "heading": 114, "speed": 0.07700000703334808, "roll": "0.111062780023"}
{"pitch": "-0.0679104477167", "lat": 29.7132135, "timestamp": 1603389885.550708, "alt": 32.79, "yaw": "2.01764059067", "lon": -95.4045034, "heading": 114, "speed": 0.07700000703334808, "roll": "0.0857688561082"}
{"pitch": "-0.0482254736125", "lat": 29.7132134, "timestamp": 1603389885.805465, "alt": 33.17, "yaw": "2.04250621796", "lon": -95.4045032, "heading": 116, "speed": 0.0990000069141388, "roll": "0.0904026329517"}
{"pitch": "-0.0589547082782", "lat": 29.7132131, "timestamp": 1603389886.052003, "alt": 33.51, "yaw": "2.05664873123", "lon": -95.4045031, "heading": 117, "speed": 0.20000000298023224, "roll": "0.108505703509"}
{"pitch": "-0.0632522255182", "lat": 29.7132128, "timestamp": 1603389886.306885, "alt": 33.75, "yaw": "2.04940080643", "lon": -95.4045032, "heading": 117, "speed": 0.22200001776218414, "roll": "0.0924166887999"}
{"pitch": "-0.0936597138643", "lat": 29.7132124, "timestamp": 1603389886.553406, "alt": 33.91, "yaw": "2.02218317986", "lon": -95.4045036, "heading": 116, "speed": 0.3100000023841858, "roll": "0.0524329170585"}
{"pitch": "-0.107263743877", "lat": 29.7132122, "timestamp": 1603389886.808045, "alt": 34.01, "yaw": "2.0001244545", "lon": -95.4045038, "heading": 114, "speed": 0.14300000667572021, "roll": "0.0349126905203"}
{"pitch": "-0.0963622182608", "lat": 29.7132124, "timestamp": 1603389887.054594, "alt": 34.1, "yaw": "1.99199163914", "lon": -95.4045038, "heading": 114, "speed": 0.1340000033378601, "roll": "0.0840486288071"}
{"pitch": "-0.0760549604893", "lat": 29.7132125, "timestamp": 1603389887.311959, "alt": 34.17, "yaw": "2.0013384819", "lon": -95.4045035, "heading": 114, "speed": 0.026000000536441803, "roll": "0.106378957629"}
{"pitch": "-0.0671212598681", "lat": 29.7132125, "timestamp": 1603389887.555722, "alt": 34.17, "yaw": "1.99343490601", "lon": -95.4045035, "heading": 114, "speed": 0.015000000596046448, "roll": "0.104403600097"}
{"pitch": "-0.0671212598681", "lat": 29.7132125, "timestamp": 1603389887.813087, "alt": 34.23, "yaw": "1.99343490601", "lon": -95.4045033, "heading": 114, "speed": 0.015000000596046448, "roll": "0.104403600097"}
{"pitch": "-0.0877193212509", "lat": 29.7132126, "timestamp": 1603389888.056977, "alt": 34.3, "yaw": "1.96176111698", "lon": -95.4045031, "heading": 112, "speed": 0.06400000303983688, "roll": "0.0690231099725"}
{"pitch": "-0.0935944914818", "lat": 29.7132129, "timestamp": 1603389888.314193, "alt": 34.35, "yaw": "1.97873687744", "lon": -95.4045025, "heading": 113, "speed": 0.1380000114440918, "roll": "0.0864935368299"}
{"pitch": "-0.0720232725143", "lat": 29.7132134, "timestamp": 1603389888.558699, "alt": 34.38, "yaw": "1.99558520317", "lon": -95.4045017, "heading": 114, "speed": 0.2880000174045563, "roll": "0.13163843751"}
{"pitch": "-0.0490684844553", "lat": 29.7132137, "timestamp": 1603389888.817296, "alt": 34.39, "yaw": "2.02068948746", "lon": -95.404501, "heading": 115, "speed": 0.27300000190734863, "roll": "0.15175883472"}
{"pitch": "-0.0490684844553", "lat": 29.7132137, "timestamp": 1603389889.060577, "alt": 34.39, "yaw": "2.02068948746", "lon": -95.4045005, "heading": 115, "speed": 0.27300000190734863, "roll": "0.15175883472"}
{"pitch": "-0.0626496300101", "lat": 29.7132137, "timestamp": 1603389889.318149, "alt": 34.39, "yaw": "2.03419780731", "lon": -95.4045003, "heading": 116, "speed": 0.17600001394748688, "roll": "0.11135302484"}
{"pitch": "-0.0626496300101", "lat": 29.7132137, "timestamp": 1603389889.561402, "alt": 34.39, "yaw": "2.03419780731", "lon": -95.4045003, "heading": 116, "speed": 0.09700000286102295, "roll": "0.11135302484"}
{"pitch": "-0.0845211967826", "lat": 29.7132137, "timestamp": 1603389889.819143, "alt": 34.39, "yaw": "2.03388834", "lon": -95.4045002, "heading": 116, "speed": 0.0860000029206276, "roll": "0.0864206627011"}
{"pitch": "-0.0679782927036", "lat": 29.7132138, "timestamp": 1603389890.062578, "alt": 34.4, "yaw": "2.02874183655", "lon": -95.4044998, "heading": 116, "speed": 0.07600000500679016, "roll": "0.101478561759"}
{"pitch": "-0.0360441990197", "lat": 29.713214, "timestamp": 1603389890.320172, "alt": 34.43, "yaw": "2.03610992432", "lon": -95.4044994, "heading": 116, "speed": 0.2540000081062317, "roll": "0.135299563408"}
{"pitch": "-0.0462922602892", "lat": 29.7132142, "timestamp": 1603389890.563758, "alt": 34.42, "yaw": "2.02505302429", "lon": -95.4044991, "heading": 116, "speed": 0.07200000435113907, "roll": "0.16033731401"}
{"pitch": "-0.0755138993263", "lat": 29.7132141, "timestamp": 1603389890.820931, "alt": 34.4, "yaw": "2.02829027176", "lon": -95.4044994, "heading": 116, "speed": 0.07200000435113907, "roll": "0.144674032927"}
{"pitch": "-0.0938637256622", "lat": 29.7132138, "timestamp": 1603389891.065001, "alt": 34.39, "yaw": "2.03212022781", "lon": -95.4044997, "heading": 116, "speed": 0.0860000029206276, "roll": "0.104344651103"}
{"pitch": "-0.0938637256622", "lat": 29.7132134, "timestamp": 1603389891.322163, "alt": 34.37, "yaw": "2.03212022781", "lon": -95.4044999, "heading": 116, "speed": 0.13100001215934753, "roll": "0.104344651103"}
{"pitch": "-0.0667625814676", "lat": 29.7132129, "timestamp": 1603389891.566143, "alt": 34.35, "yaw": "2.03746676445", "lon": -95.4045, "heading": 116, "speed": 0.11700000613927841, "roll": "0.128409415483"}
{"pitch": "-0.0377775803208", "lat": 29.7132129, "timestamp": 1603389891.823394, "alt": 34.35, "yaw": "2.03734493256", "lon": -95.4045, "heading": 116, "speed": 0.2240000069141388, "roll": "0.143362671137"}
{"pitch": "-0.060168556869", "lat": 29.7132115, "timestamp": 1603389892.067299, "alt": 34.29, "yaw": "2.03133964539", "lon": -95.4045009, "heading": 116, "speed": 0.320000022649765, "roll": "0.128684192896"}
{"pitch": "-0.0609459429979", "lat": 29.7132115, "timestamp": 1603389892.324498, "alt": 34.29, "yaw": "2.03134584427", "lon": -95.4045009, "heading": 116, "speed": 0.3140000104904175, "roll": "0.111483305693"}
{"pitch": "-0.0682388544083", "lat": 29.7132107, "timestamp": 1603389892.570127, "alt": 34.27, "yaw": "2.03508043289", "lon": -95.4045015, "heading": 116, "speed": 0.3140000104904175, "roll": "0.106314301491"}
{"pitch": "-0.063549593091", "lat": 29.71321, "timestamp": 1603389892.825693, "alt": 34.25, "yaw": "2.04972743988", "lon": -95.4045022, "heading": 117, "speed": 0.3270000219345093, "roll": "0.114713683724"}
{"pitch": "-0.0852657556534", "lat": 29.7132093, "timestamp": 1603389893.071435, "alt": 34.24, "yaw": "2.0464823246", "lon": -95.404503, "heading": 117, "speed": 0.32100000977516174, "roll": "0.0985151901841"}
{"pitch": "-0.0917255431414", "lat": 29.7132086, "timestamp": 1603389893.326866, "alt": 34.23, "yaw": "2.03800487518", "lon": -95.4045036, "heading": 117, "speed": 0.30800002813339233, "roll": "0.0572542175651"}
{"pitch": "-0.0917255431414", "lat": 29.7132082, "timestamp": 1603389893.572666, "alt": 34.23, "yaw": "2.03800487518", "lon": -95.4045037, "heading": 116, "speed": 0.203000009059906, "roll": "0.0572542175651"}
{"pitch": "-0.0825217887759", "lat": 29.7132081, "timestamp": 1603389893.828037, "alt": 34.21, "yaw": "2.03816080093", "lon": -95.4045034, "heading": 117, "speed": 0.14800000190734863, "roll": "0.0567367300391"}
{"pitch": "-0.050324857235", "lat": 29.7132082, "timestamp": 1603389894.073899, "alt": 34.2, "yaw": "2.04788470268", "lon": -95.404503, "heading": 117, "speed": 0.09700000286102295, "roll": "0.0884400904179"}
{"pitch": "-0.0239685215056", "lat": 29.7132082, "timestamp": 1603389894.329724, "alt": 34.2, "yaw": "2.06255817413", "lon": -95.404503, "heading": 117, "speed": 0.09700000286102295, "roll": "0.11231470108"}
{"pitch": "-0.0337409973145", "lat": 29.7132085, "timestamp": 1603389894.575271, "alt": 34.2, "yaw": "2.06080079079", "lon": -95.4045029, "heading": 118, "speed": 0.07300000637769699, "roll": "0.112495929003"}
{"pitch": "-0.0898917019367", "lat": 29.7132089, "timestamp": 1603389894.830894, "alt": 34.2, "yaw": "2.04116177559", "lon": -95.4045033, "heading": 117, "speed": 0.14100000262260437, "roll": "0.100924536586"}
{"pitch": "-0.105175107718", "lat": 29.7132092, "timestamp": 1603389895.07647, "alt": 34.19, "yaw": "2.01418113708", "lon": -95.4045038, "heading": 115, "speed": 0.1810000091791153, "roll": "0.111546099186"}
{"pitch": "-0.0855449214578", "lat": 29.7132095, "timestamp": 1603389895.332118, "alt": 34.17, "yaw": "2.00075244904", "lon": -95.4045042, "heading": 114, "speed": 0.07500000298023224, "roll": "0.0918303728104"}
{"pitch": "-0.0932988673449", "lat": 29.7132095, "timestamp": 1603389895.577802, "alt": 34.16, "yaw": "1.99321568012", "lon": -95.4045043, "heading": 114, "speed": 0.10500000417232513, "roll": "0.0745594203472"}
{"pitch": "-0.0445793680847", "lat": 29.7132094, "timestamp": 1603389895.833421, "alt": 34.17, "yaw": "1.9918282032", "lon": -95.4045041, "heading": 114, "speed": 0.10500000417232513, "roll": "0.0729232504964"}
{"pitch": "-0.0445793680847", "lat": 29.7132094, "timestamp": 1603389896.078921, "alt": 34.18, "yaw": "1.9918282032", "lon": -95.4045037, "heading": 114, "speed": 0.16200000047683716, "roll": "0.0729232504964"}
{"pitch": "-0.0605561435223", "lat": 29.7132097, "timestamp": 1603389896.33457, "alt": 34.2, "yaw": "2.02194523811", "lon": -95.4045033, "heading": 115, "speed": 0.2840000092983246, "roll": "0.0478964075446"}
{"pitch": "-0.0136357862502", "lat": 29.7132097, "timestamp": 1603389896.580259, "alt": 34.2, "yaw": "2.05067014694", "lon": -95.4045033, "heading": 117, "speed": 0.2970000207424164, "roll": "0.0403714999557"}
{"pitch": "-0.0284996312112", "lat": 29.7132113, "timestamp": 1603389896.835672, "alt": 34.26, "yaw": "2.05891609192", "lon": -95.4045025, "heading": 117, "speed": 0.32500001788139343, "roll": "0.04266294837"}
{"pitch": "-0.0147006213665", "lat": 29.7132113, "timestamp": 1603389897.081596, "alt": 34.26, "yaw": "2.05821180344", "lon": -95.4045025, "heading": 117, "speed": 0.4220000207424164, "roll": "0.103191778064"}
{"pitch": "-0.0655059963465", "lat": 29.7132128, "timestamp": 1603389897.336952, "alt": 34.28, "yaw": "2.04322147369", "lon": -95.4045024, "heading": 117, "speed": 0.4400000274181366, "roll": "0.141658052802"}
{"pitch": "-0.112305127084", "lat": 29.7132141, "timestamp": 1603389897.582731, "alt": 34.29, "yaw": "2.03810358047", "lon": -95.4045027, "heading": 116, "speed": 0.2990000247955322, "roll": "0.16888679564"}
{"pitch": "-0.120711959898", "lat": 29.7132149, "timestamp": 1603389897.839061, "alt": 34.28, "yaw": "2.02645683289", "lon": -95.4045031, "heading": 116, "speed": 0.1990000158548355, "roll": "0.136976957321"}
{"pitch": "-0.111548468471", "lat": 29.7132153, "timestamp": 1603389898.083976, "alt": 34.28, "yaw": "2.0284409523", "lon": -95.4045032, "heading": 116, "speed": 0.19100001454353333, "roll": "0.125515297055"}
{"pitch": "-0.111548468471", "lat": 29.7132154, "timestamp": 1603389898.341247, "alt": 34.31, "yaw": "2.0284409523", "lon": -95.404503, "heading": 116, "speed": 0.19100001454353333, "roll": "0.125515297055"}
{"pitch": "-0.0737108588219", "lat": 29.7132154, "timestamp": 1603389898.585171, "alt": 34.33, "yaw": "2.04089140892", "lon": -95.4045028, "heading": 116, "speed": 0.20600001513957977, "roll": "0.087755382061"}
{"pitch": "-0.0417261198163", "lat": 29.7132153, "timestamp": 1603389898.842416, "alt": 34.35, "yaw": "2.03501009941", "lon": -95.4045026, "heading": 116, "speed": 0.27000001072883606, "roll": "0.0821351706982"}
{"pitch": "-0.0517919361591", "lat": 29.7132154, "timestamp": 1603389899.08653, "alt": 34.35, "yaw": "2.03935861588", "lon": -95.4045025, "heading": 116, "speed": 0.1980000138282776, "roll": "0.119462892413"}
{"pitch": "-0.0796900242567", "lat": 29.7132153, "timestamp": 1603389899.343703, "alt": 34.35, "yaw": "2.02598762512", "lon": -95.4045025, "heading": 116, "speed": 0.22800001502037048, "roll": "0.108361810446"}
{"pitch": "-0.124239325523", "lat": 29.7132151, "timestamp": 1603389899.587747, "alt": 34.32, "yaw": "2.03575992584", "lon": -95.4045022, "heading": 116, "speed": 0.11800000816583633, "roll": "0.121302723885"}
{"pitch": "-0.0755401328206", "lat": 29.7132145, "timestamp": 1603389899.845112, "alt": 34.31, "yaw": "2.04808449745", "lon": -95.4045017, "heading": 117, "speed": 0.4180000126361847, "roll": "0.126409426332"}
{"pitch": "-0.0536529421806", "lat": 29.7132145, "timestamp": 1603389900.089215, "alt": 34.31, "yaw": "2.05181455612", "lon": -95.4045017, "heading": 117, "speed": 0.34800001978874207, "roll": "0.149065792561"}
{"pitch": "-0.0498182475567", "lat": 29.7132138, "timestamp": 1603389900.346532, "alt": 34.3, "yaw": "2.0547451973", "lon": -95.4045013, "heading": 117, "speed": 0.34800001978874207, "roll": "0.130862727761"}
{"pitch": "-0.0530835688114", "lat": 29.7132131, "timestamp": 1603389900.590508, "alt": 34.27, "yaw": "2.06422948837", "lon": -95.4045011, "heading": 117, "speed": 0.35600000619888306, "roll": "0.136579334736"}
{"pitch": "-0.0530835688114", "lat": 29.7132124, "timestamp": 1603389900.848605, "alt": 34.26, "yaw": "2.06422948837", "lon": -95.404501, "heading": 118, "speed": 0.31700000166893005, "roll": "0.136579334736"}
{"pitch": "-0.0673053860664", "lat": 29.7132119, "timestamp": 1603389901.092108, "alt": 34.25, "yaw": "2.06401872635", "lon": -95.404501, "heading": 118, "speed": 0.3110000193119049, "roll": "0.119895681739"}
{"pitch": "-0.0461831912398", "lat": 29.7132114, "timestamp": 1603389901.349843, "alt": 34.23, "yaw": "2.08771181107", "lon": -95.4045011, "heading": 119, "speed": 0.2370000183582306, "roll": "0.136797934771"}
{"pitch": "-0.0161986164749", "lat": 29.7132109, "timestamp": 1603389901.593131, "alt": 34.21, "yaw": "2.09107780457", "lon": -95.4045018, "heading": 119, "speed": 0.28700000047683716, "roll": "0.131161808968"}
{"pitch": "-0.128066599369", "lat": 29.7132109, "timestamp": 1603389901.851294, "alt": 34.21, "yaw": "2.05522918701", "lon": -95.4045018, "heading": 119, "speed": 0.28700000047683716, "roll": "0.0265435390174"}
{"pitch": "-0.125988900661", "lat": 29.7132105, "timestamp": 1603389902.094352, "alt": 34.23, "yaw": "2.0483686924", "lon": -95.4045027, "heading": 117, "speed": 0.2639999985694885, "roll": "0.0806458294392"}
{"pitch": "-0.125988900661", "lat": 29.7132101, "timestamp": 1603389902.352541, "alt": 34.22, "yaw": "2.0483686924", "lon": -95.4045032, "heading": 117, "speed": 0.26600000262260437, "roll": "0.0806458294392"}
{"pitch": "-0.0639682859182", "lat": 29.7132097, "timestamp": 1603389902.596217, "alt": 34.2, "yaw": "2.06005311012", "lon": -95.4045033, "heading": 117, "speed": 0.20800000429153442, "roll": "0.112666688859"}
{"pitch": "-0.0798648446798", "lat": 29.7132093, "timestamp": 1603389902.853828, "alt": 34.2, "yaw": "2.02862501144", "lon": -95.4045031, "heading": 116, "speed": 0.2600000202655792, "roll": "0.0890208184719"}
{"pitch": "-0.0308369491249", "lat": 29.7132089, "timestamp": 1603389903.097902, "alt": 34.2, "yaw": "2.02217769623", "lon": -95.4045028, "heading": 116, "speed": 0.10100000351667404, "roll": "0.0860159546137"}
{"pitch": "-0.0313411578536", "lat": 29.7132088, "timestamp": 1603389903.355076, "alt": 34.19, "yaw": "2.03987240791", "lon": -95.4045026, "heading": 117, "speed": 0.07300000637769699, "roll": "0.0855693519115"}
{"pitch": "-0.0482193902135", "lat": 29.7132089, "timestamp": 1603389903.599245, "alt": 34.18, "yaw": "2.05473995209", "lon": -95.4045025, "heading": 117, "speed": 0.07700000703334808, "roll": "0.0862849801779"}
{"pitch": "-0.0635671243072", "lat": 29.7132094, "timestamp": 1603389903.855764, "alt": 34.17, "yaw": "2.05867958069", "lon": -95.4045023, "heading": 117, "speed": 0.07700000703334808, "roll": "0.112589761615"}
{"pitch": "-0.0635671243072", "lat": 29.7132097, "timestamp": 1603389904.100398, "alt": 34.16, "yaw": "2.05867958069", "lon": -95.4045021, "heading": 118, "speed": 0.17800000309944153, "roll": "0.112589761615"}
{"pitch": "-0.0728753060102", "lat": 29.71321, "timestamp": 1603389904.356925, "alt": 34.14, "yaw": "2.05982303619", "lon": -95.4045018, "heading": 117, "speed": 0.14100000262260437, "roll": "0.116684094071"}
{"pitch": "-0.0728753060102", "lat": 29.7132101, "timestamp": 1603389904.601766, "alt": 34.14, "yaw": "2.05982303619", "lon": -95.4045015, "heading": 118, "speed": 0.14600001275539398, "roll": "0.116684094071"}
{"pitch": "-0.0526001378894", "lat": 29.7132102, "timestamp": 1603389904.858056, "alt": 34.13, "yaw": "2.06167411804", "lon": -95.4045012, "heading": 118, "speed": 0.11500000208616257, "roll": "0.109688073397"}
{"pitch": "-0.0406032502651", "lat": 29.7132102, "timestamp": 1603389905.102649, "alt": 34.13, "yaw": "2.06782436371", "lon": -95.4045012, "heading": 118, "speed": 0.11300000548362732, "roll": "0.105354271829"}
{"pitch": "-0.0457581430674", "lat": 29.7132104, "timestamp": 1603389905.359161, "alt": 34.13, "yaw": "2.07320404053", "lon": -95.4045012, "heading": 118, "speed": 0.08700000494718552, "roll": "0.110930413008"}
{"pitch": "-0.0540197268128", "lat": 29.7132106, "timestamp": 1603389905.603827, "alt": 34.13, "yaw": "2.0619430542", "lon": -95.4045014, "heading": 117, "speed": 0.17900000512599945, "roll": "0.0979156047106"}
{"pitch": "-0.0761370807886", "lat": 29.7132108, "timestamp": 1603389905.860298, "alt": 34.13, "yaw": "2.04746103287", "lon": -95.4045016, "heading": 117, "speed": 0.17900000512599945, "roll": "0.084036976099"}
{"pitch": "-0.0653102397919", "lat": 29.7132111, "timestamp": 1603389906.105175, "alt": 34.14, "yaw": "2.05688357353", "lon": -95.4045018, "heading": 117, "speed": 0.2150000035762787, "roll": "0.106217004359"}
{"pitch": "-0.0767929106951", "lat": 29.7132115, "timestamp": 1603389906.361432, "alt": 34.15, "yaw": "2.05308246613", "lon": -95.4045019, "heading": 117, "speed": 0.27800002694129944, "roll": "0.117927789688"}
{"pitch": "-0.0767929106951", "lat": 29.7132118, "timestamp": 1603389906.606744, "alt": 34.17, "yaw": "2.05308246613", "lon": -95.404502, "heading": 116, "speed": 0.22100001573562622, "roll": "0.117927789688"}
{"pitch": "-0.108117699623", "lat": 29.7132122, "timestamp": 1603389906.862548, "alt": 34.2, "yaw": "2.0175280571", "lon": -95.4045018, "heading": 115, "speed": 0.20800000429153442, "roll": "0.093538582325"}
{"pitch": "-0.0918534994125", "lat": 29.7132122, "timestamp": 1603389907.108204, "alt": 34.2, "yaw": "2.01917290688", "lon": -95.4045018, "heading": 116, "speed": 0.08900000154972076, "roll": "0.113240972161"}
{"pitch": "-0.0163257513195", "lat": 29.7132128, "timestamp": 1603389907.363644, "alt": 34.22, "yaw": "2.05509543419", "lon": -95.4045006, "heading": 117, "speed": 0.125, "roll": "0.155875787139"}
{"pitch": "-0.0161967817694", "lat": 29.7132128, "timestamp": 1603389907.609204, "alt": 34.22, "yaw": "2.05821180344", "lon": -95.4045006, "heading": 117, "speed": 0.125, "roll": "0.133379682899"}
{"pitch": "-0.089174926281", "lat": 29.7132129, "timestamp": 1603389907.864805, "alt": 34.25, "yaw": "2.05037069321", "lon": -95.4045007, "heading": 117, "speed": 0.10700000822544098, "roll": "0.103424623609"}
{"pitch": "-0.105011723936", "lat": 29.7132129, "timestamp": 1603389908.110391, "alt": 34.27, "yaw": "2.04802703857", "lon": -95.4045008, "heading": 117, "speed": 0.10900000482797623, "roll": "0.108814768493"}
{"pitch": "-0.105011723936", "lat": 29.7132129, "timestamp": 1603389908.368141, "alt": 34.26, "yaw": "2.04802703857", "lon": -95.4045006, "heading": 117, "speed": 0.03800000250339508, "roll": "0.108814768493"}
{"pitch": "-0.041361130774", "lat": 29.7132127, "timestamp": 1603389908.611718, "alt": 34.26, "yaw": "2.05561113358", "lon": -95.4045002, "heading": 117, "speed": 0.04700000211596489, "roll": "0.132717296481"}
{"pitch": "-0.041361130774", "lat": 29.7132124, "timestamp": 1603389908.870542, "alt": 34.23, "yaw": "2.05561113358", "lon": -95.4044998, "heading": 118, "speed": 0.11700000613927841, "roll": "0.132717296481"}
{"pitch": "-0.00983000174165", "lat": 29.713212, "timestamp": 1603389909.115745, "alt": 34.22, "yaw": "2.06644201279", "lon": -95.4044998, "heading": 118, "speed": 0.11100000888109207, "roll": "0.125740811229"}
{"pitch": "-0.0373765788972", "lat": 29.7132117, "timestamp": 1603389909.371653, "alt": 34.22, "yaw": "2.06782865524", "lon": -95.4045001, "heading": 118, "speed": 0.1720000058412552, "roll": "0.102991782129"}
{"pitch": "-0.0629637762904", "lat": 29.7132117, "timestamp": 1603389909.616919, "alt": 34.22, "yaw": "2.073107481", "lon": -95.4045001, "heading": 118, "speed": 0.1720000058412552, "roll": "0.121130466461"}
{"pitch": "-0.0646188259125", "lat": 29.7132109, "timestamp": 1603389909.872762, "alt": 34.22, "yaw": "2.08091378212", "lon": -95.4045006, "heading": 119, "speed": 0.15900000929832458, "roll": "0.120796069503"}
{"pitch": "-0.0414778441191", "lat": 29.7132109, "timestamp": 1603389910.117768, "alt": 34.22, "yaw": "2.08224773407", "lon": -95.4045006, "heading": 119, "speed": 0.2150000035762787, "roll": "0.0962090715766"}
{"pitch": "-0.0290554650128", "lat": 29.7132103, "timestamp": 1603389910.373873, "alt": 34.21, "yaw": "2.08576154709", "lon": -95.4045007, "heading": 119, "speed": 0.1860000044107437, "roll": "0.0766626372933"}
{"pitch": "-0.0290554650128", "lat": 29.7132098, "timestamp": 1603389910.619201, "alt": 34.21, "yaw": "2.08576154709", "lon": -95.4045006, "heading": 120, "speed": 0.12400000542402267, "roll": "0.0766626372933"}
{"pitch": "-0.0027393642813", "lat": 29.7132094, "timestamp": 1603389910.874989, "alt": 34.21, "yaw": "2.09865260124", "lon": -95.4045003, "heading": 120, "speed": 0.10200000554323196, "roll": "0.0793592482805"}
{"pitch": "-0.00260824896395", "lat": 29.7132094, "timestamp": 1603389911.120525, "alt": 34.21, "yaw": "2.09937906265", "lon": -95.4045001, "heading": 120, "speed": 0.08300000429153442, "roll": "0.106628403068"}
{"pitch": "0.00256132707", "lat": 29.7132097, "timestamp": 1603389911.37624, "alt": 34.2, "yaw": "2.0923538208", "lon": -95.4045001, "heading": 120, "speed": 0.08300000429153442, "roll": "0.117373779416"}
{"pitch": "-0.0101652406156", "lat": 29.71321, "timestamp": 1603389911.62168, "alt": 34.19, "yaw": "2.07683324814", "lon": -95.4045002, "heading": 119, "speed": 0.10300000756978989, "roll": "0.126387149096"}
{"pitch": "-0.0280752778053", "lat": 29.7132103, "timestamp": 1603389911.877409, "alt": 34.2, "yaw": "2.05811023712", "lon": -95.4045003, "heading": 118, "speed": 0.17800000309944153, "roll": "0.126388564706"}
{"pitch": "-0.0148685071617", "lat": 29.7132103, "timestamp": 1603389912.122989, "alt": 34.2, "yaw": "2.07014608383", "lon": -95.4045003, "heading": 118, "speed": 0.1469999998807907, "roll": "0.121108025312"}
{"pitch": "-0.00719245523214", "lat": 29.7132108, "timestamp": 1603389912.378599, "alt": 34.23, "yaw": "2.08778953552", "lon": -95.4045007, "heading": 119, "speed": 0.08900000154972076, "roll": "0.118370965123"}
{"pitch": "-0.00719245523214", "lat": 29.7132108, "timestamp": 1603389912.624157, "alt": 34.23, "yaw": "2.08778953552", "lon": -95.4045007, "heading": 118, "speed": 0.15700000524520874, "roll": "0.118370965123"}
{"pitch": "-0.0306860767305", "lat": 29.7132111, "timestamp": 1603389912.879708, "alt": 34.23, "yaw": "2.06677174568", "lon": -95.4045009, "heading": 117, "speed": 0.15800000727176666, "roll": "0.127180427313"}
{"pitch": "-0.0156737994403", "lat": 29.7132113, "timestamp": 1603389913.12545, "alt": 34.22, "yaw": "2.05929470062", "lon": -95.404501, "heading": 118, "speed": 0.17100000381469727, "roll": "0.158305794001"}
{"pitch": "0.0176466964185", "lat": 29.7132115, "timestamp": 1603389913.380899, "alt": 34.22, "yaw": "2.06866693497", "lon": -95.4045012, "heading": 119, "speed": 0.15800000727176666, "roll": "0.123837679625"}
{"pitch": "0.0072743371129", "lat": 29.7132118, "timestamp": 1603389913.626923, "alt": 34.22, "yaw": "2.08718204498", "lon": -95.4045017, "heading": 119, "speed": 0.15800000727176666, "roll": "0.115107476711"}
{"pitch": "-0.00912536121905", "lat": 29.713212, "timestamp": 1603389913.882505, "alt": 34.22, "yaw": "2.07875847816", "lon": -95.4045025, "heading": 119, "speed": 0.15300001204013824, "roll": "0.122020766139"}
{"pitch": "-0.0644271820784", "lat": 29.7132122, "timestamp": 1603389914.131172, "alt": 34.22, "yaw": "2.04230833054", "lon": -95.4045035, "heading": 117, "speed": 0.3050000071525574, "roll": "0.128963589668"}
{"pitch": "-0.0588030144572", "lat": 29.7132121, "timestamp": 1603389914.385289, "alt": 34.22, "yaw": "2.0273475647", "lon": -95.4045041, "heading": 116, "speed": 0.22800001502037048, "roll": "0.104763671756"}
{"pitch": "-0.0318438448012", "lat": 29.7132122, "timestamp": 1603389914.632768, "alt": 34.22, "yaw": "2.03416156769", "lon": -95.4045046, "heading": 116, "speed": 0.11800000816583633, "roll": "0.0857764035463"}
{"pitch": "-0.0318438448012", "lat": 29.7132122, "timestamp": 1603389914.886024, "alt": 34.22, "yaw": "2.03416156769", "lon": -95.4045046, "heading": 116, "speed": 0.07700000703334808, "roll": "0.0857764035463"}
{"pitch": "-0.0184295326471", "lat": 29.7132122, "timestamp": 1603389915.13427, "alt": 34.22, "yaw": "2.0349342823", "lon": -95.4045048, "heading": 116, "speed": 0.07700000703334808, "roll": "0.0988309383392"}
{"pitch": "-0.0168375652283", "lat": 29.7132124, "timestamp": 1603389915.387164, "alt": 34.22, "yaw": "2.04727196693", "lon": -95.4045051, "heading": 117, "speed": 0.1290000081062317, "roll": "0.115216687322"}
{"pitch": "-0.0182970725", "lat": 29.7132126, "timestamp": 1603389915.635923, "alt": 34.22, "yaw": "2.04898071289", "lon": -95.4045058, "heading": 117, "speed": 0.14900000393390656, "roll": "0.0713237375021"}
{"pitch": "-0.0625036209822", "lat": 29.7132131, "timestamp": 1603389915.888318, "alt": 34.23, "yaw": "2.0681977272", "lon": -95.4045064, "heading": 118, "speed": 0.17800000309944153, "roll": "0.089423827827"}
{"pitch": "-0.0907722711563", "lat": 29.7132135, "timestamp": 1603389916.137353, "alt": 34.23, "yaw": "2.0837597847", "lon": -95.4045072, "heading": 119, "speed": 0.30100002884864807, "roll": "0.110960260034"}
{"pitch": "-0.0907722711563", "lat": 29.7132138, "timestamp": 1603389916.389401, "alt": 34.24, "yaw": "2.0837597847", "lon": -95.4045078, "heading": 119, "speed": 0.30100002884864807, "roll": "0.110960260034"}
{"pitch": "-0.101810894907", "lat": 29.7132138, "timestamp": 1603389916.638701, "alt": 34.24, "yaw": "2.08592891693", "lon": -95.4045078, "heading": 119, "speed": 0.20800000429153442, "roll": "0.0909122154117"}
{"pitch": "-0.103475362062", "lat": 29.7132139, "timestamp": 1603389916.890542, "alt": 34.26, "yaw": "2.08322095871", "lon": -95.4045081, "heading": 119, "speed": 0.07300000637769699, "roll": "0.0741909518838"}
{"pitch": "-0.103603638709", "lat": 29.7132139, "timestamp": 1603389917.140251, "alt": 34.27, "yaw": "2.08236074448", "lon": -95.404508, "heading": 119, "speed": 0.026000000536441803, "roll": "0.0720398277044"}
{"pitch": "-0.0877410322428", "lat": 29.7132141, "timestamp": 1603389917.39168, "alt": 34.29, "yaw": "2.07944297791", "lon": -95.4045077, "heading": 119, "speed": 0.15400001406669617, "roll": "0.101542532444"}
{"pitch": "-0.0815791711211", "lat": 29.7132142, "timestamp": 1603389917.641775, "alt": 34.31, "yaw": "2.08635520935", "lon": -95.4045071, "heading": 119, "speed": 0.19200000166893005, "roll": "0.106550753117"}
{"pitch": "-0.0808210372925", "lat": 29.7132142, "timestamp": 1603389917.892794, "alt": 34.33, "yaw": "2.09040117264", "lon": -95.4045065, "heading": 119, "speed": 0.1860000044107437, "roll": "0.102879092097"}
{"pitch": "-0.0804577693343", "lat": 29.7132141, "timestamp": 1603389918.143003, "alt": 34.34, "yaw": "2.09055185318", "lon": -95.4045059, "heading": 119, "speed": 0.1860000044107437, "roll": "0.100700162351"}
{"pitch": "-0.080310434103", "lat": 29.713214, "timestamp": 1603389918.393935, "alt": 34.34, "yaw": "2.08351063728", "lon": -95.4045054, "heading": 119, "speed": 0.2160000056028366, "roll": "0.100353829563"}
{"pitch": "-0.0866747796535", "lat": 29.7132139, "timestamp": 1603389918.644406, "alt": 34.35, "yaw": "2.07478761673", "lon": -95.4045047, "heading": 119, "speed": 0.23400001227855682, "roll": "0.0954334959388"}
{"pitch": "-0.0866747796535", "lat": 29.7132137, "timestamp": 1603389918.895046, "alt": 34.35, "yaw": "2.07478761673", "lon": -95.404504, "heading": 118, "speed": 0.3400000035762787, "roll": "0.0954334959388"}
{"pitch": "-0.0768189504743", "lat": 29.7132135, "timestamp": 1603389919.147586, "alt": 34.35, "yaw": "2.06793117523", "lon": -95.4045029, "heading": 118, "speed": 0.289000004529953, "roll": "0.0938590914011"}
{"pitch": "-0.0685953870416", "lat": 29.7132135, "timestamp": 1603389919.396197, "alt": 34.35, "yaw": "2.06717157364", "lon": -95.4045029, "heading": 118, "speed": 0.3920000195503235, "roll": "0.0861551836133"}
{"pitch": "-0.0490883104503", "lat": 29.7132134, "timestamp": 1603389919.648834, "alt": 34.35, "yaw": "2.07646989822", "lon": -95.4045005, "heading": 119, "speed": 0.38600000739097595, "roll": "0.104429662228"}
{"pitch": "-0.0296027734876", "lat": 29.7132134, "timestamp": 1603389919.897531, "alt": 34.35, "yaw": "2.0930109024", "lon": -95.4045005, "heading": 120, "speed": 0.3580000102519989, "roll": "0.131505563855"}
{"pitch": "-0.0280586667359", "lat": 29.7132134, "timestamp": 1603389920.150468, "alt": 34.34, "yaw": "2.09286308289", "lon": -95.4044995, "heading": 119, "speed": 0.20200000703334808, "roll": "0.147180169821"}
{"pitch": "-0.0018589310348", "lat": 29.7132134, "timestamp": 1603389920.398675, "alt": 34.34, "yaw": "2.08478498459", "lon": -95.4044989, "heading": 119, "speed": 0.20200000703334808, "roll": "0.178819149733"}
{"pitch": "0.0236221402884", "lat": 29.7132131, "timestamp": 1603389920.65167, "alt": 34.33, "yaw": "2.08102035522", "lon": -95.4044989, "heading": 119, "speed": 0.10700000822544098, "roll": "0.179272502661"}
{"pitch": "-0.0284557715058", "lat": 29.7132127, "timestamp": 1603389920.899813, "alt": 34.29, "yaw": "2.08062791824", "lon": -95.4044999, "heading": 119, "speed": 0.23500001430511475, "roll": "0.119987726212"}
{"pitch": "-0.0712323859334", "lat": 29.7132122, "timestamp": 1603389921.152891, "alt": 34.2, "yaw": "2.09451627731", "lon": -95.4045014, "heading": 119, "speed": 0.5320000052452087, "roll": "0.0886603295803"}
{"pitch": "-0.0969751253724", "lat": 29.7132119, "timestamp": 1603389921.400945, "alt": 34.03, "yaw": "2.08997631073", "lon": -95.4045028, "heading": 119, "speed": 0.5820000171661377, "roll": "0.0616236627102"}
{"pitch": "-0.0969751253724", "lat": 29.7132116, "timestamp": 1603389921.654027, "alt": 33.76, "yaw": "2.08997631073", "lon": -95.4045036, "heading": 119, "speed": 0.4710000157356262, "roll": "0.0616236627102"}
{"pitch": "-0.111561357975", "lat": 29.7132116, "timestamp": 1603389921.902097, "alt": 33.76, "yaw": "2.07836961746", "lon": -95.4045036, "heading": 118, "speed": 0.23500001430511475, "roll": "0.0788766518235"}
{"pitch": "-0.0918572843075", "lat": 29.7132114, "timestamp": 1603389922.155411, "alt": 33.42, "yaw": "2.05979752541", "lon": -95.4045038, "heading": 117, "speed": 0.07000000029802322, "roll": "0.0926493778825"}
{"pitch": "-0.0527992881835", "lat": 29.7132111, "timestamp": 1603389922.403235, "alt": 33.02, "yaw": "2.05842709541", "lon": -95.4045037, "heading": 117, "speed": 0.07000000029802322, "roll": "0.0974148511887"}
{"pitch": "0.0233761891723", "lat": 29.7132107, "timestamp": 1603389922.656592, "alt": 32.59, "yaw": "2.0546066761", "lon": -95.4045033, "heading": 117, "speed": 0.2930000126361847, "roll": "0.0619062557817"}
{"pitch": "0.0134635940194", "lat": 29.7132104, "timestamp": 1603389922.904318, "alt": 32.16, "yaw": "2.06403112411", "lon": -95.404503, "heading": 117, "speed": 0.1680000126361847, "roll": "0.0533593334258"}
{"pitch": "0.0134635940194", "lat": 29.7132104, "timestamp": 1603389923.157715, "alt": 31.72, "yaw": "2.06403112411", "lon": -95.4045031, "heading": 118, "speed": 0.13700000941753387, "roll": "0.0533593334258"}
{"pitch": "0.0422578155994", "lat": 29.7132108, "timestamp": 1603389923.405118, "alt": 31.26, "yaw": "2.05769968033", "lon": -95.4045039, "heading": 118, "speed": 0.13700000941753387, "roll": "0.0523902736604"}
{"pitch": "-0.0417994856834", "lat": 29.7132115, "timestamp": 1603389923.659119, "alt": 30.84, "yaw": "2.04615449905", "lon": -95.404505, "heading": 116, "speed": 0.5080000162124634, "roll": "0.0947116464376"}
{"pitch": "-0.0491587668657", "lat": 29.7132115, "timestamp": 1603389923.906248, "alt": 30.84, "yaw": "2.03138685226", "lon": -95.404505, "heading": 116, "speed": 0.5080000162124634, "roll": "0.114769503474"}
{"pitch": "-0.0622390247881", "lat": 29.7132119, "timestamp": 1603389924.167085, "alt": 30.42, "yaw": "2.03423118591", "lon": -95.4045063, "heading": 116, "speed": 0.4780000150203705, "roll": "0.108975380659"}
{"pitch": "-0.0709497630596", "lat": 29.7132121, "timestamp": 1603389924.407793, "alt": 30.01, "yaw": "2.04990315437", "lon": -95.4045076, "heading": 117, "speed": 0.49000000953674316, "roll": "0.0856292694807"}
{"pitch": "-0.0808255970478", "lat": 29.7132121, "timestamp": 1603389924.668814, "alt": 29.65, "yaw": "2.04115176201", "lon": -95.4045086, "heading": 117, "speed": 0.37800002098083496, "roll": "0.0503992624581"}
{"pitch": "-0.0837297141552", "lat": 29.7132121, "timestamp": 1603389924.909089, "alt": 29.25, "yaw": "2.01160335541", "lon": -95.4045094, "heading": 115, "speed": 0.15400001406669617, "roll": "0.0482831187546"}
{"pitch": "-0.0837297141552", "lat": 29.7132121, "timestamp": 1603389925.169955, "alt": 28.8, "yaw": "2.01160335541", "lon": -95.4045096, "heading": 114, "speed": 0.125, "roll": "0.0482831187546"}
{"pitch": "-0.0756996423006", "lat": 29.7132121, "timestamp": 1603389925.410379, "alt": 28.37, "yaw": "1.98382139206", "lon": -95.4045094, "heading": 114, "speed": 0.2639999985694885, "roll": "0.0543321967125"}
{"pitch": "-0.062767803669", "lat": 29.7132122, "timestamp": 1603389925.671409, "alt": 27.96, "yaw": "2.00473475456", "lon": -95.4045088, "heading": 117, "speed": 0.18800000846385956, "roll": "0.0627745762467"}
{"pitch": "-0.0120922327042", "lat": 29.7132122, "timestamp": 1603389925.911494, "alt": 27.54, "yaw": "2.06518936157", "lon": -95.404508, "heading": 117, "speed": 0.18800000846385956, "roll": "0.0739505365491"}
{"pitch": "0.000491246581078", "lat": 29.7132122, "timestamp": 1603389926.172892, "alt": 27.54, "yaw": "2.117852211", "lon": -95.404508, "heading": 120, "speed": 0.11800000816583633, "roll": "0.0806649923325"}
{"pitch": "0.0270531699061", "lat": 29.7132124, "timestamp": 1603389926.412634, "alt": 27.07, "yaw": "2.12830853462", "lon": -95.4045076, "heading": 122, "speed": 0.19200000166893005, "roll": "0.0835739076138"}
{"pitch": "-0.0154704935849", "lat": 29.7132127, "timestamp": 1603389926.67395, "alt": 26.58, "yaw": "2.10047245026", "lon": -95.4045075, "heading": 120, "speed": 0.20800000429153442, "roll": "0.112865485251"}
{"pitch": "-0.0154904872179", "lat": 29.713213, "timestamp": 1603389926.914301, "alt": 26.2, "yaw": "2.06276273727", "lon": -95.4045076, "heading": 118, "speed": 0.25200000405311584, "roll": "0.118531018496"}
{"pitch": "-0.0367940440774", "lat": 29.7132132, "timestamp": 1603389927.175223, "alt": 25.8, "yaw": "2.02823114395", "lon": -95.4045081, "heading": 116, "speed": 0.0690000057220459, "roll": "0.104281395674"}
{"pitch": "-0.0367940440774", "lat": 29.7132132, "timestamp": 1603389927.415551, "alt": 25.44, "yaw": "2.02823114395", "lon": -95.4045086, "heading": 116, "speed": 0.09000000357627869, "roll": "0.104281395674"}
{"pitch": "-0.00617309845984", "lat": 29.7132128, "timestamp": 1603389927.676382, "alt": 25.15, "yaw": "2.02508449554", "lon": -95.4045089, "heading": 116, "speed": 0.3540000021457672, "roll": "0.100098714232"}
{"pitch": "0.0414794310927", "lat": 29.7132125, "timestamp": 1603389927.916999, "alt": 24.94, "yaw": "2.03517317772", "lon": -95.4045097, "heading": 116, "speed": 0.3540000021457672, "roll": "0.0712770372629"}
{"pitch": "0.0164134725928", "lat": 29.7132127, "timestamp": 1603389928.177678, "alt": 24.8, "yaw": "2.06122159958", "lon": -95.404511, "heading": 118, "speed": 0.49900001287460327, "roll": "0.0649223253131"}
{"pitch": "-0.00980182737112", "lat": 29.7132129, "timestamp": 1603389928.418265, "alt": 24.68, "yaw": "2.07222151756", "lon": -95.4045126, "heading": 118, "speed": 0.5420000553131104, "roll": "0.0657621994615"}
{"pitch": "-0.0437301173806", "lat": 29.7132133, "timestamp": 1603389928.679186, "alt": 24.56, "yaw": "2.07227516174", "lon": -95.404514, "heading": 118, "speed": 0.4180000126361847, "roll": "0.0645750463009"}
{"pitch": "-0.0434132516384", "lat": 29.7132138, "timestamp": 1603389928.919686, "alt": 24.44, "yaw": "2.06740379333", "lon": -95.4045151, "heading": 118, "speed": 0.7380000352859497, "roll": "0.0700056105852"}
{"pitch": "-0.0465264618397", "lat": 29.7132138, "timestamp": 1603389929.184472, "alt": 24.44, "yaw": "2.04914903641", "lon": -95.4045151, "heading": 117, "speed": 0.3060000240802765, "roll": "0.0541352592409"}
{"pitch": "-0.0368295684457", "lat": 29.7132143, "timestamp": 1603389929.421016, "alt": 24.28, "yaw": "2.03622078896", "lon": -95.404516, "heading": 117, "speed": 0.3060000240802765, "roll": "0.0934626758099"}
{"pitch": "-0.0199829358608", "lat": 29.7132147, "timestamp": 1603389929.68607, "alt": 24.09, "yaw": "2.03218269348", "lon": -95.4045167, "heading": 116, "speed": 0.39900001883506775, "roll": "0.076223872602"}
{"pitch": "-0.0199829358608", "lat": 29.713215, "timestamp": 1603389929.92214, "alt": 23.93, "yaw": "2.03218269348", "lon": -95.4045173, "heading": 116, "speed": 0.3140000104904175, "roll": "0.076223872602"}
{"pitch": "-0.0398550406098", "lat": 29.7132156, "timestamp": 1603389930.187393, "alt": 23.77, "yaw": "2.04753732681", "lon": -95.4045179, "heading": 117, "speed": 0.5370000004768372, "roll": "0.0603991039097"}
{"pitch": "-0.0610401444137", "lat": 29.7132163, "timestamp": 1603389930.423615, "alt": 23.64, "yaw": "2.07272529602", "lon": -95.4045184, "heading": 119, "speed": 0.1380000114440918, "roll": "0.0587918385863"}
{"pitch": "-0.0567486062646", "lat": 29.713217, "timestamp": 1603389930.68853, "alt": 23.49, "yaw": "2.08397293091", "lon": -95.4045186, "heading": 119, "speed": 0.33000001311302185, "roll": "0.0585104264319"}
{"pitch": "-0.0517509505153", "lat": 29.713217, "timestamp": 1603389930.924457, "alt": 23.49, "yaw": "2.08687257767", "lon": -95.4045186, "heading": 119, "speed": 0.33000001311302185, "roll": "0.0835899412632"}
{"pitch": "-0.0406294614077", "lat": 29.7132184, "timestamp": 1603389931.189543, "alt": 23.23, "yaw": "2.08812665939", "lon": -95.4045183, "heading": 119, "speed": 0.13199999928474426, "roll": "0.102751046419"}
{"pitch": "-0.0362624116242", "lat": 29.7132184, "timestamp": 1603389931.425557, "alt": 23.23, "yaw": "2.08780407906", "lon": -95.4045183, "heading": 119, "speed": 0.13199999928474426, "roll": "0.101576864719"}
{"pitch": "-0.0535335913301", "lat": 29.7132188, "timestamp": 1603389931.690702, "alt": 23.1, "yaw": "2.06601381302", "lon": -95.4045183, "heading": 119, "speed": 0.28700000047683716, "roll": "0.0771147236228"}
{"pitch": "-0.0464195013046", "lat": 29.7132192, "timestamp": 1603389931.927146, "alt": 22.98, "yaw": "2.05778932571", "lon": -95.4045183, "heading": 118, "speed": 0.09600000083446503, "roll": "0.0623759254813"}
{"pitch": "-0.0464195013046", "lat": 29.7132193, "timestamp": 1603389932.191587, "alt": 22.87, "yaw": "2.05778932571", "lon": -95.4045181, "heading": 118, "speed": 0.09800000488758087, "roll": "0.0623759254813"}
{"pitch": "-0.0507894083858", "lat": 29.7132195, "timestamp": 1603389932.428463, "alt": 22.75, "yaw": "2.06935691833", "lon": -95.4045176, "heading": 118, "speed": 0.13500000536441803, "roll": "0.0501999668777"}
{"pitch": "-0.0248095728457", "lat": 29.7132197, "timestamp": 1603389932.69285, "alt": 22.65, "yaw": "2.07434082031", "lon": -95.404517, "heading": 118, "speed": 0.27900001406669617, "roll": "0.0694520175457"}
{"pitch": "-0.0216007009149", "lat": 29.7132199, "timestamp": 1603389932.929722, "alt": 22.53, "yaw": "2.0672211647", "lon": -95.4045162, "heading": 118, "speed": 0.38600000739097595, "roll": "0.0972890257835"}
{"pitch": "0.0102122053504", "lat": 29.7132198, "timestamp": 1603389933.19404, "alt": 22.37, "yaw": "2.05839538574", "lon": -95.4045157, "heading": 117, "speed": 0.17600001394748688, "roll": "0.092585593462"}
{"pitch": "0.0175220146775", "lat": 29.7132197, "timestamp": 1603389933.430665, "alt": 22.2, "yaw": "2.05049514771", "lon": -95.4045154, "heading": 117, "speed": 0.406000018119812, "roll": "0.0760084465146"}
{"pitch": "0.0202652923763", "lat": 29.7132197, "timestamp": 1603389933.69521, "alt": 22.2, "yaw": "2.03807449341", "lon": -95.4045154, "heading": 117, "speed": 0.406000018119812, "roll": "0.0825116634369"}
{"pitch": "0.0222430825233", "lat": 29.7132196, "timestamp": 1603389933.931785, "alt": 22.01, "yaw": "2.05056738853", "lon": -95.4045151, "heading": 116, "speed": 0.12400000542402267, "roll": "0.0865897759795"}
{"pitch": "0.0200825929642", "lat": 29.7132196, "timestamp": 1603389934.20513, "alt": 21.84, "yaw": "2.09176921844", "lon": -95.4045153, "heading": 118, "speed": 0.05100000277161598, "roll": "0.0938597619534"}
{"pitch": "0.0200825929642", "lat": 29.7132197, "timestamp": 1603389934.432916, "alt": 21.7, "yaw": "2.09176921844", "lon": -95.4045159, "heading": 121, "speed": 0.13100001215934753, "roll": "0.0938597619534"}
{"pitch": "0.0171419382095", "lat": 29.7132199, "timestamp": 1603389934.70623, "alt": 21.56, "yaw": "2.12774944305", "lon": -95.4045168, "heading": 122, "speed": 0.2590000033378601, "roll": "0.0869098901749"}
{"pitch": "0.00499158352613", "lat": 29.7132201, "timestamp": 1603389934.934129, "alt": 21.41, "yaw": "2.15098357201", "lon": -95.4045182, "heading": 123, "speed": 0.36400002241134644, "roll": "0.0808508247137"}
{"pitch": "-0.0186765752733", "lat": 29.7132205, "timestamp": 1603389935.20738, "alt": 21.3, "yaw": "2.13965678215", "lon": -95.4045195, "heading": 123, "speed": 0.36400002241134644, "roll": "0.0626077726483"}
{"pitch": "-0.0299572348595", "lat": 29.713221, "timestamp": 1603389935.435326, "alt": 21.18, "yaw": "2.1095688343", "lon": -95.4045209, "heading": 121, "speed": 0.5270000100135803, "roll": "0.0488377846777"}
{"pitch": "-0.0527634620667", "lat": 29.7132217, "timestamp": 1603389935.708263, "alt": 21.03, "yaw": "2.09647965431", "lon": -95.4045224, "heading": 120, "speed": 0.534000039100647, "roll": "0.0417505502701"}
