{"pitch": "0.022912427783", "lat": 29.713271, "timestamp": 1603398160.603982, "alt": 12.85, "yaw": "2.2195057869", "lon": -95.4043602, "heading": 127, "speed": 0.01600000075995922, "roll": "0.000824545510113"}
{"pitch": "0.022912427783", "lat": 29.713271, "timestamp": 1603398161.104946, "alt": 12.85, "yaw": "2.2195057869", "lon": -95.4043602, "heading": 127, "speed": 0.01600000075995922, "roll": "0.000824545510113"}
{"pitch": "0.0236661061645", "lat": 29.7132709, "timestamp": 1603398161.610189, "alt": 12.86, "yaw": "2.21958732605", "lon": -95.4043602, "heading": 127, "speed": 0.07700000703334808, "roll": "0.000275634927675"}
{"pitch": "0.0233248379081", "lat": 29.713271, "timestamp": 1603398162.11107, "alt": 12.87, "yaw": "2.22009730339", "lon": -95.4043602, "heading": 127, "speed": 0.02500000037252903, "roll": "0.00014438549988"}
{"pitch": "0.0229248777032", "lat": 29.7132711, "timestamp": 1603398162.612244, "alt": 12.87, "yaw": "2.22054815292", "lon": -95.4043603, "heading": 127, "speed": 0.027000000700354576, "roll": "0.000520966481417"}
{"pitch": "0.0229352042079", "lat": 29.7132711, "timestamp": 1603398163.113413, "alt": 12.89, "yaw": "2.22038459778", "lon": -95.4043604, "heading": 127, "speed": 0.026000000536441803, "roll": "0.000431501772255"}
{"pitch": "0.022874513641", "lat": 29.7132711, "timestamp": 1603398163.615204, "alt": 12.89, "yaw": "2.2203643322", "lon": -95.4043606, "heading": 127, "speed": 0.04100000113248825, "roll": "0.000382426427677"}
{"pitch": "0.0229719094932", "lat": 29.7132711, "timestamp": 1603398164.116511, "alt": 12.88, "yaw": "2.2200050354", "lon": -95.4043608, "heading": 127, "speed": 0.027000000700354576, "roll": "0.000668910099193"}
{"pitch": "0.0223811883479", "lat": 29.713271, "timestamp": 1603398164.617856, "alt": 12.89, "yaw": "2.2204811573", "lon": -95.4043609, "heading": 127, "speed": 0.029000001028180122, "roll": "0.000982121098787"}
{"pitch": "0.0223609153181", "lat": 29.7132708, "timestamp": 1603398165.119708, "alt": 12.91, "yaw": "2.22074556351", "lon": -95.404361, "heading": 127, "speed": 0.03100000135600567, "roll": "0.000894091790542"}
{"pitch": "0.02251887694", "lat": 29.7132707, "timestamp": 1603398165.620917, "alt": 12.91, "yaw": "2.22066402435", "lon": -95.4043611, "heading": 127, "speed": 0.00800000037997961, "roll": "0.000819364096969"}
{"pitch": "0.0226858016104", "lat": 29.7132706, "timestamp": 1603398166.122033, "alt": 12.92, "yaw": "2.22101187706", "lon": -95.4043612, "heading": 127, "speed": 0.02500000037252903, "roll": "0.000625304877758"}
{"pitch": "0.0227790288627", "lat": 29.7132705, "timestamp": 1603398166.623217, "alt": 12.92, "yaw": "2.22138500214", "lon": -95.4043613, "heading": 127, "speed": 0.01900000125169754, "roll": "0.000422144075856"}
{"pitch": "0.0226847436279", "lat": 29.7132704, "timestamp": 1603398167.124346, "alt": 12.92, "yaw": "2.22161579132", "lon": -95.4043614, "heading": 127, "speed": 0.03200000151991844, "roll": "0.000700101256371"}
{"pitch": "0.0228052586317", "lat": 29.7132704, "timestamp": 1603398167.625583, "alt": 12.92, "yaw": "2.22155570984", "lon": -95.4043615, "heading": 127, "speed": 0.023000001907348633, "roll": "0.00106510776095"}
{"pitch": "0.0224676858634", "lat": 29.7132702, "timestamp": 1603398168.12685, "alt": 12.91, "yaw": "2.22156429291", "lon": -95.4043616, "heading": 127, "speed": 0.013000000268220901, "roll": "0.00131757138297"}
{"pitch": "0.0224075503647", "lat": 29.71327, "timestamp": 1603398168.627998, "alt": 12.9, "yaw": "2.2214512825", "lon": -95.4043616, "heading": 127, "speed": 0.04000000283122063, "roll": "0.00151249882765"}
{"pitch": "0.0222213044763", "lat": 29.71327, "timestamp": 1603398169.129247, "alt": 12.9, "yaw": "2.22156977654", "lon": -95.4043617, "heading": 127, "speed": 0.027000000700354576, "roll": "0.00147873070091"}
{"pitch": "0.0228065568954", "lat": 29.7132699, "timestamp": 1603398169.630444, "alt": 12.9, "yaw": "2.22147798538", "lon": -95.4043618, "heading": 127, "speed": 0.00800000037997961, "roll": "0.00166958547197"}
{"pitch": "0.0228738635778", "lat": 29.7132699, "timestamp": 1603398170.131699, "alt": 12.9, "yaw": "2.22113227844", "lon": -95.4043618, "heading": 127, "speed": 0.02200000174343586, "roll": "0.00152832246386"}
{"pitch": "0.0226127207279", "lat": 29.7132699, "timestamp": 1603398170.632963, "alt": 12.89, "yaw": "2.22090578079", "lon": -95.4043618, "heading": 127, "speed": 0.03100000135600567, "roll": "0.00143343373202"}
{"pitch": "0.0224110912532", "lat": 29.71327, "timestamp": 1603398171.134662, "alt": 12.88, "yaw": "2.22117543221", "lon": -95.4043617, "heading": 127, "speed": 0.026000000536441803, "roll": "0.00165156787261"}
{"pitch": "0.0225162096322", "lat": 29.71327, "timestamp": 1603398171.637514, "alt": 12.87, "yaw": "2.22168540955", "lon": -95.4043617, "heading": 127, "speed": 0.006000000052154064, "roll": "0.00188355194405"}
{"pitch": "0.0225030053407", "lat": 29.7132702, "timestamp": 1603398172.138756, "alt": 12.85, "yaw": "2.22150421143", "lon": -95.4043617, "heading": 127, "speed": 0.003000000026077032, "roll": "0.00183416670188"}
{"pitch": "0.0227077044547", "lat": 29.7132702, "timestamp": 1603398172.640083, "alt": 12.86, "yaw": "2.22128605843", "lon": -95.4043617, "heading": 127, "speed": 0.004000000189989805, "roll": "0.00118451029994"}
{"pitch": "0.0225585941225", "lat": 29.7132703, "timestamp": 1603398173.141397, "alt": 12.87, "yaw": "2.22116708755", "lon": -95.4043617, "heading": 127, "speed": 0.015000000596046448, "roll": "0.00110081792809"}
{"pitch": "0.0227332003415", "lat": 29.7132705, "timestamp": 1603398173.643109, "alt": 12.87, "yaw": "2.22082805634", "lon": -95.4043617, "heading": 127, "speed": 0.052000001072883606, "roll": "0.000612400006503"}
{"pitch": "0.0223191827536", "lat": 29.7132707, "timestamp": 1603398174.144281, "alt": 12.87, "yaw": "2.22039818764", "lon": -95.4043617, "heading": 127, "speed": 0.01900000125169754, "roll": "0.000687658088282"}
{"pitch": "0.0220691822469", "lat": 29.7132708, "timestamp": 1603398174.645364, "alt": 12.87, "yaw": "2.2204618454", "lon": -95.4043616, "heading": 127, "speed": 0.01900000125169754, "roll": "0.00117042893544"}
{"pitch": "0.0221610814333", "lat": 29.7132709, "timestamp": 1603398175.14647, "alt": 12.88, "yaw": "2.22032189369", "lon": -95.4043616, "heading": 127, "speed": 0.005000000353902578, "roll": "0.00126684852876"}
{"pitch": "0.0224410630763", "lat": 29.7132711, "timestamp": 1603398175.647593, "alt": 12.89, "yaw": "2.22051286697", "lon": -95.4043616, "heading": 127, "speed": 0.02800000086426735, "roll": "0.000621729763225"}
{"pitch": "0.0225016213953", "lat": 29.7132714, "timestamp": 1603398176.148706, "alt": 12.88, "yaw": "2.22066879272", "lon": -95.4043616, "heading": 127, "speed": 0.021000001579523087, "roll": "0.000780379166827"}
{"pitch": "0.0224910452962", "lat": 29.7132716, "timestamp": 1603398176.649569, "alt": 12.88, "yaw": "2.22103071213", "lon": -95.4043616, "heading": 127, "speed": 0.02200000174343586, "roll": "0.000774025218561"}
{"pitch": "0.0221672840416", "lat": 29.7132719, "timestamp": 1603398177.150831, "alt": 12.89, "yaw": "2.22094249725", "lon": -95.4043616, "heading": 127, "speed": 0.029000001028180122, "roll": "0.00116332783364"}
{"pitch": "0.022141482681", "lat": 29.7132722, "timestamp": 1603398177.652779, "alt": 12.9, "yaw": "2.2210021019", "lon": -95.4043616, "heading": 127, "speed": 0.015000000596046448, "roll": "0.00107836723328"}
{"pitch": "0.0221038833261", "lat": 29.7132724, "timestamp": 1603398178.153792, "alt": 12.9, "yaw": "2.22107386589", "lon": -95.4043617, "heading": 127, "speed": 0.017000000923871994, "roll": "0.00161143415608"}
{"pitch": "0.0218915585428", "lat": 29.7132727, "timestamp": 1603398178.65513, "alt": 12.89, "yaw": "2.22143983841", "lon": -95.4043618, "heading": 127, "speed": 0.01100000087171793, "roll": "0.00178700336255"}
{"pitch": "0.0222466923296", "lat": 29.713273, "timestamp": 1603398179.157057, "alt": 12.89, "yaw": "2.22110080719", "lon": -95.4043619, "heading": 127, "speed": 0.020000001415610313, "roll": "0.00183575460687"}
{"pitch": "0.0222783684731", "lat": 29.7132731, "timestamp": 1603398179.658375, "alt": 12.89, "yaw": "2.2209777832", "lon": -95.404362, "heading": 127, "speed": 0.020000001415610313, "roll": "0.00195587007329"}
{"pitch": "0.0222607497126", "lat": 29.7132734, "timestamp": 1603398180.160036, "alt": 12.9, "yaw": "2.22066354752", "lon": -95.404362, "heading": 127, "speed": 0.01100000087171793, "roll": "0.00222511263564"}
{"pitch": "0.0222566779703", "lat": 29.7132735, "timestamp": 1603398180.661496, "alt": 12.91, "yaw": "2.22076940536", "lon": -95.4043621, "heading": 127, "speed": 0.036000002175569534, "roll": "0.00239711813629"}
{"pitch": "0.0226380359381", "lat": 29.7132737, "timestamp": 1603398181.163649, "alt": 12.91, "yaw": "2.22051358223", "lon": -95.4043622, "heading": 127, "speed": 0.017000000923871994, "roll": "0.00230240728706"}
{"pitch": "0.0225120298564", "lat": 29.7132739, "timestamp": 1603398181.664926, "alt": 12.91, "yaw": "2.22053980827", "lon": -95.4043623, "heading": 127, "speed": 0.010000000707805157, "roll": "0.00218162499368"}
{"pitch": "0.0224497206509", "lat": 29.7132741, "timestamp": 1603398182.166085, "alt": 12.89, "yaw": "2.21996331215", "lon": -95.4043623, "heading": 127, "speed": 0.023000001907348633, "roll": "0.00224641431123"}
{"pitch": "0.0223056245595", "lat": 29.7132743, "timestamp": 1603398182.667193, "alt": 12.88, "yaw": "2.22017407417", "lon": -95.4043624, "heading": 127, "speed": 0.02500000037252903, "roll": "0.00248821685091"}
{"pitch": "0.0220892205834", "lat": 29.7132746, "timestamp": 1603398183.168289, "alt": 12.87, "yaw": "2.22016882896", "lon": -95.4043624, "heading": 127, "speed": 0.010000000707805157, "roll": "0.00246412493289"}
{"pitch": "0.0214146152139", "lat": 29.7132749, "timestamp": 1603398183.669379, "alt": 12.86, "yaw": "2.22018861771", "lon": -95.4043624, "heading": 127, "speed": 0.015000000596046448, "roll": "0.00229456787929"}
{"pitch": "0.0212384238839", "lat": 29.713275, "timestamp": 1603398184.170539, "alt": 12.86, "yaw": "2.22006297112", "lon": -95.4043622, "heading": 127, "speed": 0.04200000315904617, "roll": "0.00189633027185"}
{"pitch": "0.0214561037719", "lat": 29.7132752, "timestamp": 1603398184.671681, "alt": 12.87, "yaw": "2.21945762634", "lon": -95.4043621, "heading": 127, "speed": 0.02500000037252903, "roll": "0.0024431894999"}
{"pitch": "0.0215341933072", "lat": 29.7132753, "timestamp": 1603398185.172948, "alt": 12.88, "yaw": "2.21917772293", "lon": -95.404362, "heading": 127, "speed": 0.029000001028180122, "roll": "0.00219299900346"}
{"pitch": "0.0207213964313", "lat": 29.7132755, "timestamp": 1603398185.67418, "alt": 12.89, "yaw": "2.21885824203", "lon": -95.4043619, "heading": 127, "speed": 0.04000000283122063, "roll": "0.00215213978663"}
{"pitch": "0.0208578053862", "lat": 29.7132757, "timestamp": 1603398186.175389, "alt": 12.88, "yaw": "2.21901988983", "lon": -95.4043618, "heading": 127, "speed": 0.02800000086426735, "roll": "0.0023279117886"}
{"pitch": "0.0212723929435", "lat": 29.7132759, "timestamp": 1603398186.676603, "alt": 12.88, "yaw": "2.21876549721", "lon": -95.4043617, "heading": 127, "speed": 0.02800000086426735, "roll": "0.00221852585673"}
{"pitch": "0.0210380610079", "lat": 29.7132762, "timestamp": 1603398187.177778, "alt": 12.88, "yaw": "2.21851015091", "lon": -95.4043616, "heading": 127, "speed": 0.005000000353902578, "roll": "0.00249055912718"}
{"pitch": "0.0211856197566", "lat": 29.7132765, "timestamp": 1603398187.683947, "alt": 12.88, "yaw": "2.21860599518", "lon": -95.4043614, "heading": 127, "speed": 0.013000000268220901, "roll": "0.00261310720816"}
{"pitch": "0.0215579308569", "lat": 29.7132768, "timestamp": 1603398188.185381, "alt": 12.88, "yaw": "2.21876621246", "lon": -95.4043613, "heading": 127, "speed": 0.039000000804662704, "roll": "0.00254906597547"}
{"pitch": "0.0215954314917", "lat": 29.7132771, "timestamp": 1603398188.686542, "alt": 12.88, "yaw": "2.21825742722", "lon": -95.4043613, "heading": 127, "speed": 0.013000000268220901, "roll": "0.00204477040097"}
{"pitch": "0.0219071153551", "lat": 29.7132774, "timestamp": 1603398189.187382, "alt": 12.88, "yaw": "2.21816325188", "lon": -95.4043613, "heading": 127, "speed": 0.013000000268220901, "roll": "0.00131980935112"}
{"pitch": "0.0221809018403", "lat": 29.7132777, "timestamp": 1603398189.688586, "alt": 12.87, "yaw": "2.2181494236", "lon": -95.4043612, "heading": 127, "speed": 0.010000000707805157, "roll": "0.0012153275311"}
{"pitch": "0.0223364159465", "lat": 29.7132781, "timestamp": 1603398190.189484, "alt": 12.86, "yaw": "2.21854257584", "lon": -95.4043611, "heading": 127, "speed": 0.021000001579523087, "roll": "0.00126624153927"}
{"pitch": "0.0221259202808", "lat": 29.7132785, "timestamp": 1603398190.690579, "alt": 12.85, "yaw": "2.21869111061", "lon": -95.4043611, "heading": 127, "speed": 0.013000000268220901, "roll": "0.00153891253285"}
{"pitch": "0.0217601750046", "lat": 29.7132788, "timestamp": 1603398191.19167, "alt": 12.85, "yaw": "2.21794962883", "lon": -95.4043609, "heading": 127, "speed": 0.03400000184774399, "roll": "0.0019646207802"}
{"pitch": "0.0223797950894", "lat": 29.7132792, "timestamp": 1603398191.692978, "alt": 12.85, "yaw": "2.21789932251", "lon": -95.4043608, "heading": 127, "speed": 0.015000000596046448, "roll": "0.00165065028705"}
{"pitch": "0.022132249549", "lat": 29.7132794, "timestamp": 1603398192.19443, "alt": 12.85, "yaw": "2.21779990196", "lon": -95.4043607, "heading": 127, "speed": 0.01900000125169754, "roll": "0.00190383882727"}
{"pitch": "0.0220340769738", "lat": 29.7132797, "timestamp": 1603398192.699385, "alt": 12.85, "yaw": "2.21774744987", "lon": -95.4043605, "heading": 127, "speed": 0.009000000543892384, "roll": "0.00229191756807"}
{"pitch": "0.0216659083962", "lat": 29.71328, "timestamp": 1603398193.200598, "alt": 12.84, "yaw": "2.21791243553", "lon": -95.4043604, "heading": 127, "speed": 0.012000000104308128, "roll": "0.00237414147705"}
{"pitch": "0.0215027350932", "lat": 29.7132803, "timestamp": 1603398193.701762, "alt": 12.84, "yaw": "2.21758890152", "lon": -95.4043602, "heading": 127, "speed": 0.020000001415610313, "roll": "0.00293910270557"}
{"pitch": "0.0211072787642", "lat": 29.7132806, "timestamp": 1603398194.202718, "alt": 12.84, "yaw": "2.21759939194", "lon": -95.4043601, "heading": 127, "speed": 0.03200000151991844, "roll": "0.00314572104253"}
{"pitch": "0.0207337066531", "lat": 29.713281, "timestamp": 1603398194.703957, "alt": 12.84, "yaw": "2.21820855141", "lon": -95.4043599, "heading": 127, "speed": 0.009000000543892384, "roll": "0.00325932120904"}
{"pitch": "0.0205790251493", "lat": 29.7132811, "timestamp": 1603398195.205503, "alt": 12.83, "yaw": "2.21823835373", "lon": -95.4043599, "heading": 127, "speed": 0.010000000707805157, "roll": "0.003477467224"}
{"pitch": "0.0204137079418", "lat": 29.7132813, "timestamp": 1603398195.706971, "alt": 12.82, "yaw": "2.21859264374", "lon": -95.4043598, "heading": 127, "speed": 0.06599999964237213, "roll": "0.00334689789452"}
{"pitch": "0.02017361857", "lat": 29.7132815, "timestamp": 1603398196.208066, "alt": 12.81, "yaw": "2.21801519394", "lon": -95.4043598, "heading": 127, "speed": 0.032999999821186066, "roll": "0.00375131820329"}
{"pitch": "0.0200419016182", "lat": 29.7132817, "timestamp": 1603398196.709188, "alt": 12.79, "yaw": "2.21785712242", "lon": -95.4043597, "heading": 127, "speed": 0.02500000037252903, "roll": "0.00391151290387"}
{"pitch": "0.0205363351852", "lat": 29.7132819, "timestamp": 1603398197.210278, "alt": 12.78, "yaw": "2.2178068161", "lon": -95.4043596, "heading": 127, "speed": 0.018000001087784767, "roll": "0.00368506251834"}
{"pitch": "0.0206671990454", "lat": 29.7132821, "timestamp": 1603398197.71849, "alt": 12.76, "yaw": "2.21765518188", "lon": -95.4043596, "heading": 127, "speed": 0.030000001192092896, "roll": "0.00365627463907"}
{"pitch": "0.020829308778", "lat": 29.7132823, "timestamp": 1603398198.219701, "alt": 12.75, "yaw": "2.21757388115", "lon": -95.4043596, "heading": 127, "speed": 0.026000000536441803, "roll": "0.00374490371905"}
{"pitch": "0.0206227637827", "lat": 29.7132824, "timestamp": 1603398198.720358, "alt": 12.74, "yaw": "2.21728229523", "lon": -95.4043596, "heading": 127, "speed": 0.026000000536441803, "roll": "0.00417793961242"}
{"pitch": "0.0199885275215", "lat": 29.7132824, "timestamp": 1603398199.222127, "alt": 12.74, "yaw": "2.21771025658", "lon": -95.4043596, "heading": 127, "speed": 0.029000001028180122, "roll": "0.00423746742308"}
{"pitch": "0.0198243409395", "lat": 29.7132826, "timestamp": 1603398199.72358, "alt": 12.74, "yaw": "2.21784186363", "lon": -95.4043597, "heading": 127, "speed": 0.023000001907348633, "roll": "0.00421756273136"}
{"pitch": "0.0200373493135", "lat": 29.7132827, "timestamp": 1603398200.224813, "alt": 12.74, "yaw": "2.21760892868", "lon": -95.4043597, "heading": 127, "speed": 0.02200000174343586, "roll": "0.00393285695463"}
{"pitch": "0.0196831058711", "lat": 29.7132828, "timestamp": 1603398200.726125, "alt": 12.75, "yaw": "2.21769738197", "lon": -95.4043596, "heading": 127, "speed": 0.02800000086426735, "roll": "0.00390281737782"}
{"pitch": "0.0200752057135", "lat": 29.7132829, "timestamp": 1603398201.227519, "alt": 12.76, "yaw": "2.21824193001", "lon": -95.4043595, "heading": 127, "speed": 0.015000000596046448, "roll": "0.00370862707496"}
{"pitch": "0.0208945572376", "lat": 29.713283, "timestamp": 1603398201.728714, "alt": 12.76, "yaw": "2.21852016449", "lon": -95.4043593, "heading": 127, "speed": 0.017000000923871994, "roll": "0.0034058149904"}
{"pitch": "0.0213472023606", "lat": 29.713283, "timestamp": 1603398202.231506, "alt": 12.75, "yaw": "2.21897101402", "lon": -95.4043593, "heading": 127, "speed": 0.024000000208616257, "roll": "0.00303564639762"}
{"pitch": "0.0215982422233", "lat": 29.7132831, "timestamp": 1603398202.732725, "alt": 12.73, "yaw": "2.21922063828", "lon": -95.4043591, "heading": 127, "speed": 0.023000001907348633, "roll": "0.00227735331282"}
{"pitch": "0.0215254984796", "lat": 29.7132832, "timestamp": 1603398203.234165, "alt": 12.72, "yaw": "2.21967601776", "lon": -95.404359, "heading": 127, "speed": 0.004000000189989805, "roll": "0.00211222143844"}
{"pitch": "0.021531926468", "lat": 29.7132832, "timestamp": 1603398203.735767, "alt": 12.71, "yaw": "2.22007107735", "lon": -95.4043589, "heading": 127, "speed": 0.013000000268220901, "roll": "0.00238006934524"}
{"pitch": "0.0214287787676", "lat": 29.7132832, "timestamp": 1603398204.236954, "alt": 12.7, "yaw": "2.22044157982", "lon": -95.4043589, "heading": 127, "speed": 0.02200000174343586, "roll": "0.00204749708064"}
{"pitch": "0.0215747784823", "lat": 29.7132831, "timestamp": 1603398204.738048, "alt": 12.7, "yaw": "2.22024130821", "lon": -95.4043588, "heading": 127, "speed": 0.015000000596046448, "roll": "0.00153659959324"}
{"pitch": "0.0217513684183", "lat": 29.7132832, "timestamp": 1603398205.239154, "alt": 12.7, "yaw": "2.22007131577", "lon": -95.4043588, "heading": 127, "speed": 0.032999999821186066, "roll": "0.00143998744898"}
{"pitch": "0.0216064397246", "lat": 29.7132832, "timestamp": 1603398205.740236, "alt": 12.7, "yaw": "2.22026062012", "lon": -95.4043588, "heading": 127, "speed": 0.020000001415610313, "roll": "0.00172271230258"}
{"pitch": "0.0216132365167", "lat": 29.7132832, "timestamp": 1603398206.241011, "alt": 12.69, "yaw": "2.2204220295", "lon": -95.4043587, "heading": 127, "speed": 0.02500000037252903, "roll": "0.00197367416695"}
{"pitch": "0.0212326291949", "lat": 29.7132832, "timestamp": 1603398206.741951, "alt": 12.68, "yaw": "2.21994423866", "lon": -95.4043586, "heading": 127, "speed": 0.010000000707805157, "roll": "0.00194908073172"}
{"pitch": "0.0207306798548", "lat": 29.7132831, "timestamp": 1603398207.242728, "alt": 12.68, "yaw": "2.21994948387", "lon": -95.4043586, "heading": 127, "speed": 0.03100000135600567, "roll": "0.00213145511225"}
{"pitch": "0.0205226168036", "lat": 29.7132831, "timestamp": 1603398207.743997, "alt": 12.67, "yaw": "2.2193646431", "lon": -95.4043585, "heading": 127, "speed": 0.027000000700354576, "roll": "0.00151365553029"}
{"pitch": "0.0206595752388", "lat": 29.713283, "timestamp": 1603398208.246713, "alt": 12.66, "yaw": "2.21970915794", "lon": -95.4043584, "heading": 127, "speed": 0.023000001907348633, "roll": "0.00150874466635"}
{"pitch": "0.0205338876694", "lat": 29.7132829, "timestamp": 1603398208.747916, "alt": 12.66, "yaw": "2.21990704536", "lon": -95.4043582, "heading": 127, "speed": 0.01100000087171793, "roll": "0.00173239200376"}
{"pitch": "0.0199577305466", "lat": 29.7132828, "timestamp": 1603398209.24909, "alt": 12.66, "yaw": "2.2194674015", "lon": -95.4043581, "heading": 127, "speed": 0.015000000596046448, "roll": "0.002159696538"}
{"pitch": "0.0195423401892", "lat": 29.7132827, "timestamp": 1603398209.750209, "alt": 12.65, "yaw": "2.21914172173", "lon": -95.404358, "heading": 127, "speed": 0.015000000596046448, "roll": "0.00239803502336"}
{"pitch": "0.019874420017", "lat": 29.7132826, "timestamp": 1603398210.251335, "alt": 12.66, "yaw": "2.2193031311", "lon": -95.4043579, "heading": 127, "speed": 0.039000000804662704, "roll": "0.00223055644892"}
{"pitch": "0.0201099924743", "lat": 29.7132826, "timestamp": 1603398210.752538, "alt": 12.67, "yaw": "2.21944403648", "lon": -95.4043577, "heading": 127, "speed": 0.0010000000474974513, "roll": "0.00222164019942"}
{"pitch": "0.0203819163144", "lat": 29.7132824, "timestamp": 1603398211.253976, "alt": 12.68, "yaw": "2.21940898895", "lon": -95.4043576, "heading": 127, "speed": 0.021000001579523087, "roll": "0.00231021805666"}
{"pitch": "0.0206318087876", "lat": 29.7132823, "timestamp": 1603398211.755187, "alt": 12.7, "yaw": "2.21953177452", "lon": -95.4043575, "heading": 127, "speed": 0.013000000268220901, "roll": "0.00251641357318"}
{"pitch": "0.0207759831101", "lat": 29.7132822, "timestamp": 1603398212.256299, "alt": 12.72, "yaw": "2.21957135201", "lon": -95.4043574, "heading": 127, "speed": 0.007000000216066837, "roll": "0.0025743523147"}
{"pitch": "0.0207700636238", "lat": 29.713282, "timestamp": 1603398212.757397, "alt": 12.73, "yaw": "2.2197163105", "lon": -95.4043572, "heading": 127, "speed": 0.012000000104308128, "roll": "0.00301459105685"}
{"pitch": "0.0204817373306", "lat": 29.7132818, "timestamp": 1603398213.258608, "alt": 12.74, "yaw": "2.21977901459", "lon": -95.404357, "heading": 127, "speed": 0.004000000189989805, "roll": "0.00370559259318"}
{"pitch": "0.0204173736274", "lat": 29.7132817, "timestamp": 1603398213.75973, "alt": 12.75, "yaw": "2.21960377693", "lon": -95.4043567, "heading": 127, "speed": 0.01100000087171793, "roll": "0.00360929057933"}
{"pitch": "0.020143609494", "lat": 29.7132815, "timestamp": 1603398214.26086, "alt": 12.76, "yaw": "2.22006249428", "lon": -95.4043565, "heading": 127, "speed": 0.026000000536441803, "roll": "0.00368614634499"}
{"pitch": "0.0199787672609", "lat": 29.7132813, "timestamp": 1603398214.761992, "alt": 12.76, "yaw": "2.21979117393", "lon": -95.4043563, "heading": 127, "speed": 0.007000000216066837, "roll": "0.00366641394794"}
{"pitch": "0.0204532928765", "lat": 29.7132813, "timestamp": 1603398215.263131, "alt": 12.75, "yaw": "2.21990966797", "lon": -95.4043561, "heading": 127, "speed": 0.020000001415610313, "roll": "0.00318083795719"}
{"pitch": "0.0204967502505", "lat": 29.7132812, "timestamp": 1603398215.764311, "alt": 12.76, "yaw": "2.22008109093", "lon": -95.404356, "heading": 127, "speed": 0.009000000543892384, "roll": "0.00282646995038"}
{"pitch": "0.0201953798532", "lat": 29.7132811, "timestamp": 1603398216.265647, "alt": 12.76, "yaw": "2.21993398666", "lon": -95.4043559, "heading": 127, "speed": 0.007000000216066837, "roll": "0.00334295770153"}
{"pitch": "0.0200329255313", "lat": 29.7132811, "timestamp": 1603398216.766947, "alt": 12.76, "yaw": "2.22019910812", "lon": -95.4043558, "heading": 127, "speed": 0.015000000596046448, "roll": "0.00322812842205"}
{"pitch": "0.0201051477343", "lat": 29.7132809, "timestamp": 1603398217.268098, "alt": 12.78, "yaw": "2.22082591057", "lon": -95.4043556, "heading": 127, "speed": 0.018000001087784767, "roll": "0.00289549306035"}
{"pitch": "0.0203084461391", "lat": 29.7132809, "timestamp": 1603398217.769359, "alt": 12.79, "yaw": "2.2207672596", "lon": -95.4043556, "heading": 127, "speed": 0.04000000283122063, "roll": "0.00282128993422"}
{"pitch": "0.020803404972", "lat": 29.7132807, "timestamp": 1603398218.270611, "alt": 12.8, "yaw": "2.22094631195", "lon": -95.4043555, "heading": 127, "speed": 0.05400000140070915, "roll": "0.00279841781594"}
{"pitch": "0.0205914787948", "lat": 29.7132806, "timestamp": 1603398218.771744, "alt": 12.8, "yaw": "2.22104549408", "lon": -95.4043555, "heading": 127, "speed": 0.00800000037997961, "roll": "0.00290951854549"}
{"pitch": "0.0209722109139", "lat": 29.7132804, "timestamp": 1603398219.273114, "alt": 12.78, "yaw": "2.22096514702", "lon": -95.4043554, "heading": 127, "speed": 0.012000000104308128, "roll": "0.00290616229177"}
{"pitch": "0.0216374862939", "lat": 29.7132802, "timestamp": 1603398219.774549, "alt": 12.76, "yaw": "2.22071480751", "lon": -95.4043555, "heading": 127, "speed": 0.021000001579523087, "roll": "0.00314008584246"}
{"pitch": "0.0214821659029", "lat": 29.7132801, "timestamp": 1603398220.27649, "alt": 12.74, "yaw": "2.22145485878", "lon": -95.4043555, "heading": 127, "speed": 0.020000001415610313, "roll": "0.00337972072884"}
{"pitch": "0.0217102076858", "lat": 29.71328, "timestamp": 1603398220.777721, "alt": 12.73, "yaw": "2.2215180397", "lon": -95.4043555, "heading": 127, "speed": 0.05400000140070915, "roll": "0.00314306863584"}
{"pitch": "0.021724967286", "lat": 29.7132798, "timestamp": 1603398221.278807, "alt": 12.71, "yaw": "2.22145199776", "lon": -95.4043554, "heading": 127, "speed": 0.03200000151991844, "roll": "0.00315358000807"}
{"pitch": "0.0217904616147", "lat": 29.7132797, "timestamp": 1603398221.779953, "alt": 12.69, "yaw": "2.22180342674", "lon": -95.4043553, "heading": 127, "speed": 0.01100000087171793, "roll": "0.0032802761998"}
{"pitch": "0.0219641756266", "lat": 29.7132797, "timestamp": 1603398222.28192, "alt": 12.67, "yaw": "2.22156906128", "lon": -95.4043553, "heading": 127, "speed": 0.02500000037252903, "roll": "0.00362554355524"}
{"pitch": "0.0216132570058", "lat": 29.7132796, "timestamp": 1603398222.783226, "alt": 12.65, "yaw": "2.22170042992", "lon": -95.4043554, "heading": 127, "speed": 0.023000001907348633, "roll": "0.00361048872583"}
{"pitch": "0.0215435810387", "lat": 29.7132796, "timestamp": 1603398223.284454, "alt": 12.63, "yaw": "2.22162294388", "lon": -95.4043554, "heading": 127, "speed": 0.04400000348687172, "roll": "0.00393075030297"}
{"pitch": "0.0218133758754", "lat": 29.7132795, "timestamp": 1603398223.785368, "alt": 12.62, "yaw": "2.22121667862", "lon": -95.4043553, "heading": 127, "speed": 0.023000001907348633, "roll": "0.00370621914044"}
{"pitch": "0.0217572841793", "lat": 29.7132794, "timestamp": 1603398224.286498, "alt": 12.61, "yaw": "2.22134709358", "lon": -95.4043552, "heading": 127, "speed": 0.023000001907348633, "roll": "0.00385116739199"}
{"pitch": "0.0218075960875", "lat": 29.7132792, "timestamp": 1603398224.787723, "alt": 12.6, "yaw": "2.22157049179", "lon": -95.4043552, "heading": 127, "speed": 0.01900000125169754, "roll": "0.00373818981461"}
{"pitch": "0.0217843633145", "lat": 29.7132791, "timestamp": 1603398225.288718, "alt": 12.59, "yaw": "2.22167205811", "lon": -95.4043551, "heading": 127, "speed": 0.015000000596046448, "roll": "0.00363037060015"}
{"pitch": "0.021741386503", "lat": 29.7132791, "timestamp": 1603398225.789954, "alt": 12.59, "yaw": "2.22191810608", "lon": -95.4043551, "heading": 127, "speed": 0.009000000543892384, "roll": "0.00308045884594"}
{"pitch": "0.0215135123581", "lat": 29.7132791, "timestamp": 1603398226.291132, "alt": 12.57, "yaw": "2.22227716446", "lon": -95.4043551, "heading": 127, "speed": 0.01900000125169754, "roll": "0.00289750145748"}
{"pitch": "0.0212993230671", "lat": 29.713279, "timestamp": 1603398226.792324, "alt": 12.55, "yaw": "2.22217535973", "lon": -95.404355, "heading": 127, "speed": 0.03200000151991844, "roll": "0.0029867850244"}
{"pitch": "0.0206150282174", "lat": 29.7132789, "timestamp": 1603398227.293794, "alt": 12.54, "yaw": "2.22201442719", "lon": -95.404355, "heading": 127, "speed": 0.015000000596046448, "roll": "0.00281694345176"}
{"pitch": "0.0205656308681", "lat": 29.7132789, "timestamp": 1603398227.795592, "alt": 12.53, "yaw": "2.2221558094", "lon": -95.404355, "heading": 127, "speed": 0.03700000047683716, "roll": "0.0027049772907"}
{"pitch": "0.0208334922791", "lat": 29.7132788, "timestamp": 1603398228.298027, "alt": 12.53, "yaw": "2.22219419479", "lon": -95.4043549, "heading": 127, "speed": 0.01100000087171793, "roll": "0.00196931278333"}
{"pitch": "0.0210041999817", "lat": 29.7132788, "timestamp": 1603398228.799194, "alt": 12.52, "yaw": "2.22222042084", "lon": -95.4043548, "heading": 127, "speed": 0.01100000087171793, "roll": "0.00171132828109"}
{"pitch": "0.0209889635444", "lat": 29.7132788, "timestamp": 1603398229.300287, "alt": 12.52, "yaw": "2.22184634209", "lon": -95.4043548, "heading": 127, "speed": 0.026000000536441803, "roll": "0.00169732701033"}
{"pitch": "0.0210691373795", "lat": 29.7132788, "timestamp": 1603398229.801404, "alt": 12.51, "yaw": "2.22167110443", "lon": -95.4043549, "heading": 127, "speed": 0.003000000026077032, "roll": "0.00150001537986"}
{"pitch": "0.0208922103047", "lat": 29.7132789, "timestamp": 1603398230.302354, "alt": 12.5, "yaw": "2.22161626816", "lon": -95.404355, "heading": 127, "speed": 0.02500000037252903, "roll": "0.00138821988367"}
{"pitch": "0.0207689926028", "lat": 29.713279, "timestamp": 1603398230.803477, "alt": 12.5, "yaw": "2.22150421143", "lon": -95.4043551, "heading": 127, "speed": 0.007000000216066837, "roll": "0.0015052112285"}
{"pitch": "0.0206360407174", "lat": 29.7132791, "timestamp": 1603398231.304586, "alt": 12.5, "yaw": "2.22130560875", "lon": -95.4043551, "heading": 127, "speed": 0.012000000104308128, "roll": "0.00181084335782"}
{"pitch": "0.0203349217772", "lat": 29.7132791, "timestamp": 1603398231.805747, "alt": 12.49, "yaw": "2.22151184082", "lon": -95.4043551, "heading": 127, "speed": 0.024000000208616257, "roll": "0.00180940213613"}
{"pitch": "0.0207122154534", "lat": 29.7132792, "timestamp": 1603398232.308557, "alt": 12.47, "yaw": "2.22114229202", "lon": -95.4043551, "heading": 127, "speed": 0.00800000037997961, "roll": "0.00214826827869"}
{"pitch": "0.0205542743206", "lat": 29.7132792, "timestamp": 1603398232.810364, "alt": 12.45, "yaw": "2.22066760063", "lon": -95.4043552, "heading": 127, "speed": 0.017000000923871994, "roll": "0.00223827688023"}
{"pitch": "0.0208829641342", "lat": 29.7132794, "timestamp": 1603398233.312532, "alt": 12.45, "yaw": "2.22065234184", "lon": -95.4043552, "heading": 127, "speed": 0.03200000151991844, "roll": "0.00225902535021"}
{"pitch": "0.0212675146759", "lat": 29.7132796, "timestamp": 1603398233.814332, "alt": 12.45, "yaw": "2.22017645836", "lon": -95.4043553, "heading": 127, "speed": 0.005000000353902578, "roll": "0.00219809636474"}
{"pitch": "0.0209422819316", "lat": 29.7132797, "timestamp": 1603398234.31647, "alt": 12.45, "yaw": "2.22054815292", "lon": -95.4043553, "heading": 127, "speed": 0.03100000135600567, "roll": "0.00209981249645"}
{"pitch": "0.0206565838307", "lat": 29.7132799, "timestamp": 1603398234.818145, "alt": 12.46, "yaw": "2.22029852867", "lon": -95.4043553, "heading": 127, "speed": 0.017000000923871994, "roll": "0.0021483656019"}
{"pitch": "0.020962446928", "lat": 29.7132801, "timestamp": 1603398235.319582, "alt": 12.47, "yaw": "2.22072172165", "lon": -95.4043553, "heading": 127, "speed": 0.021000001579523087, "roll": "0.00177130079828"}
{"pitch": "0.0205748062581", "lat": 29.7132802, "timestamp": 1603398235.820727, "alt": 12.48, "yaw": "2.22055888176", "lon": -95.4043553, "heading": 127, "speed": 0.020000001415610313, "roll": "0.00230908906087"}
{"pitch": "0.0207271259278", "lat": 29.7132804, "timestamp": 1603398236.321918, "alt": 12.48, "yaw": "2.22043681145", "lon": -95.4043553, "heading": 127, "speed": 0.009000000543892384, "roll": "0.00231831148267"}
{"pitch": "0.0208427011967", "lat": 29.7132805, "timestamp": 1603398236.823059, "alt": 12.48, "yaw": "2.22023630142", "lon": -95.4043554, "heading": 127, "speed": 0.02800000086426735, "roll": "0.00224996893667"}
{"pitch": "0.0209945943207", "lat": 29.7132806, "timestamp": 1603398237.324178, "alt": 12.49, "yaw": "2.22036790848", "lon": -95.4043554, "heading": 127, "speed": 0.030000001192092896, "roll": "0.00250022672117"}
{"pitch": "0.0210292711854", "lat": 29.7132806, "timestamp": 1603398237.825509, "alt": 12.51, "yaw": "2.21986842155", "lon": -95.4043554, "heading": 127, "speed": 0.023000001907348633, "roll": "0.00234538502991"}
{"pitch": "0.0210548918694", "lat": 29.7132807, "timestamp": 1603398238.327118, "alt": 12.51, "yaw": "2.22004103661", "lon": -95.4043555, "heading": 127, "speed": 0.017000000923871994, "roll": "0.00215553306043"}
{"pitch": "0.020983632654", "lat": 29.7132807, "timestamp": 1603398238.82832, "alt": 12.52, "yaw": "2.21998739243", "lon": -95.4043555, "heading": 127, "speed": 0.024000000208616257, "roll": "0.0026863082312"}
{"pitch": "0.0207486227155", "lat": 29.7132807, "timestamp": 1603398239.329484, "alt": 12.51, "yaw": "2.21989774704", "lon": -95.4043555, "heading": 127, "speed": 0.017000000923871994, "roll": "0.00310110580176"}
{"pitch": "0.0205379929394", "lat": 29.7132807, "timestamp": 1603398239.830849, "alt": 12.52, "yaw": "2.21991300583", "lon": -95.4043555, "heading": 127, "speed": 0.018000001087784767, "roll": "0.00317073473707"}
{"pitch": "0.0206407941878", "lat": 29.7132805, "timestamp": 1603398240.333048, "alt": 12.52, "yaw": "2.22018265724", "lon": -95.4043554, "heading": 127, "speed": 0.005000000353902578, "roll": "0.00300328619778"}
{"pitch": "0.0206229761243", "lat": 29.7132805, "timestamp": 1603398240.834343, "alt": 12.51, "yaw": "2.22057151794", "lon": -95.4043552, "heading": 127, "speed": 0.027000000700354576, "roll": "0.0031072976999"}
{"pitch": "0.0206862483174", "lat": 29.7132805, "timestamp": 1603398241.335787, "alt": 12.52, "yaw": "2.22083353996", "lon": -95.404355, "heading": 127, "speed": 0.00800000037997961, "roll": "0.00297495396808"}
{"pitch": "0.0204313714057", "lat": 29.7132805, "timestamp": 1603398241.837119, "alt": 12.52, "yaw": "2.22088289261", "lon": -95.4043547, "heading": 127, "speed": 0.01100000087171793, "roll": "0.00309609947726"}
{"pitch": "0.0209105145186", "lat": 29.7132804, "timestamp": 1603398242.33937, "alt": 12.53, "yaw": "2.2206223011", "lon": -95.4043545, "heading": 127, "speed": 0.015000000596046448, "roll": "0.00318886432797"}
{"pitch": "0.0209995415062", "lat": 29.7132803, "timestamp": 1603398242.841677, "alt": 12.54, "yaw": "2.22101521492", "lon": -95.4043543, "heading": 127, "speed": 0.03200000151991844, "roll": "0.0030626244843"}
{"pitch": "0.020963024348", "lat": 29.7132803, "timestamp": 1603398243.342892, "alt": 12.54, "yaw": "2.22133660316", "lon": -95.4043541, "heading": 127, "speed": 0.009000000543892384, "roll": "0.00317462719977"}
{"pitch": "0.0206118207425", "lat": 29.7132803, "timestamp": 1603398243.844043, "alt": 12.54, "yaw": "2.22155714035", "lon": -95.4043539, "heading": 127, "speed": 0.009000000543892384, "roll": "0.00317958998494"}
{"pitch": "0.0205767992884", "lat": 29.7132802, "timestamp": 1603398244.34534, "alt": 12.54, "yaw": "2.22166967392", "lon": -95.4043537, "heading": 127, "speed": 0.02800000086426735, "roll": "0.00281582772732"}
{"pitch": "0.0203888602555", "lat": 29.7132801, "timestamp": 1603398244.846537, "alt": 12.55, "yaw": "2.22196626663", "lon": -95.4043535, "heading": 127, "speed": 0.020000001415610313, "roll": "0.0030940186698"}
{"pitch": "0.0208240132779", "lat": 29.71328, "timestamp": 1603398245.34765, "alt": 12.55, "yaw": "2.22193861008", "lon": -95.4043533, "heading": 127, "speed": 0.012000000104308128, "roll": "0.00347899599001"}
{"pitch": "0.0209117606282", "lat": 29.71328, "timestamp": 1603398245.848872, "alt": 12.54, "yaw": "2.22185873985", "lon": -95.404353, "heading": 127, "speed": 0.009000000543892384, "roll": "0.00375938764773"}
{"pitch": "0.020771080628", "lat": 29.7132799, "timestamp": 1603398246.350478, "alt": 12.54, "yaw": "2.22170329094", "lon": -95.4043528, "heading": 127, "speed": 0.005000000353902578, "roll": "0.00393829541281"}
{"pitch": "0.020797803998", "lat": 29.7132799, "timestamp": 1603398246.851831, "alt": 12.53, "yaw": "2.22178673744", "lon": -95.4043526, "heading": 127, "speed": 0.017000000923871994, "roll": "0.0041644629091"}
{"pitch": "0.0204981453717", "lat": 29.7132799, "timestamp": 1603398247.353069, "alt": 12.53, "yaw": "2.22158527374", "lon": -95.4043524, "heading": 127, "speed": 0.02500000037252903, "roll": "0.00434180023149"}
{"pitch": "0.0204107295722", "lat": 29.71328, "timestamp": 1603398247.854402, "alt": 12.53, "yaw": "2.22141885757", "lon": -95.4043523, "heading": 127, "speed": 0.01100000087171793, "roll": "0.00426017632708"}
{"pitch": "0.0206124205142", "lat": 29.7132799, "timestamp": 1603398248.355487, "alt": 12.52, "yaw": "2.2213010788", "lon": -95.4043521, "heading": 127, "speed": 0.01600000075995922, "roll": "0.00430327374488"}
{"pitch": "0.0203496273607", "lat": 29.7132799, "timestamp": 1603398248.85668, "alt": 12.53, "yaw": "2.2211227417", "lon": -95.4043519, "heading": 127, "speed": 0.017000000923871994, "roll": "0.00448647374287"}
{"pitch": "0.0204820148647", "lat": 29.7132799, "timestamp": 1603398249.357838, "alt": 12.52, "yaw": "2.22106981277", "lon": -95.4043518, "heading": 127, "speed": 0.02500000037252903, "roll": "0.00434104818851"}
{"pitch": "0.0206041187048", "lat": 29.7132798, "timestamp": 1603398249.85947, "alt": 12.51, "yaw": "2.22149586678", "lon": -95.4043518, "heading": 127, "speed": 0.017000000923871994, "roll": "0.00446681305766"}
{"pitch": "0.0208486169577", "lat": 29.7132797, "timestamp": 1603398250.36064, "alt": 12.5, "yaw": "2.22100973129", "lon": -95.4043518, "heading": 127, "speed": 0.015000000596046448, "roll": "0.00455085467547"}
{"pitch": "0.0210503228009", "lat": 29.7132796, "timestamp": 1603398250.861982, "alt": 12.48, "yaw": "2.22100090981", "lon": -95.4043518, "heading": 127, "speed": 0.01600000075995922, "roll": "0.00463112769648"}
{"pitch": "0.0210499465466", "lat": 29.7132795, "timestamp": 1603398251.362687, "alt": 12.46, "yaw": "2.22042393684", "lon": -95.4043518, "heading": 127, "speed": 0.023000001907348633, "roll": "0.0046968953684"}
{"pitch": "0.0213799308985", "lat": 29.7132794, "timestamp": 1603398251.863784, "alt": 12.45, "yaw": "2.22015595436", "lon": -95.4043519, "heading": 127, "speed": 0.006000000052154064, "roll": "0.00419954815879"}
{"pitch": "0.0216873828322", "lat": 29.7132793, "timestamp": 1603398252.364966, "alt": 12.45, "yaw": "2.21991252899", "lon": -95.404352, "heading": 127, "speed": 0.029000001028180122, "roll": "0.004067779053"}
{"pitch": "0.0217761322856", "lat": 29.7132793, "timestamp": 1603398252.86577, "alt": 12.44, "yaw": "2.22041511536", "lon": -95.4043522, "heading": 127, "speed": 0.012000000104308128, "roll": "0.00390169583261"}
{"pitch": "0.0220082253218", "lat": 29.7132794, "timestamp": 1603398253.366935, "alt": 12.44, "yaw": "2.22091531754", "lon": -95.4043524, "heading": 127, "speed": 0.027000000700354576, "roll": "0.00360947614536"}
{"pitch": "0.0218382999301", "lat": 29.7132795, "timestamp": 1603398253.868093, "alt": 12.43, "yaw": "2.22131204605", "lon": -95.4043526, "heading": 127, "speed": 0.015000000596046448, "roll": "0.00373161397874"}
{"pitch": "0.0217526685447", "lat": 29.7132796, "timestamp": 1603398254.369324, "alt": 12.42, "yaw": "2.22139811516", "lon": -95.4043528, "heading": 127, "speed": 0.023000001907348633, "roll": "0.00348182301968"}
{"pitch": "0.0218942798674", "lat": 29.7132797, "timestamp": 1603398254.876028, "alt": 12.42, "yaw": "2.22157549858", "lon": -95.4043531, "heading": 127, "speed": 0.017000000923871994, "roll": "0.00351464818232"}
{"pitch": "0.021814448759", "lat": 29.7132798, "timestamp": 1603398255.377211, "alt": 12.43, "yaw": "2.22167372704", "lon": -95.4043535, "heading": 127, "speed": 0.017000000923871994, "roll": "0.00328039517626"}
{"pitch": "0.021514646709", "lat": 29.7132799, "timestamp": 1603398255.878354, "alt": 12.43, "yaw": "2.22152972221", "lon": -95.4043536, "heading": 127, "speed": 0.030000001192092896, "roll": "0.00352835678495"}
{"pitch": "0.0212568230927", "lat": 29.71328, "timestamp": 1603398256.379495, "alt": 12.43, "yaw": "2.22162628174", "lon": -95.404354, "heading": 127, "speed": 0.005000000353902578, "roll": "0.00344992754981"}
{"pitch": "0.0213146954775", "lat": 29.71328, "timestamp": 1603398256.88084, "alt": 12.43, "yaw": "2.22196626663", "lon": -95.4043541, "heading": 127, "speed": 0.02200000174343586, "roll": "0.00370398489758"}
{"pitch": "0.0211205892265", "lat": 29.7132799, "timestamp": 1603398257.381957, "alt": 12.43, "yaw": "2.22147941589", "lon": -95.4043545, "heading": 127, "speed": 0.020000001415610313, "roll": "0.00393966259435"}
{"pitch": "0.0212042536587", "lat": 29.7132798, "timestamp": 1603398257.883225, "alt": 12.43, "yaw": "2.22132515907", "lon": -95.4043548, "heading": 127, "speed": 0.020000001415610313, "roll": "0.00408644648269"}
{"pitch": "0.0209287963808", "lat": 29.7132799, "timestamp": 1603398258.384309, "alt": 12.42, "yaw": "2.22132897377", "lon": -95.4043551, "heading": 127, "speed": 0.01100000087171793, "roll": "0.00387305440381"}
{"pitch": "0.0209310613573", "lat": 29.71328, "timestamp": 1603398258.885222, "alt": 12.43, "yaw": "2.22141575813", "lon": -95.4043554, "heading": 127, "speed": 0.01100000087171793, "roll": "0.00404056534171"}
{"pitch": "0.0209535639733", "lat": 29.7132803, "timestamp": 1603398259.386066, "alt": 12.43, "yaw": "2.22130799294", "lon": -95.4043557, "heading": 127, "speed": 0.01900000125169754, "roll": "0.00401849672198"}
{"pitch": "0.0203753765672", "lat": 29.7132806, "timestamp": 1603398259.893465, "alt": 12.43, "yaw": "2.22150015831", "lon": -95.404356, "heading": 127, "speed": 0.03400000184774399, "roll": "0.00374900200404"}
{"pitch": "0.0207337662578", "lat": 29.7132808, "timestamp": 1603398260.394415, "alt": 12.44, "yaw": "2.2213537693", "lon": -95.4043563, "heading": 127, "speed": 0.029000001028180122, "roll": "0.00327946199104"}
{"pitch": "0.0204247422516", "lat": 29.7132811, "timestamp": 1603398260.895542, "alt": 12.45, "yaw": "2.22139644623", "lon": -95.4043565, "heading": 127, "speed": 0.006000000052154064, "roll": "0.00336449919268"}
{"pitch": "0.0207628756762", "lat": 29.7132815, "timestamp": 1603398261.396959, "alt": 12.46, "yaw": "2.22136521339", "lon": -95.4043568, "heading": 127, "speed": 0.013000000268220901, "roll": "0.00324480095878"}
{"pitch": "0.0205958671868", "lat": 29.7132818, "timestamp": 1603398261.898461, "alt": 12.45, "yaw": "2.2210419178", "lon": -95.4043571, "heading": 127, "speed": 0.012000000104308128, "roll": "0.00333881331608"}
{"pitch": "0.020507954061", "lat": 29.7132821, "timestamp": 1603398262.400126, "alt": 12.45, "yaw": "2.22115468979", "lon": -95.4043573, "heading": 127, "speed": 0.01600000075995922, "roll": "0.00333303911611"}
{"pitch": "0.0205948483199", "lat": 29.7132824, "timestamp": 1603398262.901386, "alt": 12.44, "yaw": "2.22128582001", "lon": -95.4043576, "heading": 127, "speed": 0.023000001907348633, "roll": "0.00307796965353"}
{"pitch": "0.020714988932", "lat": 29.7132828, "timestamp": 1603398263.403094, "alt": 12.43, "yaw": "2.22103667259", "lon": -95.4043578, "heading": 127, "speed": 0.01100000087171793, "roll": "0.00320888310671"}
{"pitch": "0.0205629821867", "lat": 29.7132833, "timestamp": 1603398263.904465, "alt": 12.42, "yaw": "2.22088217735", "lon": -95.404358, "heading": 127, "speed": 0.04000000283122063, "roll": "0.00305155338719"}
{"pitch": "0.0204784218222", "lat": 29.7132836, "timestamp": 1603398264.405833, "alt": 12.43, "yaw": "2.22072076797", "lon": -95.4043581, "heading": 127, "speed": 0.027000000700354576, "roll": "0.00351749476977"}
{"pitch": "0.019466849044", "lat": 29.7132838, "timestamp": 1603398264.90982, "alt": 12.44, "yaw": "2.22062373161", "lon": -95.4043582, "heading": 127, "speed": 0.014000000432133675, "roll": "0.00364624406211"}
{"pitch": "0.0192709285766", "lat": 29.7132839, "timestamp": 1603398265.410812, "alt": 12.44, "yaw": "2.22062587738", "lon": -95.4043581, "heading": 127, "speed": 0.012000000104308128, "roll": "0.00378922070377"}
{"pitch": "0.0192206986248", "lat": 29.713284, "timestamp": 1603398265.911966, "alt": 12.44, "yaw": "2.22066760063", "lon": -95.4043581, "heading": 127, "speed": 0.04400000348687172, "roll": "0.00387547910213"}
{"pitch": "0.0190922077745", "lat": 29.713284, "timestamp": 1603398266.413146, "alt": 12.44, "yaw": "2.22079348564", "lon": -95.404358, "heading": 127, "speed": 0.021000001579523087, "roll": "0.00369191588834"}
{"pitch": "0.0191477071494", "lat": 29.7132842, "timestamp": 1603398266.914314, "alt": 12.44, "yaw": "2.22103023529", "lon": -95.4043579, "heading": 127, "speed": 0.03400000184774399, "roll": "0.0038583741989"}
{"pitch": "0.0194110441953", "lat": 29.7132843, "timestamp": 1603398267.415456, "alt": 12.45, "yaw": "2.22112011909", "lon": -95.4043577, "heading": 127, "speed": 0.020000001415610313, "roll": "0.00343178212643"}
{"pitch": "0.020026454702", "lat": 29.7132843, "timestamp": 1603398267.916569, "alt": 12.45, "yaw": "2.22093105316", "lon": -95.4043577, "heading": 127, "speed": 0.02200000174343586, "roll": "0.00364285614341"}
{"pitch": "0.020178893581", "lat": 29.7132844, "timestamp": 1603398268.417687, "alt": 12.46, "yaw": "2.22102332115", "lon": -95.4043577, "heading": 127, "speed": 0.01900000125169754, "roll": "0.00408250465989"}
{"pitch": "0.0203266665339", "lat": 29.7132846, "timestamp": 1603398268.918841, "alt": 12.47, "yaw": "2.22097849846", "lon": -95.4043578, "heading": 127, "speed": 0.007000000216066837, "roll": "0.00413514487445"}
{"pitch": "0.0200108848512", "lat": 29.7132847, "timestamp": 1603398269.420144, "alt": 12.49, "yaw": "2.22082519531", "lon": -95.4043578, "heading": 127, "speed": 0.03800000250339508, "roll": "0.00373854674399"}
{"pitch": "0.0199594311416", "lat": 29.7132848, "timestamp": 1603398269.924368, "alt": 12.51, "yaw": "2.22048306465", "lon": -95.4043578, "heading": 127, "speed": 0.023000001907348633, "roll": "0.00425441702828"}
{"pitch": "0.019921310246", "lat": 29.713285, "timestamp": 1603398270.42615, "alt": 12.51, "yaw": "2.22061800957", "lon": -95.4043578, "heading": 127, "speed": 0.024000000208616257, "roll": "0.00409547332674"}
{"pitch": "0.0196185149252", "lat": 29.7132851, "timestamp": 1603398270.927317, "alt": 12.51, "yaw": "2.22055578232", "lon": -95.4043579, "heading": 127, "speed": 0.03200000151991844, "roll": "0.0039475732483"}
{"pitch": "0.0197444707155", "lat": 29.7132851, "timestamp": 1603398271.428233, "alt": 12.51, "yaw": "2.22054958344", "lon": -95.4043578, "heading": 127, "speed": 0.02800000086426735, "roll": "0.0034624307882"}
{"pitch": "0.0196575410664", "lat": 29.7132852, "timestamp": 1603398271.92914, "alt": 12.52, "yaw": "2.22043228149", "lon": -95.4043578, "heading": 127, "speed": 0.009000000543892384, "roll": "0.00362643972039"}
{"pitch": "0.0195853672922", "lat": 29.7132853, "timestamp": 1603398272.430365, "alt": 12.53, "yaw": "2.22027397156", "lon": -95.4043577, "heading": 127, "speed": 0.03100000135600567, "roll": "0.00375812710263"}
{"pitch": "0.0198351927102", "lat": 29.7132854, "timestamp": 1603398272.931457, "alt": 12.53, "yaw": "2.22090029716", "lon": -95.4043576, "heading": 127, "speed": 0.018000001087784767, "roll": "0.003611685941"}
{"pitch": "0.0198801327497", "lat": 29.7132854, "timestamp": 1603398273.43257, "alt": 12.54, "yaw": "2.22113656998", "lon": -95.4043576, "heading": 127, "speed": 0.004000000189989805, "roll": "0.00435288669541"}
{"pitch": "0.0200350433588", "lat": 29.7132853, "timestamp": 1603398273.933699, "alt": 12.54, "yaw": "2.22089219093", "lon": -95.4043577, "heading": 127, "speed": 0.004000000189989805, "roll": "0.00473419530317"}
{"pitch": "0.0201898626983", "lat": 29.7132853, "timestamp": 1603398274.43529, "alt": 12.53, "yaw": "2.2205851078", "lon": -95.4043577, "heading": 127, "speed": 0.018000001087784767, "roll": "0.00459275627509"}
{"pitch": "0.0202417615801", "lat": 29.7132853, "timestamp": 1603398274.93646, "alt": 12.52, "yaw": "2.22041916847", "lon": -95.4043576, "heading": 127, "speed": 0.013000000268220901, "roll": "0.00440814998001"}
{"pitch": "0.0201138332486", "lat": 29.7132853, "timestamp": 1603398275.43766, "alt": 12.53, "yaw": "2.22098708153", "lon": -95.4043576, "heading": 127, "speed": 0.01100000087171793, "roll": "0.00419619074091"}
{"pitch": "0.0205507408828", "lat": 29.7132853, "timestamp": 1603398275.938807, "alt": 12.54, "yaw": "2.22091293335", "lon": -95.4043576, "heading": 127, "speed": 0.012000000104308128, "roll": "0.00393846724182"}
{"pitch": "0.0202950462699", "lat": 29.7132853, "timestamp": 1603398276.439968, "alt": 12.53, "yaw": "2.22060918808", "lon": -95.4043576, "heading": 127, "speed": 0.012000000104308128, "roll": "0.0041146571748"}
{"pitch": "0.0203477758914", "lat": 29.7132853, "timestamp": 1603398276.941381, "alt": 12.51, "yaw": "2.22031497955", "lon": -95.4043575, "heading": 127, "speed": 0.01100000087171793, "roll": "0.00400396389887"}
{"pitch": "0.0206094328314", "lat": 29.7132853, "timestamp": 1603398277.442523, "alt": 12.51, "yaw": "2.2209072113", "lon": -95.4043573, "heading": 127, "speed": 0.007000000216066837, "roll": "0.00385419139639"}
{"pitch": "0.0206935964525", "lat": 29.7132853, "timestamp": 1603398277.943929, "alt": 12.5, "yaw": "2.22070455551", "lon": -95.4043571, "heading": 127, "speed": 0.017000000923871994, "roll": "0.00332402950153"}
{"pitch": "0.0205440558493", "lat": 29.7132852, "timestamp": 1603398278.445206, "alt": 12.51, "yaw": "2.22013568878", "lon": -95.4043569, "heading": 127, "speed": 0.030000001192092896, "roll": "0.00311582349241"}
{"pitch": "0.0207014773041", "lat": 29.7132852, "timestamp": 1603398278.946418, "alt": 12.51, "yaw": "2.22002506256", "lon": -95.4043567, "heading": 127, "speed": 0.004000000189989805, "roll": "0.0032655489631"}
{"pitch": "0.0210990924388", "lat": 29.7132852, "timestamp": 1603398279.448166, "alt": 12.51, "yaw": "2.21979117393", "lon": -95.4043564, "heading": 127, "speed": 0.007000000216066837, "roll": "0.00304322969168"}
{"pitch": "0.0211311802268", "lat": 29.7132852, "timestamp": 1603398279.94949, "alt": 12.5, "yaw": "2.22016191483", "lon": -95.4043562, "heading": 127, "speed": 0.021000001579523087, "roll": "0.00259657297283"}
{"pitch": "0.0212291479111", "lat": 29.7132853, "timestamp": 1603398280.450726, "alt": 12.49, "yaw": "2.22038054466", "lon": -95.4043561, "heading": 127, "speed": 0.00800000037997961, "roll": "0.00242997519672"}
{"pitch": "0.0210445057601", "lat": 29.7132853, "timestamp": 1603398280.952084, "alt": 12.48, "yaw": "2.22000002861", "lon": -95.404356, "heading": 127, "speed": 0.021000001579523087, "roll": "0.00313977524638"}
{"pitch": "0.0209294259548", "lat": 29.7132854, "timestamp": 1603398281.453309, "alt": 12.47, "yaw": "2.22001218796", "lon": -95.4043559, "heading": 127, "speed": 0.03800000250339508, "roll": "0.00309284497052"}
{"pitch": "0.0204966217279", "lat": 29.7132854, "timestamp": 1603398281.954581, "alt": 12.47, "yaw": "2.21991443634", "lon": -95.4043557, "heading": 127, "speed": 0.023000001907348633, "roll": "0.00355677888729"}
{"pitch": "0.0208222903311", "lat": 29.7132854, "timestamp": 1603398282.455794, "alt": 12.46, "yaw": "2.2202231884", "lon": -95.4043557, "heading": 127, "speed": 0.009000000543892384, "roll": "0.00360800651833"}
{"pitch": "0.0206140019", "lat": 29.7132854, "timestamp": 1603398282.956682, "alt": 12.45, "yaw": "2.21997356415", "lon": -95.4043556, "heading": 127, "speed": 0.00800000037997961, "roll": "0.0035507408902"}
{"pitch": "0.0203794613481", "lat": 29.7132854, "timestamp": 1603398283.457941, "alt": 12.45, "yaw": "2.22005939484", "lon": -95.4043555, "heading": 127, "speed": 0.029000001028180122, "roll": "0.00395854609087"}
{"pitch": "0.0207572299987", "lat": 29.7132854, "timestamp": 1603398283.959075, "alt": 12.45, "yaw": "2.21999120712", "lon": -95.4043554, "heading": 127, "speed": 0.00800000037997961, "roll": "0.00438507925719"}
{"pitch": "0.0208035595715", "lat": 29.7132854, "timestamp": 1603398284.460317, "alt": 12.44, "yaw": "2.22013020515", "lon": -95.4043554, "heading": 127, "speed": 0.017000000923871994, "roll": "0.00451799435541"}
{"pitch": "0.0208657383919", "lat": 29.7132853, "timestamp": 1603398284.961796, "alt": 12.44, "yaw": "2.22013616562", "lon": -95.4043554, "heading": 127, "speed": 0.013000000268220901, "roll": "0.00479982886463"}
{"pitch": "0.0207254327834", "lat": 29.7132852, "timestamp": 1603398285.463481, "alt": 12.44, "yaw": "2.22038125992", "lon": -95.4043554, "heading": 127, "speed": 0.003000000026077032, "roll": "0.00489214248955"}
{"pitch": "0.0206886678934", "lat": 29.7132851, "timestamp": 1603398285.965143, "alt": 12.43, "yaw": "2.22049713135", "lon": -95.4043554, "heading": 127, "speed": 0.03500000014901161, "roll": "0.00486622424796"}
{"pitch": "0.0209227129817", "lat": 29.7132851, "timestamp": 1603398286.466448, "alt": 12.42, "yaw": "2.2205889225", "lon": -95.4043553, "heading": 127, "speed": 0.007000000216066837, "roll": "0.0051006199792"}
{"pitch": "0.0210087951273", "lat": 29.713285, "timestamp": 1603398286.968009, "alt": 12.41, "yaw": "2.22071146965", "lon": -95.4043552, "heading": 127, "speed": 0.02200000174343586, "roll": "0.0050141159445"}
{"pitch": "0.0208990387619", "lat": 29.7132848, "timestamp": 1603398287.469163, "alt": 12.41, "yaw": "2.22018694878", "lon": -95.4043551, "heading": 127, "speed": 0.03200000151991844, "roll": "0.0047165742144"}
{"pitch": "0.0204047560692", "lat": 29.7132847, "timestamp": 1603398287.970442, "alt": 12.41, "yaw": "2.22047710419", "lon": -95.404355, "heading": 127, "speed": 0.01600000075995922, "roll": "0.00461997883394"}
{"pitch": "0.0201696120203", "lat": 29.7132846, "timestamp": 1603398288.471753, "alt": 12.41, "yaw": "2.22063469887", "lon": -95.4043549, "heading": 127, "speed": 0.03100000135600567, "roll": "0.00449175387621"}
{"pitch": "0.0202854499221", "lat": 29.7132844, "timestamp": 1603398288.972576, "alt": 12.41, "yaw": "2.22061014175", "lon": -95.4043548, "heading": 127, "speed": 0.012000000104308128, "roll": "0.00433558225632"}
{"pitch": "0.0201443489641", "lat": 29.7132843, "timestamp": 1603398289.47376, "alt": 12.41, "yaw": "2.22018170357", "lon": -95.4043547, "heading": 127, "speed": 0.020000001415610313, "roll": "0.00415834970772"}
{"pitch": "0.0199038404971", "lat": 29.7132842, "timestamp": 1603398289.975081, "alt": 12.41, "yaw": "2.22046542168", "lon": -95.4043546, "heading": 127, "speed": 0.018000001087784767, "roll": "0.00387920299545"}
{"pitch": "0.0198414511979", "lat": 29.7132841, "timestamp": 1603398290.490839, "alt": 12.4, "yaw": "2.22011852264", "lon": -95.4043544, "heading": 127, "speed": 0.0020000000949949026, "roll": "0.00408563017845"}
{"pitch": "0.0198529865593", "lat": 29.713284, "timestamp": 1603398290.992039, "alt": 12.4, "yaw": "2.21997117996", "lon": -95.4043542, "heading": 127, "speed": 0.036000002175569534, "roll": "0.00377944950014"}
{"pitch": "0.0199120827019", "lat": 29.7132839, "timestamp": 1603398291.493232, "alt": 12.4, "yaw": "2.2193274498", "lon": -95.4043539, "heading": 127, "speed": 0.03400000184774399, "roll": "0.00378074939363"}
{"pitch": "0.0197125058621", "lat": 29.7132838, "timestamp": 1603398291.994182, "alt": 12.4, "yaw": "2.21957802773", "lon": -95.4043537, "heading": 127, "speed": 0.027000000700354576, "roll": "0.00417012814432"}
{"pitch": "0.0197438299656", "lat": 29.7132838, "timestamp": 1603398292.49544, "alt": 12.4, "yaw": "2.21962237358", "lon": -95.4043535, "heading": 127, "speed": 0.005000000353902578, "roll": "0.00397220486775"}
{"pitch": "0.0193932503462", "lat": 29.7132838, "timestamp": 1603398292.997371, "alt": 12.41, "yaw": "2.21966719627", "lon": -95.4043532, "heading": 127, "speed": 0.006000000052154064, "roll": "0.0038921663072"}
{"pitch": "0.0195349231362", "lat": 29.7132838, "timestamp": 1603398293.498516, "alt": 12.42, "yaw": "2.21953582764", "lon": -95.404353, "heading": 127, "speed": 0.005000000353902578, "roll": "0.00398525781929"}
{"pitch": "0.0192967671901", "lat": 29.7132838, "timestamp": 1603398293.999823, "alt": 12.4, "yaw": "2.21925258636", "lon": -95.4043528, "heading": 127, "speed": 0.018000001087784767, "roll": "0.00408178241923"}
{"pitch": "0.0194535758346", "lat": 29.7132838, "timestamp": 1603398294.500861, "alt": 12.39, "yaw": "2.21865987778", "lon": -95.4043527, "heading": 127, "speed": 0.015000000596046448, "roll": "0.00429716333747"}
{"pitch": "0.0197539553046", "lat": 29.713284, "timestamp": 1603398295.002493, "alt": 12.37, "yaw": "2.21890497208", "lon": -95.4043526, "heading": 127, "speed": 0.01100000087171793, "roll": "0.0038479573559"}
{"pitch": "0.0202015787363", "lat": 29.713284, "timestamp": 1603398295.50624, "alt": 12.36, "yaw": "2.21856689453", "lon": -95.4043526, "heading": 127, "speed": 0.030000001192092896, "roll": "0.0044041373767"}
{"pitch": "0.0205272473395", "lat": 29.713284, "timestamp": 1603398296.007134, "alt": 12.36, "yaw": "2.21885800362", "lon": -95.4043527, "heading": 127, "speed": 0.010000000707805157, "roll": "0.00457821926102"}
{"pitch": "0.020609728992", "lat": 29.713284, "timestamp": 1603398296.508329, "alt": 12.35, "yaw": "2.21928977966", "lon": -95.4043527, "heading": 127, "speed": 0.015000000596046448, "roll": "0.00501090846956"}
{"pitch": "0.0207663327456", "lat": 29.713284, "timestamp": 1603398297.009459, "alt": 12.33, "yaw": "2.21942019463", "lon": -95.4043529, "heading": 127, "speed": 0.023000001907348633, "roll": "0.00456326920539"}
{"pitch": "0.0207114312798", "lat": 29.713284, "timestamp": 1603398297.510578, "alt": 12.31, "yaw": "2.21911811829", "lon": -95.4043532, "heading": 127, "speed": 0.006000000052154064, "roll": "0.00468668201938"}
{"pitch": "0.0208509042859", "lat": 29.7132841, "timestamp": 1603398298.011798, "alt": 12.3, "yaw": "2.21888327599", "lon": -95.4043535, "heading": 127, "speed": 0.036000002175569534, "roll": "0.00402831984684"}
{"pitch": "0.0205899979919", "lat": 29.7132842, "timestamp": 1603398298.513186, "alt": 12.3, "yaw": "2.21900415421", "lon": -95.4043538, "heading": 127, "speed": 0.03400000184774399, "roll": "0.00422483263537"}
{"pitch": "0.0202734526247", "lat": 29.7132842, "timestamp": 1603398299.014511, "alt": 12.28, "yaw": "2.21962881088", "lon": -95.4043541, "heading": 127, "speed": 0.009000000543892384, "roll": "0.00424851384014"}
{"pitch": "0.0200170986354", "lat": 29.7132842, "timestamp": 1603398299.51607, "alt": 12.26, "yaw": "2.21981334686", "lon": -95.4043545, "heading": 127, "speed": 0.013000000268220901, "roll": "0.00455797929317"}
{"pitch": "0.020318036899", "lat": 29.7132841, "timestamp": 1603398300.017215, "alt": 12.23, "yaw": "2.21969223022", "lon": -95.4043549, "heading": 127, "speed": 0.021000001579523087, "roll": "0.00458045816049"}
{"pitch": "0.0204692445695", "lat": 29.7132841, "timestamp": 1603398300.56217, "alt": 12.18, "yaw": "2.21975898743", "lon": -95.4043557, "heading": 127, "speed": 0.023000001907348633, "roll": "0.00453720940277"}
{"pitch": "0.0201999936253", "lat": 29.7132841, "timestamp": 1603398301.063085, "alt": 12.15, "yaw": "2.22004556656", "lon": -95.4043561, "heading": 127, "speed": 0.00800000037997961, "roll": "0.00488600926474"}
{"pitch": "0.019962336868", "lat": 29.713284, "timestamp": 1603398301.564343, "alt": 12.13, "yaw": "2.21982002258", "lon": -95.4043565, "heading": 127, "speed": 0.013000000268220901, "roll": "0.00464742118493"}
{"pitch": "0.0197098087519", "lat": 29.713284, "timestamp": 1603398302.065531, "alt": 12.1, "yaw": "2.21984386444", "lon": -95.4043569, "heading": 127, "speed": 0.020000001415610313, "roll": "0.0048662899062"}
