{"pitch": "0.00974607281387", "lat": 29.7132914, "timestamp": 1603396629.322521, "alt": 9.66, "yaw": "2.16558289528", "lon": -95.4043478, "heading": 124, "speed": 0.018000001087784767, "roll": "-0.0228024479002"}
{"pitch": "0.00977833010256", "lat": 29.7132912, "timestamp": 1603396629.82859, "alt": 9.61, "yaw": "2.16759967804", "lon": -95.4043475, "heading": 124, "speed": 0.014000000432133675, "roll": "-0.0228187832981"}
{"pitch": "0.00986683927476", "lat": 29.7132909, "timestamp": 1603396630.330868, "alt": 9.57, "yaw": "2.17001485825", "lon": -95.404347, "heading": 124, "speed": 0.024000000208616257, "roll": "-0.0229281764477"}
{"pitch": "0.00976543873549", "lat": 29.7132907, "timestamp": 1603396630.832875, "alt": 9.5, "yaw": "2.17231178284", "lon": -95.4043465, "heading": 124, "speed": 0.024000000208616257, "roll": "-0.0228893179446"}
{"pitch": "0.00968560762703", "lat": 29.7132903, "timestamp": 1603396631.334131, "alt": 9.45, "yaw": "2.17517232895", "lon": -95.4043458, "heading": 124, "speed": 0.030000001192092896, "roll": "-0.0228974074125"}
{"pitch": "0.00969102419913", "lat": 29.7132901, "timestamp": 1603396631.835501, "alt": 9.41, "yaw": "2.17616605759", "lon": -95.4043454, "heading": 124, "speed": 0.017000000923871994, "roll": "-0.0228305757046"}
{"pitch": "0.0094887111336", "lat": 29.7132901, "timestamp": 1603396632.337129, "alt": 9.37, "yaw": "2.17968606949", "lon": -95.4043451, "heading": 124, "speed": 0.03500000014901161, "roll": "-0.0228757373989"}
{"pitch": "0.00950837694108", "lat": 29.71329, "timestamp": 1603396632.838102, "alt": 9.32, "yaw": "2.18085050583", "lon": -95.4043449, "heading": 124, "speed": 0.024000000208616257, "roll": "-0.0229519549757"}
{"pitch": "0.00951887480915", "lat": 29.7132901, "timestamp": 1603396633.339292, "alt": 9.29, "yaw": "2.18208193779", "lon": -95.4043448, "heading": 125, "speed": 0.003000000026077032, "roll": "-0.0230004247278"}
{"pitch": "0.00955402292311", "lat": 29.7132901, "timestamp": 1603396633.841103, "alt": 9.25, "yaw": "2.18314099312", "lon": -95.4043446, "heading": 125, "speed": 0.010000000707805157, "roll": "-0.0229473747313"}
{"pitch": "0.00952554121614", "lat": 29.7132902, "timestamp": 1603396634.342185, "alt": 9.22, "yaw": "2.18484973907", "lon": -95.4043445, "heading": 125, "speed": 0.014000000432133675, "roll": "-0.022787367925"}
{"pitch": "0.00954541750252", "lat": 29.7132903, "timestamp": 1603396634.843355, "alt": 9.18, "yaw": "2.18619203568", "lon": -95.4043444, "heading": 125, "speed": 0.018000001087784767, "roll": "-0.0227809250355"}
{"pitch": "0.00946648232639", "lat": 29.7132904, "timestamp": 1603396635.344568, "alt": 9.16, "yaw": "2.18768715858", "lon": -95.4043444, "heading": 125, "speed": 0.004000000189989805, "roll": "-0.022707728669"}
{"pitch": "0.00950478576124", "lat": 29.7132905, "timestamp": 1603396635.845877, "alt": 9.13, "yaw": "2.1887755394", "lon": -95.4043444, "heading": 125, "speed": 0.017000000923871994, "roll": "-0.0226331427693"}
{"pitch": "0.00955651514232", "lat": 29.7132906, "timestamp": 1603396636.347011, "alt": 9.11, "yaw": "2.18991208076", "lon": -95.4043443, "heading": 125, "speed": 0.030000001192092896, "roll": "-0.0226332824677"}
{"pitch": "0.00959928520024", "lat": 29.7132907, "timestamp": 1603396636.848133, "alt": 9.1, "yaw": "2.19113683701", "lon": -95.4043443, "heading": 125, "speed": 0.012000000104308128, "roll": "-0.0226063728333"}
{"pitch": "0.00962772034109", "lat": 29.7132909, "timestamp": 1603396637.351526, "alt": 9.08, "yaw": "2.19218683243", "lon": -95.4043443, "heading": 125, "speed": 0.00800000037997961, "roll": "-0.0225698444992"}
{"pitch": "0.00970061123371", "lat": 29.7132909, "timestamp": 1603396637.852753, "alt": 9.06, "yaw": "2.19289565086", "lon": -95.4043445, "heading": 125, "speed": 0.032999999821186066, "roll": "-0.022384557873"}
{"pitch": "0.00963066704571", "lat": 29.7132911, "timestamp": 1603396638.354139, "alt": 9.05, "yaw": "2.19374847412", "lon": -95.4043445, "heading": 125, "speed": 0.02800000086426735, "roll": "-0.0223881620914"}
{"pitch": "0.00950745679438", "lat": 29.7132912, "timestamp": 1603396638.855148, "alt": 9.03, "yaw": "2.19424390793", "lon": -95.4043446, "heading": 125, "speed": 0.013000000268220901, "roll": "-0.0224044509232"}
{"pitch": "0.00953982770443", "lat": 29.7132914, "timestamp": 1603396639.356332, "alt": 9.01, "yaw": "2.19463634491", "lon": -95.4043448, "heading": 125, "speed": 0.030000001192092896, "roll": "-0.0225244946778"}
{"pitch": "0.00954208336771", "lat": 29.7132914, "timestamp": 1603396639.857612, "alt": 8.99, "yaw": "2.19455075264", "lon": -95.4043449, "heading": 125, "speed": 0.010000000707805157, "roll": "-0.0224986076355"}
{"pitch": "0.00951828621328", "lat": 29.7132914, "timestamp": 1603396640.358851, "alt": 8.98, "yaw": "2.1955332756", "lon": -95.4043451, "heading": 125, "speed": 0.010000000707805157, "roll": "-0.022622814402"}
{"pitch": "0.00953891314566", "lat": 29.7132916, "timestamp": 1603396640.860078, "alt": 8.99, "yaw": "2.19624233246", "lon": -95.4043453, "heading": 125, "speed": 0.03200000151991844, "roll": "-0.0225888658315"}
{"pitch": "0.00952897034585", "lat": 29.7132916, "timestamp": 1603396641.361253, "alt": 9.0, "yaw": "2.19653177261", "lon": -95.4043456, "heading": 125, "speed": 0.036000002175569534, "roll": "-0.0226743631065"}
{"pitch": "0.0094423815608", "lat": 29.7132916, "timestamp": 1603396641.862453, "alt": 9.0, "yaw": "2.19664740562", "lon": -95.4043458, "heading": 125, "speed": 0.006000000052154064, "roll": "-0.022622210905"}
{"pitch": "0.0094690490514", "lat": 29.7132916, "timestamp": 1603396642.363882, "alt": 8.98, "yaw": "2.19722795486", "lon": -95.4043461, "heading": 125, "speed": 0.010000000707805157, "roll": "-0.0226320531219"}
{"pitch": "0.00945292413235", "lat": 29.7132916, "timestamp": 1603396642.865094, "alt": 8.96, "yaw": "2.19754171371", "lon": -95.4043463, "heading": 125, "speed": 0.009000000543892384, "roll": "-0.0226226635277"}
{"pitch": "0.00948693230748", "lat": 29.7132917, "timestamp": 1603396643.367615, "alt": 8.92, "yaw": "2.19784593582", "lon": -95.4043464, "heading": 125, "speed": 0.017000000923871994, "roll": "-0.0227419137955"}
{"pitch": "0.00949743203819", "lat": 29.7132917, "timestamp": 1603396643.86924, "alt": 8.92, "yaw": "2.19817829132", "lon": -95.4043465, "heading": 125, "speed": 0.03100000135600567, "roll": "-0.0229338183999"}
{"pitch": "0.00973217003047", "lat": 29.7132918, "timestamp": 1603396644.371481, "alt": 8.92, "yaw": "2.19860601425", "lon": -95.4043466, "heading": 125, "speed": 0.01100000087171793, "roll": "-0.0230299700052"}
{"pitch": "0.00987011194229", "lat": 29.7132918, "timestamp": 1603396644.87267, "alt": 8.91, "yaw": "2.19937515259", "lon": -95.4043468, "heading": 126, "speed": 0.02200000174343586, "roll": "-0.0229774098843"}
{"pitch": "0.00980230607092", "lat": 29.7132917, "timestamp": 1603396645.373896, "alt": 8.89, "yaw": "2.19985342026", "lon": -95.4043469, "heading": 126, "speed": 0.01100000087171793, "roll": "-0.0229724347591"}
{"pitch": "0.00978646054864", "lat": 29.7132917, "timestamp": 1603396645.875163, "alt": 8.89, "yaw": "2.20019102097", "lon": -95.404347, "heading": 126, "speed": 0.015000000596046448, "roll": "-0.0228154584765"}
{"pitch": "0.00974729470909", "lat": 29.7132917, "timestamp": 1603396646.37638, "alt": 8.88, "yaw": "2.20041918755", "lon": -95.4043472, "heading": 126, "speed": 0.02500000037252903, "roll": "-0.0227956548333"}
{"pitch": "0.00977071933448", "lat": 29.7132918, "timestamp": 1603396646.878157, "alt": 8.87, "yaw": "2.20065283775", "lon": -95.4043473, "heading": 126, "speed": 0.030000001192092896, "roll": "-0.0227586459368"}
{"pitch": "0.00971968472004", "lat": 29.7132918, "timestamp": 1603396647.379293, "alt": 8.88, "yaw": "2.20099067688", "lon": -95.4043476, "heading": 126, "speed": 0.01100000087171793, "roll": "-0.0225534439087"}
{"pitch": "0.00962102785707", "lat": 29.7132918, "timestamp": 1603396647.880519, "alt": 8.89, "yaw": "2.20119571686", "lon": -95.4043477, "heading": 126, "speed": 0.02500000037252903, "roll": "-0.0223864298314"}
{"pitch": "0.0096042342484", "lat": 29.7132917, "timestamp": 1603396648.381732, "alt": 8.89, "yaw": "2.20131659508", "lon": -95.4043479, "heading": 126, "speed": 0.024000000208616257, "roll": "-0.0222111213952"}
{"pitch": "0.00944228470325", "lat": 29.7132917, "timestamp": 1603396648.883346, "alt": 8.88, "yaw": "2.20144414902", "lon": -95.404348, "heading": 126, "speed": 0.03400000184774399, "roll": "-0.0222486425191"}
{"pitch": "0.00927171111107", "lat": 29.7132915, "timestamp": 1603396649.385807, "alt": 8.88, "yaw": "2.20179510117", "lon": -95.4043482, "heading": 126, "speed": 0.018000001087784767, "roll": "-0.0221040975302"}
{"pitch": "0.0091036837548", "lat": 29.7132914, "timestamp": 1603396649.887024, "alt": 8.89, "yaw": "2.20207953453", "lon": -95.4043483, "heading": 126, "speed": 0.029000001028180122, "roll": "-0.0220660511404"}
{"pitch": "0.00912811607122", "lat": 29.7132912, "timestamp": 1603396650.38824, "alt": 8.91, "yaw": "2.20197343826", "lon": -95.4043485, "heading": 126, "speed": 0.02200000174343586, "roll": "-0.0218874197453"}
{"pitch": "0.00906577333808", "lat": 29.7132911, "timestamp": 1603396650.889465, "alt": 8.93, "yaw": "2.20197629929", "lon": -95.4043485, "heading": 126, "speed": 0.012000000104308128, "roll": "-0.0219303388149"}
{"pitch": "0.00876018591225", "lat": 29.7132909, "timestamp": 1603396651.391045, "alt": 8.94, "yaw": "2.20239186287", "lon": -95.4043486, "heading": 126, "speed": 0.02500000037252903, "roll": "-0.0218644104898"}
{"pitch": "0.00861536711454", "lat": 29.7132908, "timestamp": 1603396651.892364, "alt": 8.95, "yaw": "2.20275521278", "lon": -95.4043487, "heading": 126, "speed": 0.009000000543892384, "roll": "-0.0219706017524"}
{"pitch": "0.00874752178788", "lat": 29.7132907, "timestamp": 1603396652.394247, "alt": 8.94, "yaw": "2.20261120796", "lon": -95.4043487, "heading": 126, "speed": 0.03100000135600567, "roll": "-0.0219414569438"}
{"pitch": "0.00863753817976", "lat": 29.7132906, "timestamp": 1603396652.895592, "alt": 8.94, "yaw": "2.20250320435", "lon": -95.4043488, "heading": 126, "speed": 0.018000001087784767, "roll": "-0.0219813417643"}
{"pitch": "0.0085852984339", "lat": 29.7132904, "timestamp": 1603396653.396786, "alt": 8.98, "yaw": "2.20250701904", "lon": -95.4043489, "heading": 126, "speed": 0.03500000014901161, "roll": "-0.0219511426985"}
{"pitch": "0.00862763635814", "lat": 29.7132904, "timestamp": 1603396653.897876, "alt": 9.01, "yaw": "2.20245480537", "lon": -95.4043489, "heading": 126, "speed": 0.05400000140070915, "roll": "-0.0220560524613"}
{"pitch": "0.00858453288674", "lat": 29.7132903, "timestamp": 1603396654.399083, "alt": 9.05, "yaw": "2.2028093338", "lon": -95.404349, "heading": 126, "speed": 0.00800000037997961, "roll": "-0.0221423935145"}
{"pitch": "0.00852705910802", "lat": 29.7132902, "timestamp": 1603396654.900944, "alt": 9.09, "yaw": "2.202927351", "lon": -95.404349, "heading": 126, "speed": 0.030000001192092896, "roll": "-0.0222626365721"}
{"pitch": "0.0085487999022", "lat": 29.7132901, "timestamp": 1603396655.402228, "alt": 9.13, "yaw": "2.20286107063", "lon": -95.4043491, "heading": 126, "speed": 0.04500000178813934, "roll": "-0.0222974922508"}
{"pitch": "0.00858826749027", "lat": 29.71329, "timestamp": 1603396655.903383, "alt": 9.16, "yaw": "2.20254564285", "lon": -95.4043491, "heading": 126, "speed": 0.007000000216066837, "roll": "-0.0223460644484"}
{"pitch": "0.00852329842746", "lat": 29.7132898, "timestamp": 1603396656.404506, "alt": 9.17, "yaw": "2.20247554779", "lon": -95.4043492, "heading": 126, "speed": 0.012000000104308128, "roll": "-0.0224425494671"}
{"pitch": "0.00863392464817", "lat": 29.7132897, "timestamp": 1603396656.905282, "alt": 9.17, "yaw": "2.20258760452", "lon": -95.4043492, "heading": 126, "speed": 0.02200000174343586, "roll": "-0.0224506873637"}
{"pitch": "0.00875844247639", "lat": 29.7132896, "timestamp": 1603396657.406603, "alt": 9.2, "yaw": "2.20270061493", "lon": -95.4043493, "heading": 126, "speed": 0.03100000135600567, "roll": "-0.0225346162915"}
{"pitch": "0.00889476574957", "lat": 29.7132894, "timestamp": 1603396657.908698, "alt": 9.24, "yaw": "2.20279812813", "lon": -95.4043493, "heading": 126, "speed": 0.039000000804662704, "roll": "-0.0224833078682"}
{"pitch": "0.00898781605065", "lat": 29.7132893, "timestamp": 1603396658.409959, "alt": 9.26, "yaw": "2.20285797119", "lon": -95.4043493, "heading": 126, "speed": 0.00800000037997961, "roll": "-0.0223930701613"}
{"pitch": "0.00896950252354", "lat": 29.713289, "timestamp": 1603396658.911064, "alt": 9.28, "yaw": "2.20327663422", "lon": -95.4043493, "heading": 126, "speed": 0.017000000923871994, "roll": "-0.0223754458129"}
{"pitch": "0.00894759595394", "lat": 29.7132888, "timestamp": 1603396659.412168, "alt": 9.31, "yaw": "2.20363855362", "lon": -95.4043492, "heading": 126, "speed": 0.049000002443790436, "roll": "-0.0223088338971"}
{"pitch": "0.00916516780853", "lat": 29.7132886, "timestamp": 1603396659.913384, "alt": 9.3, "yaw": "2.20375013351", "lon": -95.4043492, "heading": 126, "speed": 0.04800000041723251, "roll": "-0.0223415419459"}
{"pitch": "0.0092643648386", "lat": 29.7132884, "timestamp": 1603396660.414559, "alt": 9.29, "yaw": "2.20382642746", "lon": -95.4043492, "heading": 126, "speed": 0.02200000174343586, "roll": "-0.0223118234426"}
{"pitch": "0.00936123728752", "lat": 29.7132882, "timestamp": 1603396660.915765, "alt": 9.28, "yaw": "2.20388412476", "lon": -95.4043493, "heading": 126, "speed": 0.017000000923871994, "roll": "-0.0222130883485"}
{"pitch": "0.00944676622748", "lat": 29.7132881, "timestamp": 1603396661.417, "alt": 9.3, "yaw": "2.20377516747", "lon": -95.4043494, "heading": 126, "speed": 0.014000000432133675, "roll": "-0.0222093872726"}
{"pitch": "0.00950236432254", "lat": 29.7132878, "timestamp": 1603396661.918247, "alt": 9.32, "yaw": "2.20354676247", "lon": -95.4043496, "heading": 126, "speed": 0.04100000113248825, "roll": "-0.0220372714102"}
{"pitch": "0.00975847616792", "lat": 29.7132877, "timestamp": 1603396662.419133, "alt": 9.32, "yaw": "2.20350408554", "lon": -95.4043498, "heading": 126, "speed": 0.024000000208616257, "roll": "-0.0220333002508"}
{"pitch": "0.00975000113249", "lat": 29.7132877, "timestamp": 1603396662.920311, "alt": 9.33, "yaw": "2.20330190659", "lon": -95.40435, "heading": 126, "speed": 0.01900000125169754, "roll": "-0.0220573097467"}
{"pitch": "0.00957219488919", "lat": 29.7132875, "timestamp": 1603396663.421476, "alt": 9.36, "yaw": "2.20328307152", "lon": -95.4043502, "heading": 126, "speed": 0.02500000037252903, "roll": "-0.0220113620162"}
{"pitch": "0.00963377207518", "lat": 29.7132873, "timestamp": 1603396663.922471, "alt": 9.38, "yaw": "2.20315122604", "lon": -95.4043504, "heading": 126, "speed": 0.04200000315904617, "roll": "-0.0217934455723"}
{"pitch": "0.00958379730582", "lat": 29.7132873, "timestamp": 1603396664.423784, "alt": 9.4, "yaw": "2.20295763016", "lon": -95.4043506, "heading": 126, "speed": 0.04700000211596489, "roll": "-0.0217768531293"}
{"pitch": "0.00955255515873", "lat": 29.7132872, "timestamp": 1603396664.925252, "alt": 9.41, "yaw": "2.20256519318", "lon": -95.4043507, "heading": 126, "speed": 0.039000000804662704, "roll": "-0.0218974761665"}
{"pitch": "0.00934523716569", "lat": 29.7132871, "timestamp": 1603396665.426362, "alt": 9.44, "yaw": "2.20252227783", "lon": -95.4043508, "heading": 126, "speed": 0.032999999821186066, "roll": "-0.021798202768"}
{"pitch": "0.00925891473889", "lat": 29.713287, "timestamp": 1603396665.927318, "alt": 9.47, "yaw": "2.20222949982", "lon": -95.404351, "heading": 126, "speed": 0.02500000037252903, "roll": "-0.0216654669493"}
{"pitch": "0.00923607312143", "lat": 29.713287, "timestamp": 1603396666.428445, "alt": 9.5, "yaw": "2.20191526413", "lon": -95.4043511, "heading": 126, "speed": 0.018000001087784767, "roll": "-0.021736914292"}
{"pitch": "0.00907613150775", "lat": 29.713287, "timestamp": 1603396666.929652, "alt": 9.52, "yaw": "2.20181369781", "lon": -95.404351, "heading": 126, "speed": 0.02200000174343586, "roll": "-0.0219168197364"}
{"pitch": "0.00899961777031", "lat": 29.713287, "timestamp": 1603396667.431174, "alt": 9.55, "yaw": "2.20174837112", "lon": -95.4043511, "heading": 126, "speed": 0.04700000211596489, "roll": "-0.0219882447273"}
{"pitch": "0.00908115692437", "lat": 29.7132871, "timestamp": 1603396667.932273, "alt": 9.57, "yaw": "2.2019007206", "lon": -95.4043512, "heading": 126, "speed": 0.023000001907348633, "roll": "-0.0218546018004"}
{"pitch": "0.0091525092721", "lat": 29.7132871, "timestamp": 1603396668.433471, "alt": 9.59, "yaw": "2.2019906044", "lon": -95.4043512, "heading": 126, "speed": 0.014000000432133675, "roll": "-0.0219719242305"}
{"pitch": "0.00921826437116", "lat": 29.7132873, "timestamp": 1603396668.934646, "alt": 9.61, "yaw": "2.20188951492", "lon": -95.4043512, "heading": 126, "speed": 0.01100000087171793, "roll": "-0.0221954621375"}
{"pitch": "0.00915426760912", "lat": 29.7132874, "timestamp": 1603396669.435805, "alt": 9.61, "yaw": "2.20162534714", "lon": -95.4043511, "heading": 126, "speed": 0.03400000184774399, "roll": "-0.0224244166166"}
{"pitch": "0.00896067917347", "lat": 29.7132875, "timestamp": 1603396669.937063, "alt": 9.62, "yaw": "2.20158028603", "lon": -95.4043509, "heading": 126, "speed": 0.006000000052154064, "roll": "-0.0226402692497"}
{"pitch": "0.00885225459933", "lat": 29.7132876, "timestamp": 1603396670.438112, "alt": 9.63, "yaw": "2.20146465302", "lon": -95.4043506, "heading": 126, "speed": 0.06100000441074371, "roll": "-0.0226090364158"}
{"pitch": "0.00867124088109", "lat": 29.7132879, "timestamp": 1603396670.939272, "alt": 9.67, "yaw": "2.20136213303", "lon": -95.4043501, "heading": 126, "speed": 0.012000000104308128, "roll": "-0.0226012635976"}
{"pitch": "0.00881547853351", "lat": 29.7132881, "timestamp": 1603396671.440425, "alt": 9.69, "yaw": "2.20154571533", "lon": -95.4043498, "heading": 126, "speed": 0.00800000037997961, "roll": "-0.0225579123944"}
{"pitch": "0.00884294696152", "lat": 29.7132883, "timestamp": 1603396671.941625, "alt": 9.7, "yaw": "2.20174789429", "lon": -95.4043494, "heading": 126, "speed": 0.024000000208616257, "roll": "-0.02266459167"}
{"pitch": "0.00894101522863", "lat": 29.7132886, "timestamp": 1603396672.442905, "alt": 9.73, "yaw": "2.20181846619", "lon": -95.404349, "heading": 126, "speed": 0.02800000086426735, "roll": "-0.0227488521487"}
{"pitch": "0.00902671925724", "lat": 29.7132889, "timestamp": 1603396672.945234, "alt": 9.75, "yaw": "2.20175147057", "lon": -95.4043486, "heading": 126, "speed": 0.007000000216066837, "roll": "-0.0227622073144"}
{"pitch": "0.00898552499712", "lat": 29.7132891, "timestamp": 1603396673.446312, "alt": 9.77, "yaw": "2.20189905167", "lon": -95.4043484, "heading": 126, "speed": 0.04000000283122063, "roll": "-0.022612977773"}
{"pitch": "0.00891016423702", "lat": 29.7132893, "timestamp": 1603396673.94746, "alt": 9.78, "yaw": "2.20217561722", "lon": -95.404348, "heading": 126, "speed": 0.032999999821186066, "roll": "-0.0224544554949"}
{"pitch": "0.00909113883972", "lat": 29.7132895, "timestamp": 1603396674.448692, "alt": 9.81, "yaw": "2.20221614838", "lon": -95.4043476, "heading": 126, "speed": 0.02800000086426735, "roll": "-0.0223353710026"}
{"pitch": "0.0092712007463", "lat": 29.7132898, "timestamp": 1603396674.949896, "alt": 9.83, "yaw": "2.20221996307", "lon": -95.4043474, "heading": 126, "speed": 0.03700000047683716, "roll": "-0.0222064051777"}
{"pitch": "0.00935490429401", "lat": 29.7132901, "timestamp": 1603396675.451103, "alt": 9.84, "yaw": "2.20196151733", "lon": -95.404347, "heading": 126, "speed": 0.04800000041723251, "roll": "-0.0223061479628"}
{"pitch": "0.00921854190528", "lat": 29.7132904, "timestamp": 1603396675.953016, "alt": 9.87, "yaw": "2.20217943192", "lon": -95.4043466, "heading": 126, "speed": 0.05400000140070915, "roll": "-0.0222447663546"}
{"pitch": "0.00901746936142", "lat": 29.7132906, "timestamp": 1603396676.455264, "alt": 9.88, "yaw": "2.20242595673", "lon": -95.4043462, "heading": 126, "speed": 0.01100000087171793, "roll": "-0.0221167672426"}
{"pitch": "0.00905827060342", "lat": 29.713291, "timestamp": 1603396676.95644, "alt": 9.91, "yaw": "2.20263600349", "lon": -95.4043455, "heading": 126, "speed": 0.01100000087171793, "roll": "-0.0220228563994"}
{"pitch": "0.00931102409959", "lat": 29.7132912, "timestamp": 1603396677.457765, "alt": 9.92, "yaw": "2.2025642395", "lon": -95.4043453, "heading": 126, "speed": 0.03800000250339508, "roll": "-0.0216602124274"}
{"pitch": "0.00935488939285", "lat": 29.7132913, "timestamp": 1603396677.959589, "alt": 9.92, "yaw": "2.20236539841", "lon": -95.404345, "heading": 126, "speed": 0.02200000174343586, "roll": "-0.0213294252753"}
{"pitch": "0.00944075360894", "lat": 29.7132915, "timestamp": 1603396678.461925, "alt": 9.91, "yaw": "2.20219731331", "lon": -95.4043448, "heading": 126, "speed": 0.04100000113248825, "roll": "-0.0211966969073"}
{"pitch": "0.00956982374191", "lat": 29.7132917, "timestamp": 1603396678.963051, "alt": 9.91, "yaw": "2.20194339752", "lon": -95.4043446, "heading": 126, "speed": 0.04800000041723251, "roll": "-0.0211701951921"}
{"pitch": "0.00964825041592", "lat": 29.7132919, "timestamp": 1603396679.464151, "alt": 9.9, "yaw": "2.20177936554", "lon": -95.4043443, "heading": 126, "speed": 0.021000001579523087, "roll": "-0.0210719686002"}
{"pitch": "0.00972764752805", "lat": 29.713292, "timestamp": 1603396679.965316, "alt": 9.89, "yaw": "2.20136642456", "lon": -95.4043441, "heading": 126, "speed": 0.01100000087171793, "roll": "-0.0210144650191"}
{"pitch": "0.0098776537925", "lat": 29.7132921, "timestamp": 1603396680.466628, "alt": 9.88, "yaw": "2.20109629631", "lon": -95.4043439, "heading": 126, "speed": 0.015000000596046448, "roll": "-0.0209293924272"}
{"pitch": "0.00992657989264", "lat": 29.7132922, "timestamp": 1603396680.967785, "alt": 9.87, "yaw": "2.20112276077", "lon": -95.4043438, "heading": 126, "speed": 0.04000000283122063, "roll": "-0.0208663400263"}
{"pitch": "0.010016405955", "lat": 29.7132922, "timestamp": 1603396681.469042, "alt": 9.85, "yaw": "2.20087051392", "lon": -95.4043436, "heading": 126, "speed": 0.026000000536441803, "roll": "-0.0209125690162"}
{"pitch": "0.0100164022297", "lat": 29.7132922, "timestamp": 1603396681.970258, "alt": 9.83, "yaw": "2.20057225227", "lon": -95.4043435, "heading": 126, "speed": 0.027000000700354576, "roll": "-0.0209219474345"}
{"pitch": "0.0100399330258", "lat": 29.7132921, "timestamp": 1603396682.471582, "alt": 9.82, "yaw": "2.20038342476", "lon": -95.4043433, "heading": 126, "speed": 0.023000001907348633, "roll": "-0.0208501946181"}
{"pitch": "0.0102550853044", "lat": 29.713292, "timestamp": 1603396682.973428, "alt": 9.81, "yaw": "2.20034980774", "lon": -95.4043433, "heading": 126, "speed": 0.017000000923871994, "roll": "-0.020797489211"}
{"pitch": "0.0101179461926", "lat": 29.7132916, "timestamp": 1603396683.474641, "alt": 9.79, "yaw": "2.20023679733", "lon": -95.4043432, "heading": 126, "speed": 0.029000001028180122, "roll": "-0.0207457374781"}
{"pitch": "0.0100396834314", "lat": 29.7132913, "timestamp": 1603396683.975723, "alt": 9.8, "yaw": "2.19997930527", "lon": -95.4043432, "heading": 126, "speed": 0.04700000211596489, "roll": "-0.0207566861063"}
{"pitch": "0.00994255021214", "lat": 29.7132911, "timestamp": 1603396684.478085, "alt": 9.81, "yaw": "2.19983053207", "lon": -95.4043432, "heading": 126, "speed": 0.06000000238418579, "roll": "-0.0208431687206"}
{"pitch": "0.00982830673456", "lat": 29.7132908, "timestamp": 1603396684.979159, "alt": 9.83, "yaw": "2.19984054565", "lon": -95.4043432, "heading": 126, "speed": 0.015000000596046448, "roll": "-0.0210951194167"}
{"pitch": "0.00969648547471", "lat": 29.7132905, "timestamp": 1603396685.480248, "alt": 9.83, "yaw": "2.1997396946", "lon": -95.4043431, "heading": 126, "speed": 0.032999999821186066, "roll": "-0.0212735850364"}
{"pitch": "0.00973015651107", "lat": 29.7132902, "timestamp": 1603396685.981694, "alt": 9.85, "yaw": "2.19953608513", "lon": -95.4043431, "heading": 126, "speed": 0.010000000707805157, "roll": "-0.0214413478971"}
{"pitch": "0.00970179960132", "lat": 29.71329, "timestamp": 1603396686.482928, "alt": 9.88, "yaw": "2.19913768768", "lon": -95.4043431, "heading": 126, "speed": 0.02500000037252903, "roll": "-0.0215299185365"}
{"pitch": "0.00974923558533", "lat": 29.7132897, "timestamp": 1603396686.984413, "alt": 9.9, "yaw": "2.19896554947", "lon": -95.404343, "heading": 125, "speed": 0.023000001907348633, "roll": "-0.0216745417565"}
{"pitch": "0.00958877429366", "lat": 29.7132895, "timestamp": 1603396687.485621, "alt": 9.93, "yaw": "2.19902276993", "lon": -95.4043429, "heading": 125, "speed": 0.005000000353902578, "roll": "-0.0218139123172"}
{"pitch": "0.00960955023766", "lat": 29.7132892, "timestamp": 1603396687.986935, "alt": 9.94, "yaw": "2.19903731346", "lon": -95.4043428, "heading": 125, "speed": 0.03400000184774399, "roll": "-0.0219251122326"}
{"pitch": "0.00955001451075", "lat": 29.713289, "timestamp": 1603396688.488273, "alt": 9.96, "yaw": "2.19912290573", "lon": -95.4043427, "heading": 126, "speed": 0.03100000135600567, "roll": "-0.0219511091709"}
{"pitch": "0.00955431722105", "lat": 29.7132888, "timestamp": 1603396688.98974, "alt": 10.0, "yaw": "2.19917702675", "lon": -95.4043427, "heading": 126, "speed": 0.023000001907348633, "roll": "-0.021934626624"}
{"pitch": "0.0095131341368", "lat": 29.7132885, "timestamp": 1603396689.490974, "alt": 10.02, "yaw": "2.19910430908", "lon": -95.4043426, "heading": 125, "speed": 0.052000001072883606, "roll": "-0.0219701342285"}
{"pitch": "0.0094768255949", "lat": 29.7132882, "timestamp": 1603396689.992125, "alt": 10.05, "yaw": "2.19869327545", "lon": -95.4043425, "heading": 125, "speed": 0.010000000707805157, "roll": "-0.0220327936113"}
{"pitch": "0.0095491707325", "lat": 29.7132881, "timestamp": 1603396690.493276, "alt": 10.06, "yaw": "2.19878935814", "lon": -95.4043425, "heading": 125, "speed": 0.009000000543892384, "roll": "-0.0222641900182"}
{"pitch": "0.00956322625279", "lat": 29.713288, "timestamp": 1603396690.994526, "alt": 10.09, "yaw": "2.19885420799", "lon": -95.4043425, "heading": 125, "speed": 0.004000000189989805, "roll": "-0.0222832653672"}
{"pitch": "0.00977753289044", "lat": 29.713288, "timestamp": 1603396691.497121, "alt": 10.11, "yaw": "2.19863677025", "lon": -95.4043426, "heading": 125, "speed": 0.0430000014603138, "roll": "-0.0223255604506"}
{"pitch": "0.00986289791763", "lat": 29.713288, "timestamp": 1603396691.998218, "alt": 10.13, "yaw": "2.19850492477", "lon": -95.4043427, "heading": 125, "speed": 0.026000000536441803, "roll": "-0.0224023163319"}
{"pitch": "0.0099506508559", "lat": 29.7132881, "timestamp": 1603396692.500037, "alt": 10.15, "yaw": "2.1984269619", "lon": -95.4043429, "heading": 125, "speed": 0.023000001907348633, "roll": "-0.0224795751274"}
{"pitch": "0.00993837602437", "lat": 29.7132881, "timestamp": 1603396693.001295, "alt": 10.17, "yaw": "2.1984333992", "lon": -95.404343, "heading": 125, "speed": 0.032999999821186066, "roll": "-0.0225493125618"}
{"pitch": "0.0100674591959", "lat": 29.7132883, "timestamp": 1603396693.502384, "alt": 10.19, "yaw": "2.19834470749", "lon": -95.4043432, "heading": 125, "speed": 0.02500000037252903, "roll": "-0.0225937068462"}
{"pitch": "0.0102359298617", "lat": 29.7132884, "timestamp": 1603396694.003634, "alt": 10.21, "yaw": "2.1981356144", "lon": -95.4043436, "heading": 125, "speed": 0.01900000125169754, "roll": "-0.0226144604385"}
{"pitch": "0.0101099535823", "lat": 29.7132885, "timestamp": 1603396694.504919, "alt": 10.25, "yaw": "2.19800376892", "lon": -95.4043438, "heading": 125, "speed": 0.03500000014901161, "roll": "-0.0225220881402"}
{"pitch": "0.00980263762176", "lat": 29.7132885, "timestamp": 1603396695.007064, "alt": 10.28, "yaw": "2.19798064232", "lon": -95.4043439, "heading": 125, "speed": 0.020000001415610313, "roll": "-0.022510683164"}
{"pitch": "0.00959058478475", "lat": 29.7132886, "timestamp": 1603396695.508905, "alt": 10.35, "yaw": "2.1978802681", "lon": -95.4043441, "heading": 125, "speed": 0.020000001415610313, "roll": "-0.0224972963333"}
{"pitch": "0.00940274633467", "lat": 29.7132887, "timestamp": 1603396696.010041, "alt": 10.37, "yaw": "2.19775223732", "lon": -95.4043441, "heading": 125, "speed": 0.010000000707805157, "roll": "-0.0224966779351"}
{"pitch": "0.00922564789653", "lat": 29.7132888, "timestamp": 1603396696.511163, "alt": 10.43, "yaw": "2.19747543335", "lon": -95.4043442, "heading": 125, "speed": 0.017000000923871994, "roll": "-0.0225138645619"}
{"pitch": "0.00931061990559", "lat": 29.713289, "timestamp": 1603396697.012304, "alt": 10.47, "yaw": "2.19725728035", "lon": -95.4043443, "heading": 125, "speed": 0.014000000432133675, "roll": "-0.0225219596177"}
{"pitch": "0.00916278548539", "lat": 29.7132893, "timestamp": 1603396697.513612, "alt": 10.49, "yaw": "2.19714331627", "lon": -95.4043445, "heading": 125, "speed": 0.05000000074505806, "roll": "-0.0225473232567"}
{"pitch": "0.00908896885812", "lat": 29.7132895, "timestamp": 1603396698.014917, "alt": 10.52, "yaw": "2.19683742523", "lon": -95.4043446, "heading": 125, "speed": 0.030000001192092896, "roll": "-0.0224893428385"}
{"pitch": "0.00911720469594", "lat": 29.7132898, "timestamp": 1603396698.516019, "alt": 10.54, "yaw": "2.19671702385", "lon": -95.4043447, "heading": 125, "speed": 0.013000000268220901, "roll": "-0.0224433392286"}
{"pitch": "0.00905079394579", "lat": 29.71329, "timestamp": 1603396699.018197, "alt": 10.57, "yaw": "2.19646072388", "lon": -95.4043448, "heading": 125, "speed": 0.04000000283122063, "roll": "-0.0223717726767"}
{"pitch": "0.00918800197542", "lat": 29.7132903, "timestamp": 1603396699.520326, "alt": 10.58, "yaw": "2.19634103775", "lon": -95.404345, "heading": 125, "speed": 0.010000000707805157, "roll": "-0.0224385466427"}
{"pitch": "0.00912600196898", "lat": 29.7132905, "timestamp": 1603396700.021546, "alt": 10.59, "yaw": "2.19632315636", "lon": -95.4043451, "heading": 125, "speed": 0.017000000923871994, "roll": "-0.0223261844367"}
{"pitch": "0.00904260389507", "lat": 29.7132908, "timestamp": 1603396700.522702, "alt": 10.61, "yaw": "2.19634199142", "lon": -95.4043452, "heading": 125, "speed": 0.05000000074505806, "roll": "-0.0223175641149"}
{"pitch": "0.00908777676523", "lat": 29.7132911, "timestamp": 1603396701.023872, "alt": 10.63, "yaw": "2.19634795189", "lon": -95.4043452, "heading": 125, "speed": 0.01600000075995922, "roll": "-0.0223507583141"}
{"pitch": "0.00899779051542", "lat": 29.7132915, "timestamp": 1603396701.525116, "alt": 10.66, "yaw": "2.19628667831", "lon": -95.4043453, "heading": 125, "speed": 0.02200000174343586, "roll": "-0.0222223270684"}
{"pitch": "0.00900787301362", "lat": 29.7132918, "timestamp": 1603396702.026464, "alt": 10.69, "yaw": "2.19636297226", "lon": -95.4043453, "heading": 125, "speed": 0.02800000086426735, "roll": "-0.0220906157047"}
{"pitch": "0.00911891274154", "lat": 29.7132922, "timestamp": 1603396702.528912, "alt": 10.74, "yaw": "2.19636535645", "lon": -95.4043454, "heading": 125, "speed": 0.03800000250339508, "roll": "-0.0219894424081"}
{"pitch": "0.00905095040798", "lat": 29.7132924, "timestamp": 1603396703.03006, "alt": 10.75, "yaw": "2.19627594948", "lon": -95.4043454, "heading": 125, "speed": 0.020000001415610313, "roll": "-0.022083953023"}
{"pitch": "0.00909753702581", "lat": 29.7132929, "timestamp": 1603396703.531284, "alt": 10.77, "yaw": "2.19626808167", "lon": -95.4043455, "heading": 125, "speed": 0.01600000075995922, "roll": "-0.0219785682857"}
{"pitch": "0.00905498117208", "lat": 29.7132932, "timestamp": 1603396704.032533, "alt": 10.79, "yaw": "2.19643306732", "lon": -95.4043455, "heading": 125, "speed": 0.023000001907348633, "roll": "-0.0220927521586"}
{"pitch": "0.00901483371854", "lat": 29.7132936, "timestamp": 1603396704.534328, "alt": 10.8, "yaw": "2.19661450386", "lon": -95.4043456, "heading": 125, "speed": 0.027000000700354576, "roll": "-0.0219608396292"}
{"pitch": "0.00888508558273", "lat": 29.7132939, "timestamp": 1603396705.035444, "alt": 10.84, "yaw": "2.19656562805", "lon": -95.4043456, "heading": 125, "speed": 0.029000001028180122, "roll": "-0.021876193583"}
{"pitch": "0.00881744921207", "lat": 29.7132942, "timestamp": 1603396705.536618, "alt": 10.86, "yaw": "2.19644832611", "lon": -95.4043458, "heading": 125, "speed": 0.039000000804662704, "roll": "-0.0217726491392"}
{"pitch": "0.00877374596894", "lat": 29.7132945, "timestamp": 1603396706.03782, "alt": 10.9, "yaw": "2.19658136368", "lon": -95.4043459, "heading": 125, "speed": 0.06200000271201134, "roll": "-0.0216287132353"}
{"pitch": "0.008768806234", "lat": 29.7132949, "timestamp": 1603396706.539209, "alt": 10.93, "yaw": "2.19636678696", "lon": -95.4043461, "heading": 125, "speed": 0.017000000923871994, "roll": "-0.0215995572507"}
{"pitch": "0.00852733850479", "lat": 29.7132951, "timestamp": 1603396707.040963, "alt": 10.95, "yaw": "2.19627428055", "lon": -95.4043462, "heading": 125, "speed": 0.023000001907348633, "roll": "-0.0215910356492"}
{"pitch": "0.00840959325433", "lat": 29.7132954, "timestamp": 1603396707.542319, "alt": 10.98, "yaw": "2.1961915493", "lon": -95.4043462, "heading": 125, "speed": 0.010000000707805157, "roll": "-0.0215660072863"}
{"pitch": "0.0083773676306", "lat": 29.7132956, "timestamp": 1603396708.043514, "alt": 10.99, "yaw": "2.19624948502", "lon": -95.4043463, "heading": 125, "speed": 0.018000001087784767, "roll": "-0.0215551741421"}
{"pitch": "0.0085276439786", "lat": 29.7132958, "timestamp": 1603396708.544697, "alt": 11.01, "yaw": "2.19608449936", "lon": -95.4043465, "heading": 125, "speed": 0.030000001192092896, "roll": "-0.0215262025595"}
{"pitch": "0.00849206931889", "lat": 29.7132961, "timestamp": 1603396709.046023, "alt": 11.03, "yaw": "2.19596290588", "lon": -95.4043467, "heading": 125, "speed": 0.020000001415610313, "roll": "-0.0215280614793"}
{"pitch": "0.00846258550882", "lat": 29.7132963, "timestamp": 1603396709.547586, "alt": 11.05, "yaw": "2.19567537308", "lon": -95.4043468, "heading": 125, "speed": 0.021000001579523087, "roll": "-0.0216579884291"}
{"pitch": "0.00841646455228", "lat": 29.7132965, "timestamp": 1603396710.049252, "alt": 11.05, "yaw": "2.19568490982", "lon": -95.404347, "heading": 125, "speed": 0.04400000348687172, "roll": "-0.0217230096459"}
{"pitch": "0.00854047201574", "lat": 29.7132967, "timestamp": 1603396710.550369, "alt": 11.06, "yaw": "2.19547772408", "lon": -95.4043473, "heading": 125, "speed": 0.020000001415610313, "roll": "-0.0216519422829"}
{"pitch": "0.00865542702377", "lat": 29.7132968, "timestamp": 1603396711.05146, "alt": 11.07, "yaw": "2.19519901276", "lon": -95.4043476, "heading": 125, "speed": 0.03100000135600567, "roll": "-0.0215689111501"}
{"pitch": "0.00863555073738", "lat": 29.7132968, "timestamp": 1603396711.552531, "alt": 11.11, "yaw": "2.19506072998", "lon": -95.4043478, "heading": 125, "speed": 0.02800000086426735, "roll": "-0.0214762240648"}
{"pitch": "0.00844510830939", "lat": 29.7132968, "timestamp": 1603396712.053662, "alt": 11.15, "yaw": "2.1948723793", "lon": -95.4043481, "heading": 125, "speed": 0.027000000700354576, "roll": "-0.0213522221893"}
{"pitch": "0.00849693268538", "lat": 29.7132967, "timestamp": 1603396712.554772, "alt": 11.16, "yaw": "2.19461226463", "lon": -95.4043482, "heading": 125, "speed": 0.04700000211596489, "roll": "-0.0213021747768"}
{"pitch": "0.00848514027894", "lat": 29.7132967, "timestamp": 1603396713.055959, "alt": 11.18, "yaw": "2.19450616837", "lon": -95.4043484, "heading": 125, "speed": 0.036000002175569534, "roll": "-0.0213470738381"}
{"pitch": "0.00830576941371", "lat": 29.7132965, "timestamp": 1603396713.557092, "alt": 11.2, "yaw": "2.19435429573", "lon": -95.4043485, "heading": 125, "speed": 0.015000000596046448, "roll": "-0.0212881844491"}
{"pitch": "0.00819831341505", "lat": 29.7132962, "timestamp": 1603396714.058234, "alt": 11.23, "yaw": "2.1941742897", "lon": -95.4043485, "heading": 125, "speed": 0.0430000014603138, "roll": "-0.0211750492454"}
{"pitch": "0.00826163776219", "lat": 29.713296, "timestamp": 1603396714.56403, "alt": 11.27, "yaw": "2.19398975372", "lon": -95.4043487, "heading": 125, "speed": 0.032999999821186066, "roll": "-0.0212132837623"}
{"pitch": "0.00850412622094", "lat": 29.7132959, "timestamp": 1603396715.065259, "alt": 11.3, "yaw": "2.19395947456", "lon": -95.4043489, "heading": 125, "speed": 0.020000001415610313, "roll": "-0.0214554164559"}
{"pitch": "0.00859176553786", "lat": 29.7132958, "timestamp": 1603396715.56641, "alt": 11.32, "yaw": "2.19378423691", "lon": -95.4043491, "heading": 125, "speed": 0.03400000184774399, "roll": "-0.0215300638229"}
{"pitch": "0.00865183398128", "lat": 29.7132957, "timestamp": 1603396716.067568, "alt": 11.34, "yaw": "2.19365406036", "lon": -95.4043493, "heading": 125, "speed": 0.023000001907348633, "roll": "-0.0214596576989"}
{"pitch": "0.008694794029", "lat": 29.7132955, "timestamp": 1603396716.569061, "alt": 11.38, "yaw": "2.19342923164", "lon": -95.4043494, "heading": 125, "speed": 0.009000000543892384, "roll": "-0.0215458981693"}
{"pitch": "0.00879009068012", "lat": 29.7132953, "timestamp": 1603396717.070285, "alt": 11.39, "yaw": "2.19361495972", "lon": -95.4043496, "heading": 125, "speed": 0.010000000707805157, "roll": "-0.0216671898961"}
{"pitch": "0.00887045264244", "lat": 29.7132951, "timestamp": 1603396717.571403, "alt": 11.41, "yaw": "2.19352769852", "lon": -95.4043497, "heading": 125, "speed": 0.021000001579523087, "roll": "-0.0217685829848"}
{"pitch": "0.00896917283535", "lat": 29.7132949, "timestamp": 1603396718.072215, "alt": 11.42, "yaw": "2.19350719452", "lon": -95.4043497, "heading": 125, "speed": 0.01600000075995922, "roll": "-0.0218876060098"}
{"pitch": "0.00903218984604", "lat": 29.7132947, "timestamp": 1603396718.573319, "alt": 11.44, "yaw": "2.19349765778", "lon": -95.4043498, "heading": 125, "speed": 0.03200000151991844, "roll": "-0.0220422968268"}
{"pitch": "0.00902649760246", "lat": 29.7132945, "timestamp": 1603396719.074437, "alt": 11.47, "yaw": "2.19365930557", "lon": -95.4043497, "heading": 125, "speed": 0.04100000113248825, "roll": "-0.0221781786531"}
{"pitch": "0.00928804464638", "lat": 29.7132943, "timestamp": 1603396719.575685, "alt": 11.48, "yaw": "2.19359612465", "lon": -95.4043498, "heading": 125, "speed": 0.00800000037997961, "roll": "-0.0223358217627"}
{"pitch": "0.00941948592663", "lat": 29.7132942, "timestamp": 1603396720.076856, "alt": 11.5, "yaw": "2.19362545013", "lon": -95.4043498, "heading": 125, "speed": 0.03400000184774399, "roll": "-0.022388799116"}
{"pitch": "0.0096069034189", "lat": 29.7132941, "timestamp": 1603396720.578031, "alt": 11.51, "yaw": "2.19349551201", "lon": -95.4043499, "heading": 125, "speed": 0.014000000432133675, "roll": "-0.0227104220539"}
{"pitch": "0.00958097539842", "lat": 29.7132941, "timestamp": 1603396721.081356, "alt": 11.52, "yaw": "2.19335794449", "lon": -95.4043499, "heading": 125, "speed": 0.01600000075995922, "roll": "-0.0227616000921"}
{"pitch": "0.00954325310886", "lat": 29.713294, "timestamp": 1603396721.582489, "alt": 11.52, "yaw": "2.19329881668", "lon": -95.40435, "heading": 125, "speed": 0.02500000037252903, "roll": "-0.0228225085884"}
{"pitch": "0.00970495864749", "lat": 29.7132939, "timestamp": 1603396722.08469, "alt": 11.51, "yaw": "2.19333291054", "lon": -95.4043501, "heading": 125, "speed": 0.018000001087784767, "roll": "-0.0226783230901"}
{"pitch": "0.00989208370447", "lat": 29.7132936, "timestamp": 1603396722.586597, "alt": 11.52, "yaw": "2.19320058823", "lon": -95.4043502, "heading": 125, "speed": 0.020000001415610313, "roll": "-0.0224931780249"}
{"pitch": "0.0100106652826", "lat": 29.7132936, "timestamp": 1603396723.087987, "alt": 11.52, "yaw": "2.19307470322", "lon": -95.4043503, "heading": 125, "speed": 0.015000000596046448, "roll": "-0.0225465577096"}
{"pitch": "0.010195132345", "lat": 29.7132933, "timestamp": 1603396723.589417, "alt": 11.51, "yaw": "2.19284772873", "lon": -95.4043505, "heading": 125, "speed": 0.00800000037997961, "roll": "-0.0225850194693"}
{"pitch": "0.0102036315948", "lat": 29.7132932, "timestamp": 1603396724.09127, "alt": 11.52, "yaw": "2.1925702095", "lon": -95.4043505, "heading": 125, "speed": 0.010000000707805157, "roll": "-0.0225588809699"}
{"pitch": "0.0100604388863", "lat": 29.7132929, "timestamp": 1603396724.593316, "alt": 11.52, "yaw": "2.19209051132", "lon": -95.4043505, "heading": 125, "speed": 0.07600000500679016, "roll": "-0.0226297751069"}
{"pitch": "0.00984342582524", "lat": 29.7132926, "timestamp": 1603396725.09519, "alt": 11.51, "yaw": "2.19186306", "lon": -95.4043503, "heading": 125, "speed": 0.03800000250339508, "roll": "-0.022752771154"}
{"pitch": "0.00993048585951", "lat": 29.7132924, "timestamp": 1603396725.596306, "alt": 11.5, "yaw": "2.19161319733", "lon": -95.4043502, "heading": 125, "speed": 0.07000000029802322, "roll": "-0.0228523891419"}
{"pitch": "0.0100595746189", "lat": 29.7132922, "timestamp": 1603396726.097152, "alt": 11.5, "yaw": "2.19152545929", "lon": -95.4043503, "heading": 125, "speed": 0.017000000923871994, "roll": "-0.0227897614241"}
{"pitch": "0.0100687500089", "lat": 29.7132922, "timestamp": 1603396726.598316, "alt": 11.5, "yaw": "2.19137620926", "lon": -95.4043503, "heading": 125, "speed": 0.052000001072883606, "roll": "-0.0228162836283"}
{"pitch": "0.0102916359901", "lat": 29.713292, "timestamp": 1603396727.099584, "alt": 11.49, "yaw": "2.1912753582", "lon": -95.4043504, "heading": 125, "speed": 0.04400000348687172, "roll": "-0.0228126551956"}
{"pitch": "0.0102707706392", "lat": 29.7132919, "timestamp": 1603396727.601982, "alt": 11.49, "yaw": "2.19114208221", "lon": -95.4043505, "heading": 125, "speed": 0.009000000543892384, "roll": "-0.0228457469493"}
{"pitch": "0.0101996250451", "lat": 29.7132917, "timestamp": 1603396728.103546, "alt": 11.49, "yaw": "2.19105815887", "lon": -95.4043505, "heading": 125, "speed": 0.021000001579523087, "roll": "-0.0228829048574"}
{"pitch": "0.0102359652519", "lat": 29.7132917, "timestamp": 1603396728.604732, "alt": 11.48, "yaw": "2.19093418121", "lon": -95.4043506, "heading": 125, "speed": 0.023000001907348633, "roll": "-0.0229222029448"}
{"pitch": "0.0102845709771", "lat": 29.7132916, "timestamp": 1603396729.10649, "alt": 11.48, "yaw": "2.19081640244", "lon": -95.4043507, "heading": 125, "speed": 0.01600000075995922, "roll": "-0.0227431170642"}
{"pitch": "0.0102004259825", "lat": 29.7132914, "timestamp": 1603396729.609032, "alt": 11.49, "yaw": "2.19071769714", "lon": -95.4043508, "heading": 125, "speed": 0.015000000596046448, "roll": "-0.0225588344038"}
{"pitch": "0.00991844944656", "lat": 29.7132912, "timestamp": 1603396730.110041, "alt": 11.5, "yaw": "2.1906709671", "lon": -95.4043509, "heading": 125, "speed": 0.024000000208616257, "roll": "-0.022480526939"}
{"pitch": "0.00986205786467", "lat": 29.7132911, "timestamp": 1603396730.611363, "alt": 11.49, "yaw": "2.19050312042", "lon": -95.4043509, "heading": 125, "speed": 0.05400000140070915, "roll": "-0.0222036279738"}
{"pitch": "0.00981616415083", "lat": 29.7132909, "timestamp": 1603396731.112585, "alt": 11.49, "yaw": "2.19030642509", "lon": -95.4043508, "heading": 125, "speed": 0.039000000804662704, "roll": "-0.0222709123045"}
{"pitch": "0.00968631729484", "lat": 29.7132907, "timestamp": 1603396731.613735, "alt": 11.5, "yaw": "2.19020605087", "lon": -95.4043505, "heading": 125, "speed": 0.027000000700354576, "roll": "-0.0223553273827"}
{"pitch": "0.00952007248998", "lat": 29.7132904, "timestamp": 1603396732.114948, "alt": 11.51, "yaw": "2.1900434494", "lon": -95.4043502, "heading": 125, "speed": 0.03400000184774399, "roll": "-0.0223231054842"}
{"pitch": "0.00935553945601", "lat": 29.7132901, "timestamp": 1603396732.616098, "alt": 11.5, "yaw": "2.18992233276", "lon": -95.4043499, "heading": 125, "speed": 0.03500000014901161, "roll": "-0.0223024468869"}
{"pitch": "0.00945414602757", "lat": 29.7132898, "timestamp": 1603396733.117199, "alt": 11.5, "yaw": "2.18979883194", "lon": -95.4043496, "heading": 125, "speed": 0.02800000086426735, "roll": "-0.0222420673817"}
{"pitch": "0.0094728153199", "lat": 29.7132896, "timestamp": 1603396733.618215, "alt": 11.49, "yaw": "2.18971681595", "lon": -95.4043494, "heading": 125, "speed": 0.020000001415610313, "roll": "-0.0222664773464"}
{"pitch": "0.00957917235792", "lat": 29.7132893, "timestamp": 1603396734.119331, "alt": 11.5, "yaw": "2.18965125084", "lon": -95.404349, "heading": 125, "speed": 0.014000000432133675, "roll": "-0.0223643928766"}
{"pitch": "0.00973659567535", "lat": 29.7132891, "timestamp": 1603396734.620439, "alt": 11.51, "yaw": "2.18929123878", "lon": -95.4043487, "heading": 125, "speed": 0.020000001415610313, "roll": "-0.0223008263856"}
{"pitch": "0.00986851006746", "lat": 29.7132887, "timestamp": 1603396735.121373, "alt": 11.52, "yaw": "2.18918681145", "lon": -95.4043485, "heading": 125, "speed": 0.013000000268220901, "roll": "-0.0221775881946"}
{"pitch": "0.0100293923169", "lat": 29.7132882, "timestamp": 1603396735.622512, "alt": 11.54, "yaw": "2.1891336441", "lon": -95.4043481, "heading": 125, "speed": 0.03200000151991844, "roll": "-0.0221843607724"}
{"pitch": "0.010145381093", "lat": 29.713288, "timestamp": 1603396736.12488, "alt": 11.53, "yaw": "2.1891875267", "lon": -95.4043478, "heading": 125, "speed": 0.03400000184774399, "roll": "-0.0222004428506"}
{"pitch": "0.0102461148053", "lat": 29.7132877, "timestamp": 1603396736.626444, "alt": 11.54, "yaw": "2.18907427788", "lon": -95.4043475, "heading": 125, "speed": 0.021000001579523087, "roll": "-0.0221509840339"}
{"pitch": "0.010464547202", "lat": 29.7132875, "timestamp": 1603396737.128223, "alt": 11.54, "yaw": "2.18889546394", "lon": -95.4043473, "heading": 125, "speed": 0.0430000014603138, "roll": "-0.0221334509552"}
{"pitch": "0.0105981212109", "lat": 29.7132873, "timestamp": 1603396737.629929, "alt": 11.54, "yaw": "2.18882012367", "lon": -95.4043471, "heading": 125, "speed": 0.018000001087784767, "roll": "-0.0220840424299"}
{"pitch": "0.0108139924705", "lat": 29.7132871, "timestamp": 1603396738.131068, "alt": 11.55, "yaw": "2.18873763084", "lon": -95.404347, "heading": 125, "speed": 0.014000000432133675, "roll": "-0.0220900382847"}
{"pitch": "0.0108791384846", "lat": 29.713287, "timestamp": 1603396738.632227, "alt": 11.57, "yaw": "2.18851923943", "lon": -95.4043469, "heading": 125, "speed": 0.014000000432133675, "roll": "-0.0220315493643"}
{"pitch": "0.0108987819403", "lat": 29.7132869, "timestamp": 1603396739.133324, "alt": 11.58, "yaw": "2.18836784363", "lon": -95.4043469, "heading": 125, "speed": 0.058000002056360245, "roll": "-0.0220495350659"}
{"pitch": "0.0111399237067", "lat": 29.7132868, "timestamp": 1603396739.634413, "alt": 11.58, "yaw": "2.18825030327", "lon": -95.4043469, "heading": 125, "speed": 0.04700000211596489, "roll": "-0.0221988726407"}
{"pitch": "0.0111918020993", "lat": 29.7132868, "timestamp": 1603396740.136001, "alt": 11.58, "yaw": "2.18821763992", "lon": -95.4043469, "heading": 125, "speed": 0.03500000014901161, "roll": "-0.0221897065639"}
{"pitch": "0.0111379846931", "lat": 29.7132867, "timestamp": 1603396740.638129, "alt": 11.59, "yaw": "2.18799519539", "lon": -95.4043469, "heading": 125, "speed": 0.032999999821186066, "roll": "-0.0222397111356"}
{"pitch": "0.0111394077539", "lat": 29.7132866, "timestamp": 1603396741.139477, "alt": 11.6, "yaw": "2.18795847893", "lon": -95.4043469, "heading": 125, "speed": 0.052000001072883606, "roll": "-0.0222903415561"}
{"pitch": "0.011050388217", "lat": 29.7132865, "timestamp": 1603396741.640736, "alt": 11.61, "yaw": "2.1878323555", "lon": -95.4043468, "heading": 125, "speed": 0.023000001907348633, "roll": "-0.0223003458232"}
{"pitch": "0.0111676603556", "lat": 29.7132864, "timestamp": 1603396742.142452, "alt": 11.61, "yaw": "2.18762922287", "lon": -95.4043469, "heading": 125, "speed": 0.013000000268220901, "roll": "-0.0222674068063"}
{"pitch": "0.0111516658217", "lat": 29.7132863, "timestamp": 1603396742.643676, "alt": 11.63, "yaw": "2.18735742569", "lon": -95.4043469, "heading": 125, "speed": 0.0430000014603138, "roll": "-0.0221550371498"}
{"pitch": "0.0110063180327", "lat": 29.7132862, "timestamp": 1603396743.144956, "alt": 11.64, "yaw": "2.18731713295", "lon": -95.4043468, "heading": 125, "speed": 0.006000000052154064, "roll": "-0.0221451669931"}
{"pitch": "0.0109063461423", "lat": 29.713286, "timestamp": 1603396743.64685, "alt": 11.64, "yaw": "2.18723869324", "lon": -95.4043469, "heading": 125, "speed": 0.018000001087784767, "roll": "-0.0221378598362"}
{"pitch": "0.0108987446874", "lat": 29.7132858, "timestamp": 1603396744.148055, "alt": 11.65, "yaw": "2.18714690208", "lon": -95.4043469, "heading": 125, "speed": 0.020000001415610313, "roll": "-0.0220384318382"}
{"pitch": "0.0109091848135", "lat": 29.7132856, "timestamp": 1603396744.649167, "alt": 11.65, "yaw": "2.18698740005", "lon": -95.4043468, "heading": 125, "speed": 0.014000000432133675, "roll": "-0.0219593644142"}
{"pitch": "0.0107928384095", "lat": 29.7132854, "timestamp": 1603396745.150336, "alt": 11.65, "yaw": "2.18677783012", "lon": -95.4043468, "heading": 125, "speed": 0.017000000923871994, "roll": "-0.0219065919518"}
{"pitch": "0.0106473583728", "lat": 29.7132851, "timestamp": 1603396745.651505, "alt": 11.68, "yaw": "2.18645572662", "lon": -95.4043467, "heading": 125, "speed": 0.03700000047683716, "roll": "-0.0218347478658"}
{"pitch": "0.0105981025845", "lat": 29.7132849, "timestamp": 1603396746.152693, "alt": 11.7, "yaw": "2.18638396263", "lon": -95.4043467, "heading": 125, "speed": 0.020000001415610313, "roll": "-0.0217227432877"}
{"pitch": "0.0104764383286", "lat": 29.7132846, "timestamp": 1603396746.653814, "alt": 11.73, "yaw": "2.18620872498", "lon": -95.4043467, "heading": 125, "speed": 0.02200000174343586, "roll": "-0.0217812396586"}
{"pitch": "0.0103618744761", "lat": 29.7132843, "timestamp": 1603396747.155023, "alt": 11.76, "yaw": "2.18614864349", "lon": -95.4043467, "heading": 125, "speed": 0.01900000125169754, "roll": "-0.0218210984021"}
{"pitch": "0.0103274490684", "lat": 29.713284, "timestamp": 1603396747.656154, "alt": 11.77, "yaw": "2.18606257439", "lon": -95.4043467, "heading": 125, "speed": 0.015000000596046448, "roll": "-0.021815771237"}
{"pitch": "0.0102944895625", "lat": 29.7132838, "timestamp": 1603396748.157295, "alt": 11.8, "yaw": "2.18592071533", "lon": -95.4043468, "heading": 125, "speed": 0.02500000037252903, "roll": "-0.0218735449016"}
{"pitch": "0.0103923156857", "lat": 29.7132836, "timestamp": 1603396748.658576, "alt": 11.81, "yaw": "2.18594455719", "lon": -95.4043469, "heading": 125, "speed": 0.02800000086426735, "roll": "-0.0219217911363"}
{"pitch": "0.0102673824877", "lat": 29.7132834, "timestamp": 1603396749.159795, "alt": 11.82, "yaw": "2.18597459793", "lon": -95.4043469, "heading": 125, "speed": 0.02800000086426735, "roll": "-0.0218835715204"}
{"pitch": "0.0100935455412", "lat": 29.7132832, "timestamp": 1603396749.661347, "alt": 11.84, "yaw": "2.18592739105", "lon": -95.4043469, "heading": 125, "speed": 0.03100000135600567, "roll": "-0.0219976380467"}
{"pitch": "0.0102589055896", "lat": 29.7132831, "timestamp": 1603396750.162584, "alt": 11.85, "yaw": "2.18582248688", "lon": -95.404347, "heading": 125, "speed": 0.0020000000949949026, "roll": "-0.0220771320164"}
{"pitch": "0.010258840397", "lat": 29.713283, "timestamp": 1603396750.6638, "alt": 11.88, "yaw": "2.18579673767", "lon": -95.404347, "heading": 125, "speed": 0.039000000804662704, "roll": "-0.0221276879311"}
{"pitch": "0.0101156625897", "lat": 29.7132829, "timestamp": 1603396751.166731, "alt": 11.91, "yaw": "2.18580055237", "lon": -95.404347, "heading": 125, "speed": 0.021000001579523087, "roll": "-0.022043844685"}
{"pitch": "0.0100219622254", "lat": 29.7132827, "timestamp": 1603396751.667658, "alt": 11.94, "yaw": "2.18560552597", "lon": -95.4043469, "heading": 125, "speed": 0.017000000923871994, "roll": "-0.0220004543662"}
{"pitch": "0.0100086256862", "lat": 29.7132826, "timestamp": 1603396752.169057, "alt": 11.96, "yaw": "2.18559169769", "lon": -95.4043468, "heading": 125, "speed": 0.026000000536441803, "roll": "-0.0219386201352"}
{"pitch": "0.00996666401625", "lat": 29.7132824, "timestamp": 1603396752.67069, "alt": 11.98, "yaw": "2.18546438217", "lon": -95.4043467, "heading": 125, "speed": 0.010000000707805157, "roll": "-0.0218475461006"}
{"pitch": "0.0100253038108", "lat": 29.7132822, "timestamp": 1603396753.171804, "alt": 12.0, "yaw": "2.1854596138", "lon": -95.4043466, "heading": 125, "speed": 0.032999999821186066, "roll": "-0.0218725204468"}
{"pitch": "0.0102172661573", "lat": 29.7132821, "timestamp": 1603396753.673087, "alt": 12.03, "yaw": "2.18524646759", "lon": -95.4043466, "heading": 125, "speed": 0.027000000700354576, "roll": "-0.0218023248017"}
{"pitch": "0.0102296173573", "lat": 29.7132819, "timestamp": 1603396754.174699, "alt": 12.04, "yaw": "2.18517613411", "lon": -95.4043466, "heading": 125, "speed": 0.04400000348687172, "roll": "-0.0216293167323"}
{"pitch": "0.0102878548205", "lat": 29.7132818, "timestamp": 1603396754.676101, "alt": 12.06, "yaw": "2.18512225151", "lon": -95.4043465, "heading": 125, "speed": 0.049000002443790436, "roll": "-0.0215435717255"}
{"pitch": "0.0102310851216", "lat": 29.7132816, "timestamp": 1603396755.177367, "alt": 12.08, "yaw": "2.18503808975", "lon": -95.4043465, "heading": 125, "speed": 0.021000001579523087, "roll": "-0.0213619321585"}
{"pitch": "0.0102664679289", "lat": 29.7132814, "timestamp": 1603396755.678753, "alt": 12.1, "yaw": "2.18493652344", "lon": -95.4043464, "heading": 125, "speed": 0.04500000178813934, "roll": "-0.0212872363627"}
{"pitch": "0.0104661397636", "lat": 29.7132812, "timestamp": 1603396756.18054, "alt": 12.14, "yaw": "2.18489742279", "lon": -95.4043466, "heading": 125, "speed": 0.02500000037252903, "roll": "-0.0211648717523"}
{"pitch": "0.0107272975147", "lat": 29.7132811, "timestamp": 1603396756.69561, "alt": 12.15, "yaw": "2.18452548981", "lon": -95.4043466, "heading": 125, "speed": 0.026000000536441803, "roll": "-0.0211198478937"}
{"pitch": "0.010761661455", "lat": 29.713281, "timestamp": 1603396757.198133, "alt": 12.18, "yaw": "2.18448114395", "lon": -95.4043466, "heading": 125, "speed": 0.027000000700354576, "roll": "-0.0210426338017"}
{"pitch": "0.0106966737658", "lat": 29.7132808, "timestamp": 1603396757.699906, "alt": 12.2, "yaw": "2.18434429169", "lon": -95.4043465, "heading": 125, "speed": 0.01900000125169754, "roll": "-0.0212344713509"}
{"pitch": "0.0107464678586", "lat": 29.7132807, "timestamp": 1603396758.201576, "alt": 12.24, "yaw": "2.18418979645", "lon": -95.4043465, "heading": 125, "speed": 0.05900000408291817, "roll": "-0.021179119125"}
{"pitch": "0.0107530187815", "lat": 29.7132805, "timestamp": 1603396758.702932, "alt": 12.26, "yaw": "2.18404626846", "lon": -95.4043463, "heading": 125, "speed": 0.02500000037252903, "roll": "-0.0212873909622"}
{"pitch": "0.0105931200087", "lat": 29.7132803, "timestamp": 1603396759.206301, "alt": 12.28, "yaw": "2.18388414383", "lon": -95.4043461, "heading": 125, "speed": 0.027000000700354576, "roll": "-0.0212620999664"}
{"pitch": "0.0105056017637", "lat": 29.71328, "timestamp": 1603396759.708102, "alt": 12.32, "yaw": "2.18357348442", "lon": -95.4043459, "heading": 125, "speed": 0.02500000037252903, "roll": "-0.0212665963918"}
{"pitch": "0.0103414431214", "lat": 29.7132797, "timestamp": 1603396760.21, "alt": 12.34, "yaw": "2.18341183662", "lon": -95.4043457, "heading": 125, "speed": 0.02800000086426735, "roll": "-0.0211538616568"}
{"pitch": "0.0101071838289", "lat": 29.7132795, "timestamp": 1603396760.711786, "alt": 12.37, "yaw": "2.18312740326", "lon": -95.4043454, "heading": 125, "speed": 0.010000000707805157, "roll": "-0.0210971087217"}
{"pitch": "0.010055013001", "lat": 29.7132793, "timestamp": 1603396761.213824, "alt": 12.39, "yaw": "2.18300771713", "lon": -95.4043453, "heading": 125, "speed": 0.02500000037252903, "roll": "-0.0211777612567"}
{"pitch": "0.010061647743", "lat": 29.7132791, "timestamp": 1603396761.716128, "alt": 12.43, "yaw": "2.18280696869", "lon": -95.4043451, "heading": 125, "speed": 0.0010000000474974513, "roll": "-0.0212547536939"}
{"pitch": "0.0100810267031", "lat": 29.713279, "timestamp": 1603396762.218104, "alt": 12.46, "yaw": "2.182554245", "lon": -95.4043449, "heading": 125, "speed": 0.04500000178813934, "roll": "-0.0212370082736"}
{"pitch": "0.0100927986205", "lat": 29.7132788, "timestamp": 1603396762.719755, "alt": 12.49, "yaw": "2.18226718903", "lon": -95.4043448, "heading": 125, "speed": 0.014000000432133675, "roll": "-0.0211869273335"}
{"pitch": "0.0101860128343", "lat": 29.7132787, "timestamp": 1603396763.22225, "alt": 12.5, "yaw": "2.1820499897", "lon": -95.4043447, "heading": 125, "speed": 0.01100000087171793, "roll": "-0.0210030041635"}
{"pitch": "0.0103198252618", "lat": 29.7132786, "timestamp": 1603396763.72679, "alt": 12.51, "yaw": "2.18178009987", "lon": -95.4043447, "heading": 125, "speed": 0.010000000707805157, "roll": "-0.0209124367684"}
{"pitch": "0.0102872289717", "lat": 29.7132784, "timestamp": 1603396764.23223, "alt": 12.54, "yaw": "2.18170022964", "lon": -95.4043447, "heading": 125, "speed": 0.04100000113248825, "roll": "-0.0209324043244"}
{"pitch": "0.0103093925864", "lat": 29.7132783, "timestamp": 1603396764.734118, "alt": 12.57, "yaw": "2.18137335777", "lon": -95.4043447, "heading": 124, "speed": 0.05300000309944153, "roll": "-0.0208319779485"}
{"pitch": "0.010440338403", "lat": 29.7132782, "timestamp": 1603396765.236054, "alt": 12.6, "yaw": "2.18112802505", "lon": -95.4043447, "heading": 124, "speed": 0.009000000543892384, "roll": "-0.0209366381168"}
{"pitch": "0.0105278864503", "lat": 29.7132782, "timestamp": 1603396765.737755, "alt": 12.61, "yaw": "2.18086838722", "lon": -95.4043447, "heading": 124, "speed": 0.021000001579523087, "roll": "-0.0210026223212"}
{"pitch": "0.0105037074536", "lat": 29.7132781, "timestamp": 1603396766.2393, "alt": 12.63, "yaw": "2.18065810204", "lon": -95.4043447, "heading": 124, "speed": 0.026000000536441803, "roll": "-0.0210012048483"}
{"pitch": "0.0104731153697", "lat": 29.713278, "timestamp": 1603396766.740409, "alt": 12.66, "yaw": "2.1805024147", "lon": -95.4043447, "heading": 124, "speed": 0.013000000268220901, "roll": "-0.0210622977465"}
{"pitch": "0.0105327796191", "lat": 29.713278, "timestamp": 1603396767.241226, "alt": 12.68, "yaw": "2.18030357361", "lon": -95.4043447, "heading": 124, "speed": 0.006000000052154064, "roll": "-0.0211265683174"}
{"pitch": "0.0105988960713", "lat": 29.713278, "timestamp": 1603396767.744622, "alt": 12.72, "yaw": "2.18003082275", "lon": -95.4043447, "heading": 124, "speed": 0.006000000052154064, "roll": "-0.0212206188589"}
{"pitch": "0.0106992982328", "lat": 29.713278, "timestamp": 1603396768.252416, "alt": 12.74, "yaw": "2.17987370491", "lon": -95.4043447, "heading": 124, "speed": 0.004000000189989805, "roll": "-0.0212795641273"}
{"pitch": "0.0107269026339", "lat": 29.713278, "timestamp": 1603396768.756174, "alt": 12.8, "yaw": "2.17960333824", "lon": -95.4043447, "heading": 124, "speed": 0.046000003814697266, "roll": "-0.0213835500181"}
{"pitch": "0.0107342209667", "lat": 29.713278, "timestamp": 1603396769.258074, "alt": 12.82, "yaw": "2.17949986458", "lon": -95.4043447, "heading": 124, "speed": 0.055000003427267075, "roll": "-0.021429091692"}
{"pitch": "0.0107400324196", "lat": 29.7132781, "timestamp": 1603396769.760629, "alt": 12.85, "yaw": "2.1792948246", "lon": -95.4043447, "heading": 124, "speed": 0.015000000596046448, "roll": "-0.0215173084289"}
{"pitch": "0.0106856096536", "lat": 29.7132781, "timestamp": 1603396770.262855, "alt": 12.88, "yaw": "2.1789484024", "lon": -95.4043448, "heading": 124, "speed": 0.04200000315904617, "roll": "-0.02157330513"}
