{"pitch": "0.00940664112568", "lat": 29.7132786, "timestamp": 1603395657.884075, "alt": 11.04, "yaw": "2.11839675903", "lon": -95.404409, "heading": 121, "speed": 0.020000001415610313, "roll": "-0.00198001158424"}
{"pitch": "0.00940664112568", "lat": 29.7132786, "timestamp": 1603395658.389771, "alt": 11.04, "yaw": "2.11839675903", "lon": -95.404409, "heading": 121, "speed": 0.020000001415610313, "roll": "-0.00198001158424"}
{"pitch": "0.00950068235397", "lat": 29.7132787, "timestamp": 1603395658.891025, "alt": 11.11, "yaw": "2.1196064949", "lon": -95.4044097, "heading": 121, "speed": 0.03200000151991844, "roll": "-0.00206343852915"}
{"pitch": "0.00954441167414", "lat": 29.7132788, "timestamp": 1603395659.394037, "alt": 11.11, "yaw": "2.12016677856", "lon": -95.4044098, "heading": 121, "speed": 0.009000000543892384, "roll": "-0.00202957936563"}
{"pitch": "0.00949378870428", "lat": 29.7132789, "timestamp": 1603395659.896419, "alt": 11.13, "yaw": "2.12088012695", "lon": -95.4044101, "heading": 121, "speed": 0.029000001028180122, "roll": "-0.00222729914822"}
{"pitch": "0.0095722656697", "lat": 29.7132789, "timestamp": 1603395660.397185, "alt": 11.14, "yaw": "2.12151193619", "lon": -95.4044103, "heading": 121, "speed": 0.02500000037252903, "roll": "-0.00228032679297"}
{"pitch": "0.00929081812501", "lat": 29.713279, "timestamp": 1603395660.898302, "alt": 11.15, "yaw": "2.12239027023", "lon": -95.4044105, "heading": 121, "speed": 0.013000000268220901, "roll": "-0.00222448143177"}
{"pitch": "0.00916942022741", "lat": 29.7132791, "timestamp": 1603395661.39954, "alt": 11.17, "yaw": "2.12300300598", "lon": -95.4044106, "heading": 121, "speed": 0.04000000283122063, "roll": "-0.00225977902301"}
{"pitch": "0.00909708626568", "lat": 29.7132793, "timestamp": 1603395661.900997, "alt": 11.17, "yaw": "2.12320899963", "lon": -95.4044108, "heading": 121, "speed": 0.04000000283122063, "roll": "-0.00230727042072"}
{"pitch": "0.00906298868358", "lat": 29.7132795, "timestamp": 1603395662.40246, "alt": 11.15, "yaw": "2.12365722656", "lon": -95.4044109, "heading": 121, "speed": 0.021000001579523087, "roll": "-0.00262991408817"}
{"pitch": "0.00898171775043", "lat": 29.7132796, "timestamp": 1603395662.904981, "alt": 11.15, "yaw": "2.1237783432", "lon": -95.4044109, "heading": 121, "speed": 0.01900000125169754, "roll": "-0.00285963178612"}
{"pitch": "0.00912752561271", "lat": 29.7132797, "timestamp": 1603395663.408327, "alt": 11.14, "yaw": "2.12407207489", "lon": -95.4044111, "heading": 121, "speed": 0.018000001087784767, "roll": "-0.00292342365719"}
{"pitch": "0.00918960757554", "lat": 29.7132798, "timestamp": 1603395663.910325, "alt": 11.16, "yaw": "2.12371730804", "lon": -95.4044113, "heading": 121, "speed": 0.017000000923871994, "roll": "-0.00287662749179"}
{"pitch": "0.00929238088429", "lat": 29.7132798, "timestamp": 1603395664.412422, "alt": 11.18, "yaw": "2.12374544144", "lon": -95.4044114, "heading": 121, "speed": 0.012000000104308128, "roll": "-0.0028055885341"}
{"pitch": "0.0092040989548", "lat": 29.7132798, "timestamp": 1603395664.914802, "alt": 11.19, "yaw": "2.12361192703", "lon": -95.4044116, "heading": 121, "speed": 0.015000000596046448, "roll": "-0.00267496681772"}
{"pitch": "0.00915996916592", "lat": 29.7132798, "timestamp": 1603395665.417227, "alt": 11.23, "yaw": "2.12410736084", "lon": -95.4044118, "heading": 121, "speed": 0.02200000174343586, "roll": "-0.00241580954753"}
{"pitch": "0.00924317166209", "lat": 29.7132797, "timestamp": 1603395665.919107, "alt": 11.3, "yaw": "2.12419915199", "lon": -95.404412, "heading": 121, "speed": 0.05100000277161598, "roll": "-0.00220088870265"}
{"pitch": "0.00936284475029", "lat": 29.7132796, "timestamp": 1603395666.42313, "alt": 11.33, "yaw": "2.12487316132", "lon": -95.4044121, "heading": 121, "speed": 0.018000001087784767, "roll": "-0.00209454190917"}
{"pitch": "0.00941547751427", "lat": 29.7132796, "timestamp": 1603395666.924355, "alt": 11.36, "yaw": "2.12502336502", "lon": -95.4044122, "heading": 121, "speed": 0.039000000804662704, "roll": "-0.00210250238888"}
{"pitch": "0.00935357064009", "lat": 29.7132795, "timestamp": 1603395667.425447, "alt": 11.4, "yaw": "2.12495565414", "lon": -95.4044123, "heading": 121, "speed": 0.026000000536441803, "roll": "-0.00209522829391"}
{"pitch": "0.00923863612115", "lat": 29.7132795, "timestamp": 1603395667.92662, "alt": 11.44, "yaw": "2.1249423027", "lon": -95.4044123, "heading": 121, "speed": 0.012000000104308128, "roll": "-0.00219532917254"}
{"pitch": "0.0091856662184", "lat": 29.7132795, "timestamp": 1603395668.42777, "alt": 11.47, "yaw": "2.12545871735", "lon": -95.4044123, "heading": 121, "speed": 0.01900000125169754, "roll": "-0.0023819853086"}
{"pitch": "0.00902473367751", "lat": 29.7132795, "timestamp": 1603395668.930746, "alt": 11.5, "yaw": "2.12539577484", "lon": -95.4044123, "heading": 121, "speed": 0.03200000151991844, "roll": "-0.00238284212537"}
{"pitch": "0.00894747301936", "lat": 29.7132794, "timestamp": 1603395669.431929, "alt": 11.52, "yaw": "2.125467062", "lon": -95.4044122, "heading": 121, "speed": 0.03100000135600567, "roll": "-0.00236968253739"}
{"pitch": "0.00895495526493", "lat": 29.7132793, "timestamp": 1603395669.933168, "alt": 11.53, "yaw": "2.12538051605", "lon": -95.4044122, "heading": 121, "speed": 0.03100000135600567, "roll": "-0.00235929596238"}
{"pitch": "0.00905030779541", "lat": 29.7132792, "timestamp": 1603395670.435416, "alt": 11.54, "yaw": "2.12568235397", "lon": -95.4044122, "heading": 121, "speed": 0.00800000037997961, "roll": "-0.00233100238256"}
{"pitch": "0.00893312506378", "lat": 29.7132791, "timestamp": 1603395670.936584, "alt": 11.57, "yaw": "2.12576198578", "lon": -95.4044121, "heading": 121, "speed": 0.018000001087784767, "roll": "-0.00255956198089"}
{"pitch": "0.0090311281383", "lat": 29.7132791, "timestamp": 1603395671.437676, "alt": 11.58, "yaw": "2.12609386444", "lon": -95.4044121, "heading": 121, "speed": 0.018000001087784767, "roll": "-0.00270092231221"}
{"pitch": "0.00909366831183", "lat": 29.713279, "timestamp": 1603395671.940371, "alt": 11.61, "yaw": "2.12590074539", "lon": -95.4044119, "heading": 121, "speed": 0.024000000208616257, "roll": "-0.00266508455388"}
{"pitch": "0.00900310650468", "lat": 29.713279, "timestamp": 1603395672.443606, "alt": 11.63, "yaw": "2.12643384933", "lon": -95.4044118, "heading": 121, "speed": 0.01600000075995922, "roll": "-0.00271427049302"}
{"pitch": "0.00910556875169", "lat": 29.713279, "timestamp": 1603395672.947288, "alt": 11.66, "yaw": "2.12636089325", "lon": -95.4044117, "heading": 121, "speed": 0.005000000353902578, "roll": "-0.00270564691164"}
{"pitch": "0.00919763185084", "lat": 29.713279, "timestamp": 1603395673.449471, "alt": 11.69, "yaw": "2.12644195557", "lon": -95.4044116, "heading": 121, "speed": 0.00800000037997961, "roll": "-0.00266519677825"}
{"pitch": "0.00926434621215", "lat": 29.713279, "timestamp": 1603395673.951203, "alt": 11.71, "yaw": "2.12617993355", "lon": -95.4044115, "heading": 121, "speed": 0.02800000086426735, "roll": "-0.0026977758389"}
{"pitch": "0.00944466516376", "lat": 29.713279, "timestamp": 1603395674.453127, "alt": 11.74, "yaw": "2.12611293793", "lon": -95.4044115, "heading": 121, "speed": 0.01900000125169754, "roll": "-0.00268480577506"}
{"pitch": "0.00943632610142", "lat": 29.713279, "timestamp": 1603395674.955094, "alt": 11.77, "yaw": "2.12585163116", "lon": -95.4044114, "heading": 121, "speed": 0.03500000014901161, "roll": "-0.00268696178682"}
{"pitch": "0.00966395623982", "lat": 29.7132791, "timestamp": 1603395675.456196, "alt": 11.79, "yaw": "2.12609815598", "lon": -95.4044114, "heading": 121, "speed": 0.018000001087784767, "roll": "-0.00274182134308"}
{"pitch": "0.00976129621267", "lat": 29.7132791, "timestamp": 1603395675.957457, "alt": 11.81, "yaw": "2.12627887726", "lon": -95.4044113, "heading": 121, "speed": 0.009000000543892384, "roll": "-0.00274959835224"}
{"pitch": "0.00955683551729", "lat": 29.713279, "timestamp": 1603395676.458819, "alt": 11.82, "yaw": "2.12655639648", "lon": -95.4044113, "heading": 121, "speed": 0.02200000174343586, "roll": "-0.00266741705127"}
{"pitch": "0.00970437377691", "lat": 29.713279, "timestamp": 1603395676.963664, "alt": 11.83, "yaw": "2.12676143646", "lon": -95.4044112, "heading": 121, "speed": 0.03700000047683716, "roll": "-0.00268670474179"}
{"pitch": "0.00959714129567", "lat": 29.713279, "timestamp": 1603395677.46503, "alt": 11.84, "yaw": "2.12689065933", "lon": -95.4044112, "heading": 121, "speed": 0.010000000707805157, "roll": "-0.00260394928046"}
{"pitch": "0.00970330089331", "lat": 29.713279, "timestamp": 1603395677.966594, "alt": 11.83, "yaw": "2.12701678276", "lon": -95.4044112, "heading": 121, "speed": 0.027000000700354576, "roll": "-0.00252994312905"}
{"pitch": "0.00970527157187", "lat": 29.7132789, "timestamp": 1603395678.468848, "alt": 11.81, "yaw": "2.12717437744", "lon": -95.4044113, "heading": 121, "speed": 0.01600000075995922, "roll": "-0.00239813816734"}
{"pitch": "0.00980598852038", "lat": 29.7132789, "timestamp": 1603395678.971632, "alt": 11.81, "yaw": "2.12693858147", "lon": -95.4044115, "heading": 121, "speed": 0.009000000543892384, "roll": "-0.00234753149562"}
{"pitch": "0.00998376309872", "lat": 29.7132789, "timestamp": 1603395679.474118, "alt": 11.81, "yaw": "2.12691640854", "lon": -95.4044116, "heading": 121, "speed": 0.015000000596046448, "roll": "-0.00232161139138"}
{"pitch": "0.00985303707421", "lat": 29.7132788, "timestamp": 1603395679.976032, "alt": 11.81, "yaw": "2.12675762177", "lon": -95.4044118, "heading": 121, "speed": 0.00800000037997961, "roll": "-0.00227468716912"}
{"pitch": "0.00990114547312", "lat": 29.7132787, "timestamp": 1603395680.478437, "alt": 11.81, "yaw": "2.12647438049", "lon": -95.404412, "heading": 121, "speed": 0.03200000151991844, "roll": "-0.00214259349741"}
{"pitch": "0.00999060831964", "lat": 29.7132786, "timestamp": 1603395680.980466, "alt": 11.82, "yaw": "2.12607693672", "lon": -95.4044123, "heading": 121, "speed": 0.006000000052154064, "roll": "-0.00208061165176"}
{"pitch": "0.00993434526026", "lat": 29.7132785, "timestamp": 1603395681.482282, "alt": 11.83, "yaw": "2.12598538399", "lon": -95.4044126, "heading": 121, "speed": 0.029000001028180122, "roll": "-0.00212462549098"}
{"pitch": "0.009925249964", "lat": 29.7132784, "timestamp": 1603395681.983777, "alt": 11.83, "yaw": "2.12586641312", "lon": -95.4044129, "heading": 121, "speed": 0.013000000268220901, "roll": "-0.00196065544151"}
{"pitch": "0.00990677624941", "lat": 29.7132783, "timestamp": 1603395682.485131, "alt": 11.83, "yaw": "2.12580776215", "lon": -95.4044132, "heading": 121, "speed": 0.009000000543892384, "roll": "-0.0019879124593"}
{"pitch": "0.0098765976727", "lat": 29.7132783, "timestamp": 1603395682.986268, "alt": 11.8, "yaw": "2.1259098053", "lon": -95.4044135, "heading": 121, "speed": 0.04000000283122063, "roll": "-0.00209247530438"}
{"pitch": "0.0098467245698", "lat": 29.7132783, "timestamp": 1603395683.487967, "alt": 11.76, "yaw": "2.12618947029", "lon": -95.4044138, "heading": 121, "speed": 0.015000000596046448, "roll": "-0.00215215259232"}
{"pitch": "0.00962618365884", "lat": 29.7132783, "timestamp": 1603395683.989426, "alt": 11.74, "yaw": "2.12628698349", "lon": -95.4044141, "heading": 121, "speed": 0.029000001028180122, "roll": "-0.00212496961467"}
{"pitch": "0.00955418311059", "lat": 29.7132782, "timestamp": 1603395684.490754, "alt": 11.71, "yaw": "2.12628746033", "lon": -95.4044145, "heading": 121, "speed": 0.014000000432133675, "roll": "-0.0023322829511"}
{"pitch": "0.00968314707279", "lat": 29.7132782, "timestamp": 1603395684.991923, "alt": 11.7, "yaw": "2.12618970871", "lon": -95.4044148, "heading": 121, "speed": 0.03200000151991844, "roll": "-0.00223246472888"}
{"pitch": "0.0095929838717", "lat": 29.7132781, "timestamp": 1603395685.493179, "alt": 11.68, "yaw": "2.12594866753", "lon": -95.4044151, "heading": 121, "speed": 0.006000000052154064, "roll": "-0.00226296973415"}
{"pitch": "0.00950455293059", "lat": 29.713278, "timestamp": 1603395685.993946, "alt": 11.7, "yaw": "2.1256403923", "lon": -95.4044154, "heading": 121, "speed": 0.0020000000949949026, "roll": "-0.00224632467143"}
{"pitch": "0.00932472757995", "lat": 29.7132778, "timestamp": 1603395686.495155, "alt": 11.71, "yaw": "2.12557983398", "lon": -95.4044156, "heading": 121, "speed": 0.02800000086426735, "roll": "-0.0022468988318"}
{"pitch": "0.00922479107976", "lat": 29.7132777, "timestamp": 1603395686.996629, "alt": 11.71, "yaw": "2.12563323975", "lon": -95.4044158, "heading": 121, "speed": 0.036000002175569534, "roll": "-0.00241593341343"}
{"pitch": "0.00929853133857", "lat": 29.7132776, "timestamp": 1603395687.497824, "alt": 11.72, "yaw": "2.12553882599", "lon": -95.4044161, "heading": 121, "speed": 0.023000001907348633, "roll": "-0.00241751107387"}
{"pitch": "0.00927590206265", "lat": 29.7132776, "timestamp": 1603395687.998988, "alt": 11.72, "yaw": "2.12522411346", "lon": -95.4044163, "heading": 121, "speed": 0.013000000268220901, "roll": "-0.00221007992513"}
{"pitch": "0.00912695936859", "lat": 29.7132775, "timestamp": 1603395688.500253, "alt": 11.74, "yaw": "2.12526702881", "lon": -95.4044166, "heading": 121, "speed": 0.02800000086426735, "roll": "-0.00219220737927"}
{"pitch": "0.00910731591284", "lat": 29.7132775, "timestamp": 1603395689.001387, "alt": 11.74, "yaw": "2.12529110909", "lon": -95.4044168, "heading": 121, "speed": 0.005000000353902578, "roll": "-0.002118881559"}
{"pitch": "0.00898320414126", "lat": 29.7132774, "timestamp": 1603395689.503329, "alt": 11.76, "yaw": "2.1254761219", "lon": -95.4044171, "heading": 121, "speed": 0.03800000250339508, "roll": "-0.00212156563066"}
{"pitch": "0.00891945511103", "lat": 29.7132773, "timestamp": 1603395690.006588, "alt": 11.77, "yaw": "2.12549519539", "lon": -95.4044173, "heading": 121, "speed": 0.04000000283122063, "roll": "-0.00215787091292"}
{"pitch": "0.00883761793375", "lat": 29.7132773, "timestamp": 1603395690.507934, "alt": 11.79, "yaw": "2.12567329407", "lon": -95.4044175, "heading": 121, "speed": 0.01100000087171793, "roll": "-0.00222974061035"}
{"pitch": "0.00884907506406", "lat": 29.7132773, "timestamp": 1603395691.009419, "alt": 11.79, "yaw": "2.12600636482", "lon": -95.4044177, "heading": 121, "speed": 0.04500000178813934, "roll": "-0.00219836388715"}
{"pitch": "0.0089193675667", "lat": 29.7132773, "timestamp": 1603395691.511635, "alt": 11.79, "yaw": "2.12615323067", "lon": -95.4044178, "heading": 121, "speed": 0.026000000536441803, "roll": "-0.00215768651105"}
{"pitch": "0.00900094583631", "lat": 29.7132772, "timestamp": 1603395692.012867, "alt": 11.81, "yaw": "2.1262485981", "lon": -95.404418, "heading": 121, "speed": 0.02800000086426735, "roll": "-0.00215222756378"}
{"pitch": "0.00889035314322", "lat": 29.7132772, "timestamp": 1603395692.514159, "alt": 11.82, "yaw": "2.12638521194", "lon": -95.4044181, "heading": 121, "speed": 0.013000000268220901, "roll": "-0.00215894100256"}
{"pitch": "0.00882237404585", "lat": 29.7132772, "timestamp": 1603395693.01532, "alt": 11.84, "yaw": "2.12642979622", "lon": -95.4044182, "heading": 121, "speed": 0.02200000174343586, "roll": "-0.00212631025352"}
{"pitch": "0.00876610167325", "lat": 29.7132771, "timestamp": 1603395693.516441, "alt": 11.85, "yaw": "2.1263961792", "lon": -95.4044181, "heading": 121, "speed": 0.020000001415610313, "roll": "-0.00224876427092"}
{"pitch": "0.0088340844959", "lat": 29.7132772, "timestamp": 1603395694.017581, "alt": 11.86, "yaw": "2.12630724907", "lon": -95.404418, "heading": 121, "speed": 0.024000000208616257, "roll": "-0.00238848128356"}
{"pitch": "0.00895737484097", "lat": 29.7132773, "timestamp": 1603395694.518779, "alt": 11.86, "yaw": "2.12638521194", "lon": -95.404418, "heading": 121, "speed": 0.01100000087171793, "roll": "-0.00238675135188"}
{"pitch": "0.00892037153244", "lat": 29.7132773, "timestamp": 1603395695.020035, "alt": 11.87, "yaw": "2.1262011528", "lon": -95.4044179, "heading": 121, "speed": 0.005000000353902578, "roll": "-0.0024382697884"}
{"pitch": "0.00896056182683", "lat": 29.7132774, "timestamp": 1603395695.521183, "alt": 11.87, "yaw": "2.12622857094", "lon": -95.4044178, "heading": 121, "speed": 0.014000000432133675, "roll": "-0.00247884145938"}
{"pitch": "0.00892050750554", "lat": 29.7132774, "timestamp": 1603395696.022506, "alt": 11.88, "yaw": "2.12594270706", "lon": -95.4044176, "heading": 121, "speed": 0.015000000596046448, "roll": "-0.00256981956773"}
{"pitch": "0.00881289876997", "lat": 29.7132774, "timestamp": 1603395696.523913, "alt": 11.88, "yaw": "2.12585377693", "lon": -95.4044175, "heading": 121, "speed": 0.017000000923871994, "roll": "-0.00258404784836"}
{"pitch": "0.00872406549752", "lat": 29.7132773, "timestamp": 1603395697.025277, "alt": 11.88, "yaw": "2.12555718422", "lon": -95.4044172, "heading": 121, "speed": 0.026000000536441803, "roll": "-0.00248322519474"}
{"pitch": "0.00890214554965", "lat": 29.7132773, "timestamp": 1603395697.526504, "alt": 11.88, "yaw": "2.12535190582", "lon": -95.4044172, "heading": 121, "speed": 0.013000000268220901, "roll": "-0.00229300488718"}
{"pitch": "0.00894014164805", "lat": 29.7132774, "timestamp": 1603395698.027702, "alt": 11.87, "yaw": "2.12553453445", "lon": -95.4044168, "heading": 121, "speed": 0.01900000125169754, "roll": "-0.00230791396461"}
{"pitch": "0.00899521261454", "lat": 29.7132774, "timestamp": 1603395698.530594, "alt": 11.89, "yaw": "2.12587451935", "lon": -95.4044166, "heading": 121, "speed": 0.018000001087784767, "roll": "-0.002280208515"}
{"pitch": "0.00902601704001", "lat": 29.7132775, "timestamp": 1603395699.033056, "alt": 11.89, "yaw": "2.12561607361", "lon": -95.4044164, "heading": 121, "speed": 0.03100000135600567, "roll": "-0.00229012104683"}
{"pitch": "0.00913813337684", "lat": 29.7132775, "timestamp": 1603395699.534511, "alt": 11.89, "yaw": "2.12533402443", "lon": -95.4044162, "heading": 121, "speed": 0.029000001028180122, "roll": "-0.00225983816199"}
{"pitch": "0.00933541543782", "lat": 29.7132775, "timestamp": 1603395700.035683, "alt": 11.89, "yaw": "2.12516689301", "lon": -95.404416, "heading": 121, "speed": 0.017000000923871994, "roll": "-0.00217584869824"}
{"pitch": "0.009321866557", "lat": 29.7132776, "timestamp": 1603395700.536668, "alt": 11.91, "yaw": "2.12513542175", "lon": -95.4044157, "heading": 121, "speed": 0.02500000037252903, "roll": "-0.00213320902549"}
{"pitch": "0.00922423228621", "lat": 29.7132776, "timestamp": 1603395701.037422, "alt": 11.9, "yaw": "2.1248383522", "lon": -95.4044155, "heading": 121, "speed": 0.017000000923871994, "roll": "-0.00201592850499"}
{"pitch": "0.00930272601545", "lat": 29.7132777, "timestamp": 1603395701.538163, "alt": 11.9, "yaw": "2.12456274033", "lon": -95.4044152, "heading": 121, "speed": 0.015000000596046448, "roll": "-0.00211670598947"}
{"pitch": "0.00927263125777", "lat": 29.7132777, "timestamp": 1603395702.039293, "alt": 11.9, "yaw": "2.12423110008", "lon": -95.4044149, "heading": 121, "speed": 0.021000001579523087, "roll": "-0.00211459654383"}
{"pitch": "0.00926675088704", "lat": 29.7132778, "timestamp": 1603395702.540607, "alt": 11.91, "yaw": "2.12420082092", "lon": -95.4044146, "heading": 121, "speed": 0.030000001192092896, "roll": "-0.00205244380049"}
{"pitch": "0.00932074338198", "lat": 29.7132778, "timestamp": 1603395703.042459, "alt": 11.91, "yaw": "2.1241145134", "lon": -95.4044143, "heading": 121, "speed": 0.027000000700354576, "roll": "-0.00203287578188"}
{"pitch": "0.0092460680753", "lat": 29.7132778, "timestamp": 1603395703.544118, "alt": 11.9, "yaw": "2.12411546707", "lon": -95.4044141, "heading": 121, "speed": 0.018000001087784767, "roll": "-0.00193407596089"}
{"pitch": "0.00935333035886", "lat": 29.7132779, "timestamp": 1603395704.046605, "alt": 11.88, "yaw": "2.12404108047", "lon": -95.4044137, "heading": 121, "speed": 0.03800000250339508, "roll": "-0.00197384110652"}
{"pitch": "0.00931587815285", "lat": 29.713278, "timestamp": 1603395704.552531, "alt": 11.88, "yaw": "2.12389469147", "lon": -95.4044135, "heading": 121, "speed": 0.039000000804662704, "roll": "-0.00197551562451"}
{"pitch": "0.00941367447376", "lat": 29.713278, "timestamp": 1603395705.055677, "alt": 11.88, "yaw": "2.12399053574", "lon": -95.4044133, "heading": 121, "speed": 0.04400000348687172, "roll": "-0.00193886621855"}
{"pitch": "0.00957177951932", "lat": 29.7132781, "timestamp": 1603395705.557919, "alt": 11.88, "yaw": "2.12393736839", "lon": -95.4044132, "heading": 121, "speed": 0.018000001087784767, "roll": "-0.00181620498188"}
{"pitch": "0.00954474322498", "lat": 29.7132781, "timestamp": 1603395706.059928, "alt": 11.88, "yaw": "2.12380051613", "lon": -95.4044131, "heading": 121, "speed": 0.027000000700354576, "roll": "-0.00188392144628"}
{"pitch": "0.00964405573905", "lat": 29.7132782, "timestamp": 1603395706.561047, "alt": 11.88, "yaw": "2.12363004684", "lon": -95.4044131, "heading": 121, "speed": 0.012000000104308128, "roll": "-0.00166820711456"}
{"pitch": "0.00974166952074", "lat": 29.7132782, "timestamp": 1603395707.062211, "alt": 11.88, "yaw": "2.12354135513", "lon": -95.4044131, "heading": 121, "speed": 0.02200000174343586, "roll": "-0.00151156331412"}
{"pitch": "0.00960633158684", "lat": 29.7132782, "timestamp": 1603395707.563181, "alt": 11.88, "yaw": "2.12372374535", "lon": -95.4044131, "heading": 121, "speed": 0.026000000536441803, "roll": "-0.00149232451804"}
{"pitch": "0.00954648293555", "lat": 29.7132782, "timestamp": 1603395708.064323, "alt": 11.89, "yaw": "2.12383365631", "lon": -95.404413, "heading": 121, "speed": 0.01100000087171793, "roll": "-0.00140756112523"}
{"pitch": "0.00968072749674", "lat": 29.7132782, "timestamp": 1603395708.568672, "alt": 11.88, "yaw": "2.12381315231", "lon": -95.404413, "heading": 121, "speed": 0.03100000135600567, "roll": "-0.0014144515153"}
{"pitch": "0.009775551036", "lat": 29.7132782, "timestamp": 1603395709.070535, "alt": 11.87, "yaw": "2.12371826172", "lon": -95.404413, "heading": 121, "speed": 0.01600000075995922, "roll": "-0.00146844307892"}
{"pitch": "0.00962971709669", "lat": 29.7132782, "timestamp": 1603395709.572009, "alt": 11.85, "yaw": "2.12385749817", "lon": -95.404413, "heading": 121, "speed": 0.023000001907348633, "roll": "-0.00154998921789"}
{"pitch": "0.00977450050414", "lat": 29.7132783, "timestamp": 1603395710.073172, "alt": 11.83, "yaw": "2.12369561195", "lon": -95.404413, "heading": 121, "speed": 0.014000000432133675, "roll": "-0.00172703969292"}
{"pitch": "0.00980292633176", "lat": 29.7132783, "timestamp": 1603395710.574392, "alt": 11.8, "yaw": "2.12368440628", "lon": -95.4044131, "heading": 121, "speed": 0.018000001087784767, "roll": "-0.00182017101906"}
{"pitch": "0.00981806963682", "lat": 29.7132783, "timestamp": 1603395711.075795, "alt": 11.79, "yaw": "2.12355470657", "lon": -95.4044131, "heading": 121, "speed": 0.02500000037252903, "roll": "-0.00195026933216"}
{"pitch": "0.00985332019627", "lat": 29.7132784, "timestamp": 1603395711.577033, "alt": 11.78, "yaw": "2.12342357635", "lon": -95.4044133, "heading": 121, "speed": 0.023000001907348633, "roll": "-0.00193506316282"}
{"pitch": "0.00973583199084", "lat": 29.7132784, "timestamp": 1603395712.078298, "alt": 11.78, "yaw": "2.12342882156", "lon": -95.4044135, "heading": 121, "speed": 0.03400000184774399, "roll": "-0.00193178723566"}
{"pitch": "0.00959533639252", "lat": 29.7132784, "timestamp": 1603395712.579497, "alt": 11.79, "yaw": "2.12354421616", "lon": -95.4044136, "heading": 121, "speed": 0.00800000037997961, "roll": "-0.00191792869009"}
{"pitch": "0.00950949825346", "lat": 29.7132784, "timestamp": 1603395713.080657, "alt": 11.8, "yaw": "2.1233830452", "lon": -95.4044137, "heading": 121, "speed": 0.023000001907348633, "roll": "-0.00186615879647"}
{"pitch": "0.00962562114", "lat": 29.7132785, "timestamp": 1603395713.585076, "alt": 11.79, "yaw": "2.1233792305", "lon": -95.4044138, "heading": 121, "speed": 0.02200000174343586, "roll": "-0.00196672580205"}
{"pitch": "0.00977005809546", "lat": 29.7132786, "timestamp": 1603395714.08623, "alt": 11.78, "yaw": "2.12336826324", "lon": -95.4044139, "heading": 121, "speed": 0.04100000113248825, "roll": "-0.00210584304295"}
{"pitch": "0.00971029698849", "lat": 29.7132787, "timestamp": 1603395714.587336, "alt": 11.77, "yaw": "2.12326145172", "lon": -95.404414, "heading": 121, "speed": 0.06300000101327896, "roll": "-0.00207038572989"}
{"pitch": "0.00988812558353", "lat": 29.713279, "timestamp": 1603395715.088517, "alt": 11.76, "yaw": "2.12298059464", "lon": -95.4044142, "heading": 121, "speed": 0.03100000135600567, "roll": "-0.00226144888438"}
{"pitch": "0.00991260819137", "lat": 29.7132793, "timestamp": 1603395715.589787, "alt": 11.75, "yaw": "2.12275314331", "lon": -95.4044142, "heading": 121, "speed": 0.017000000923871994, "roll": "-0.00235653319396"}
{"pitch": "0.0098032373935", "lat": 29.7132795, "timestamp": 1603395716.091386, "alt": 11.75, "yaw": "2.12262964249", "lon": -95.4044143, "heading": 121, "speed": 0.00800000037997961, "roll": "-0.00229058158584"}
{"pitch": "0.00971353426576", "lat": 29.7132796, "timestamp": 1603395716.592568, "alt": 11.75, "yaw": "2.12279891968", "lon": -95.4044143, "heading": 121, "speed": 0.01600000075995922, "roll": "-0.00226959609427"}
{"pitch": "0.00965128652751", "lat": 29.7132799, "timestamp": 1603395717.093828, "alt": 11.74, "yaw": "2.12280797958", "lon": -95.4044143, "heading": 121, "speed": 0.04100000113248825, "roll": "-0.00225224881433"}
{"pitch": "0.00921370089054", "lat": 29.7132801, "timestamp": 1603395717.595265, "alt": 11.74, "yaw": "2.1232073307", "lon": -95.4044143, "heading": 121, "speed": 0.026000000536441803, "roll": "-0.00238844961859"}
{"pitch": "0.00930115953088", "lat": 29.7132803, "timestamp": 1603395718.097445, "alt": 11.74, "yaw": "2.1231970787", "lon": -95.4044142, "heading": 121, "speed": 0.00800000037997961, "roll": "-0.00231308606453"}
{"pitch": "0.0091917514801", "lat": 29.7132805, "timestamp": 1603395718.599535, "alt": 11.74, "yaw": "2.12326049805", "lon": -95.4044142, "heading": 121, "speed": 0.030000001192092896, "roll": "-0.00239583314396"}
{"pitch": "0.00935040414333", "lat": 29.7132807, "timestamp": 1603395719.101549, "alt": 11.75, "yaw": "2.12295389175", "lon": -95.4044142, "heading": 121, "speed": 0.012000000104308128, "roll": "-0.00237830239348"}
{"pitch": "0.00910273380578", "lat": 29.7132809, "timestamp": 1603395719.603272, "alt": 11.78, "yaw": "2.12307548523", "lon": -95.4044141, "heading": 121, "speed": 0.03400000184774399, "roll": "-0.00232161046006"}
{"pitch": "0.0090479273349", "lat": 29.7132811, "timestamp": 1603395720.105435, "alt": 11.8, "yaw": "2.12300086021", "lon": -95.4044141, "heading": 121, "speed": 0.023000001907348633, "roll": "-0.00235049263574"}
{"pitch": "0.00907564722002", "lat": 29.7132814, "timestamp": 1603395720.607137, "alt": 11.83, "yaw": "2.12282371521", "lon": -95.404414, "heading": 121, "speed": 0.024000000208616257, "roll": "-0.00227516633458"}
{"pitch": "0.0090559553355", "lat": 29.7132816, "timestamp": 1603395721.108345, "alt": 11.85, "yaw": "2.12297081947", "lon": -95.4044139, "heading": 121, "speed": 0.007000000216066837, "roll": "-0.00209900247864"}
{"pitch": "0.00900136865675", "lat": 29.7132818, "timestamp": 1603395721.60969, "alt": 11.86, "yaw": "2.12323665619", "lon": -95.4044139, "heading": 121, "speed": 0.02800000086426735, "roll": "-0.0020351682324"}
{"pitch": "0.00892606750131", "lat": 29.7132819, "timestamp": 1603395722.110822, "alt": 11.87, "yaw": "2.123265028", "lon": -95.4044139, "heading": 121, "speed": 0.010000000707805157, "roll": "-0.00193736352958"}
{"pitch": "0.00892907381058", "lat": 29.7132821, "timestamp": 1603395722.612039, "alt": 11.88, "yaw": "2.12324237823", "lon": -95.404414, "heading": 121, "speed": 0.018000001087784767, "roll": "-0.00178664666601"}
{"pitch": "0.0089126303792", "lat": 29.7132822, "timestamp": 1603395723.113263, "alt": 11.91, "yaw": "2.12304210663", "lon": -95.404414, "heading": 121, "speed": 0.032999999821186066, "roll": "-0.00162318139337"}
{"pitch": "0.00880208797753", "lat": 29.7132822, "timestamp": 1603395723.627634, "alt": 11.91, "yaw": "2.12326145172", "lon": -95.404414, "heading": 121, "speed": 0.03200000151991844, "roll": "-0.0013780973386"}
{"pitch": "0.00880309194326", "lat": 29.7132823, "timestamp": 1603395724.128855, "alt": 11.92, "yaw": "2.12329721451", "lon": -95.404414, "heading": 121, "speed": 0.030000001192092896, "roll": "-0.00130713521503"}
{"pitch": "0.00879167579114", "lat": 29.7132823, "timestamp": 1603395724.630444, "alt": 11.93, "yaw": "2.12313890457", "lon": -95.4044141, "heading": 121, "speed": 0.021000001579523087, "roll": "-0.00118966097943"}
{"pitch": "0.00893050990999", "lat": 29.7132824, "timestamp": 1603395725.131795, "alt": 11.94, "yaw": "2.12311077118", "lon": -95.4044142, "heading": 121, "speed": 0.024000000208616257, "roll": "-0.00116395601071"}
{"pitch": "0.00903528369963", "lat": 29.7132824, "timestamp": 1603395725.634554, "alt": 11.94, "yaw": "2.123046875", "lon": -95.4044143, "heading": 121, "speed": 0.030000001192092896, "roll": "-0.000890827970579"}
{"pitch": "0.00921208970249", "lat": 29.7132824, "timestamp": 1603395726.136941, "alt": 11.94, "yaw": "2.12299561501", "lon": -95.4044144, "heading": 121, "speed": 0.017000000923871994, "roll": "-0.000748024554923"}
{"pitch": "0.00943052954972", "lat": 29.7132824, "timestamp": 1603395726.638553, "alt": 11.94, "yaw": "2.1231751442", "lon": -95.4044145, "heading": 121, "speed": 0.029000001028180122, "roll": "-0.000782342860475"}
{"pitch": "0.00949735380709", "lat": 29.7132823, "timestamp": 1603395727.140601, "alt": 11.94, "yaw": "2.12314462662", "lon": -95.4044146, "heading": 121, "speed": 0.018000001087784767, "roll": "-0.000875801080838"}
{"pitch": "0.00951428897679", "lat": 29.7132823, "timestamp": 1603395727.642512, "alt": 11.94, "yaw": "2.12290501595", "lon": -95.4044147, "heading": 121, "speed": 0.02500000037252903, "roll": "-0.00100515992381"}
{"pitch": "0.00958661921322", "lat": 29.7132823, "timestamp": 1603395728.144415, "alt": 11.96, "yaw": "2.1227555275", "lon": -95.4044149, "heading": 121, "speed": 0.005000000353902578, "roll": "-0.001039335737"}
{"pitch": "0.00963338091969", "lat": 29.7132822, "timestamp": 1603395728.653145, "alt": 11.98, "yaw": "2.12267684937", "lon": -95.4044151, "heading": 121, "speed": 0.00800000037997961, "roll": "-0.00104963057674"}
{"pitch": "0.0097434706986", "lat": 29.7132822, "timestamp": 1603395729.155559, "alt": 12.0, "yaw": "2.1226234436", "lon": -95.4044153, "heading": 121, "speed": 0.020000001415610313, "roll": "-0.00124150025658"}
{"pitch": "0.00962008908391", "lat": 29.7132821, "timestamp": 1603395729.65709, "alt": 12.02, "yaw": "2.12266254425", "lon": -95.4044155, "heading": 121, "speed": 0.006000000052154064, "roll": "-0.00129444641061"}
{"pitch": "0.00973051227629", "lat": 29.7132821, "timestamp": 1603395730.157906, "alt": 12.03, "yaw": "2.12256765366", "lon": -95.4044156, "heading": 121, "speed": 0.03100000135600567, "roll": "-0.00133630563505"}
{"pitch": "0.009535767138", "lat": 29.713282, "timestamp": 1603395730.658809, "alt": 12.04, "yaw": "2.12260532379", "lon": -95.4044157, "heading": 121, "speed": 0.032999999821186066, "roll": "-0.00143656996079"}
{"pitch": "0.0095758959651", "lat": 29.7132819, "timestamp": 1603395731.15982, "alt": 12.06, "yaw": "2.12259411812", "lon": -95.4044159, "heading": 121, "speed": 0.015000000596046448, "roll": "-0.00166397052817"}
{"pitch": "0.00964395329356", "lat": 29.7132818, "timestamp": 1603395731.661798, "alt": 12.06, "yaw": "2.12279105186", "lon": -95.4044159, "heading": 121, "speed": 0.009000000543892384, "roll": "-0.00175503431819"}
{"pitch": "0.00943549536169", "lat": 29.7132817, "timestamp": 1603395732.164405, "alt": 12.06, "yaw": "2.12275099754", "lon": -95.404416, "heading": 121, "speed": 0.014000000432133675, "roll": "-0.00190285150893"}
{"pitch": "0.0094803571701", "lat": 29.7132816, "timestamp": 1603395732.666469, "alt": 12.05, "yaw": "2.12267589569", "lon": -95.4044161, "heading": 121, "speed": 0.009000000543892384, "roll": "-0.00191868632101"}
{"pitch": "0.0096229724586", "lat": 29.7132816, "timestamp": 1603395733.168327, "alt": 12.05, "yaw": "2.12263441086", "lon": -95.4044162, "heading": 121, "speed": 0.01600000075995922, "roll": "-0.00189294829033"}
{"pitch": "0.0095335599035", "lat": 29.7132816, "timestamp": 1603395733.670307, "alt": 12.05, "yaw": "2.12276601791", "lon": -95.4044164, "heading": 121, "speed": 0.030000001192092896, "roll": "-0.00192676694132"}
{"pitch": "0.00960858352482", "lat": 29.7132817, "timestamp": 1603395734.172087, "alt": 12.04, "yaw": "2.12287282944", "lon": -95.4044166, "heading": 121, "speed": 0.012000000104308128, "roll": "-0.00196728412993"}
{"pitch": "0.00975746847689", "lat": 29.7132817, "timestamp": 1603395734.674136, "alt": 12.02, "yaw": "2.12294960022", "lon": -95.4044168, "heading": 121, "speed": 0.032999999821186066, "roll": "-0.00198034080677"}
{"pitch": "0.00970231741667", "lat": 29.7132818, "timestamp": 1603395735.176193, "alt": 12.01, "yaw": "2.12277698517", "lon": -95.4044171, "heading": 121, "speed": 0.027000000700354576, "roll": "-0.00206383760087"}
{"pitch": "0.0097022857517", "lat": 29.7132818, "timestamp": 1603395735.678152, "alt": 12.0, "yaw": "2.12267589569", "lon": -95.4044173, "heading": 121, "speed": 0.046000003814697266, "roll": "-0.0019222276751"}
{"pitch": "0.0097023807466", "lat": 29.7132818, "timestamp": 1603395736.179523, "alt": 11.99, "yaw": "2.12270617485", "lon": -95.4044174, "heading": 121, "speed": 0.017000000923871994, "roll": "-0.0019284572918"}
{"pitch": "0.00967909395695", "lat": 29.7132818, "timestamp": 1603395736.680772, "alt": 11.99, "yaw": "2.12273836136", "lon": -95.4044175, "heading": 121, "speed": 0.01600000075995922, "roll": "-0.00206955033354"}
{"pitch": "0.0095746088773", "lat": 29.7132817, "timestamp": 1603395737.182093, "alt": 11.98, "yaw": "2.12264990807", "lon": -95.4044176, "heading": 121, "speed": 0.027000000700354576, "roll": "-0.00215334235691"}
{"pitch": "0.00939144939184", "lat": 29.7132816, "timestamp": 1603395737.6833, "alt": 11.97, "yaw": "2.12260580063", "lon": -95.4044176, "heading": 121, "speed": 0.02800000086426735, "roll": "-0.00221353047527"}
{"pitch": "0.00942822918296", "lat": 29.7132816, "timestamp": 1603395738.184449, "alt": 11.96, "yaw": "2.12263870239", "lon": -95.4044176, "heading": 121, "speed": 0.04400000348687172, "roll": "-0.00239349040203"}
{"pitch": "0.00941329076886", "lat": 29.7132816, "timestamp": 1603395738.689292, "alt": 11.95, "yaw": "2.12269163132", "lon": -95.4044177, "heading": 121, "speed": 0.003000000026077032, "roll": "-0.0024527173955"}
{"pitch": "0.00952439010143", "lat": 29.7132816, "timestamp": 1603395739.190408, "alt": 11.95, "yaw": "2.12273335457", "lon": -95.4044178, "heading": 121, "speed": 0.039000000804662704, "roll": "-0.00229894299991"}
{"pitch": "0.00960867851973", "lat": 29.7132815, "timestamp": 1603395739.691187, "alt": 11.95, "yaw": "2.12288689613", "lon": -95.4044179, "heading": 121, "speed": 0.00800000037997961, "roll": "-0.00215882644989"}
{"pitch": "0.00966823473573", "lat": 29.7132815, "timestamp": 1603395740.192286, "alt": 11.97, "yaw": "2.12269687653", "lon": -95.404418, "heading": 121, "speed": 0.012000000104308128, "roll": "-0.00206861668266"}
{"pitch": "0.00961791165173", "lat": 29.7132815, "timestamp": 1603395740.693433, "alt": 11.97, "yaw": "2.12274861336", "lon": -95.4044181, "heading": 121, "speed": 0.03100000135600567, "roll": "-0.00211634929292"}
{"pitch": "0.00967587716877", "lat": 29.7132815, "timestamp": 1603395741.194549, "alt": 11.97, "yaw": "2.12276363373", "lon": -95.4044182, "heading": 121, "speed": 0.013000000268220901, "roll": "-0.00214725756086"}
{"pitch": "0.00971392169595", "lat": 29.7132815, "timestamp": 1603395741.695894, "alt": 11.97, "yaw": "2.12271738052", "lon": -95.4044183, "heading": 121, "speed": 0.02500000037252903, "roll": "-0.00205180398189"}
{"pitch": "0.00975983776152", "lat": 29.7132814, "timestamp": 1603395742.197412, "alt": 11.98, "yaw": "2.12278413773", "lon": -95.4044185, "heading": 121, "speed": 0.01100000087171793, "roll": "-0.00179926562123"}
{"pitch": "0.00984562188387", "lat": 29.7132813, "timestamp": 1603395742.698621, "alt": 11.98, "yaw": "2.12286186218", "lon": -95.4044186, "heading": 121, "speed": 0.026000000536441803, "roll": "-0.00165356765501"}
{"pitch": "0.00968882255256", "lat": 29.7132812, "timestamp": 1603395743.19979, "alt": 11.99, "yaw": "2.12279200554", "lon": -95.4044187, "heading": 121, "speed": 0.012000000104308128, "roll": "-0.00159923848696"}
{"pitch": "0.00981218181551", "lat": 29.7132812, "timestamp": 1603395743.705433, "alt": 11.99, "yaw": "2.12299108505", "lon": -95.4044188, "heading": 121, "speed": 0.03400000184774399, "roll": "-0.00172776426189"}
{"pitch": "0.00978823006153", "lat": 29.7132812, "timestamp": 1603395744.206417, "alt": 11.99, "yaw": "2.12306690216", "lon": -95.4044188, "heading": 121, "speed": 0.014000000432133675, "roll": "-0.00200255098753"}
{"pitch": "0.00970285199583", "lat": 29.7132811, "timestamp": 1603395744.707792, "alt": 11.98, "yaw": "2.12317872047", "lon": -95.4044188, "heading": 121, "speed": 0.020000001415610313, "roll": "-0.00219014217146"}
{"pitch": "0.00963480584323", "lat": 29.713281, "timestamp": 1603395745.208956, "alt": 11.96, "yaw": "2.12313508987", "lon": -95.4044188, "heading": 121, "speed": 0.020000001415610313, "roll": "-0.0021592087578"}
{"pitch": "0.00979064777493", "lat": 29.7132809, "timestamp": 1603395745.710071, "alt": 11.94, "yaw": "2.12314772606", "lon": -95.4044188, "heading": 121, "speed": 0.03800000250339508, "roll": "-0.00231808214448"}
{"pitch": "0.00969436764717", "lat": 29.7132809, "timestamp": 1603395746.211234, "alt": 11.92, "yaw": "2.12299251556", "lon": -95.4044186, "heading": 121, "speed": 0.014000000432133675, "roll": "-0.00250494037755"}
{"pitch": "0.00959089957178", "lat": 29.7132808, "timestamp": 1603395746.71187, "alt": 11.89, "yaw": "2.12286090851", "lon": -95.4044185, "heading": 121, "speed": 0.010000000707805157, "roll": "-0.00252631516196"}
{"pitch": "0.00957218557596", "lat": 29.7132808, "timestamp": 1603395747.21303, "alt": 11.88, "yaw": "2.1229019165", "lon": -95.4044185, "heading": 121, "speed": 0.03100000135600567, "roll": "-0.00247781840153"}
{"pitch": "0.00953592918813", "lat": 29.7132807, "timestamp": 1603395747.714133, "alt": 11.87, "yaw": "2.12286281586", "lon": -95.4044184, "heading": 121, "speed": 0.00800000037997961, "roll": "-0.00256157130934"}
{"pitch": "0.00948542356491", "lat": 29.7132805, "timestamp": 1603395748.215294, "alt": 11.87, "yaw": "2.12280106544", "lon": -95.4044183, "heading": 121, "speed": 0.003000000026077032, "roll": "-0.00252512726001"}
{"pitch": "0.00950683280826", "lat": 29.7132804, "timestamp": 1603395748.720117, "alt": 11.87, "yaw": "2.12285327911", "lon": -95.4044181, "heading": 121, "speed": 0.029000001028180122, "roll": "-0.00254533416592"}
{"pitch": "0.00968602858484", "lat": 29.7132802, "timestamp": 1603395749.221274, "alt": 11.87, "yaw": "2.1226477623", "lon": -95.404418, "heading": 121, "speed": 0.014000000432133675, "roll": "-0.00271420530044"}
{"pitch": "0.00975170359015", "lat": 29.7132801, "timestamp": 1603395749.722782, "alt": 11.88, "yaw": "2.12278985977", "lon": -95.4044179, "heading": 121, "speed": 0.02800000086426735, "roll": "-0.00274628982879"}
{"pitch": "0.00997919589281", "lat": 29.71328, "timestamp": 1603395750.224684, "alt": 11.88, "yaw": "2.12274074554", "lon": -95.4044178, "heading": 121, "speed": 0.007000000216066837, "roll": "-0.00290603307076"}
{"pitch": "0.0100340172648", "lat": 29.7132799, "timestamp": 1603395750.726137, "alt": 11.89, "yaw": "2.1227145195", "lon": -95.4044176, "heading": 121, "speed": 0.014000000432133675, "roll": "-0.00296599720605"}
{"pitch": "0.0100917313248", "lat": 29.7132798, "timestamp": 1603395751.227542, "alt": 11.89, "yaw": "2.12258338928", "lon": -95.4044176, "heading": 121, "speed": 0.013000000268220901, "roll": "-0.00298105995171"}
{"pitch": "0.0101504251361", "lat": 29.7132798, "timestamp": 1603395751.729105, "alt": 11.89, "yaw": "2.12244939804", "lon": -95.4044175, "heading": 121, "speed": 0.006000000052154064, "roll": "-0.00309685128741"}
{"pitch": "0.0100403912365", "lat": 29.7132798, "timestamp": 1603395752.230093, "alt": 11.9, "yaw": "2.12217712402", "lon": -95.4044174, "heading": 121, "speed": 0.01600000075995922, "roll": "-0.00309246568941"}
{"pitch": "0.00999570637941", "lat": 29.7132797, "timestamp": 1603395752.731238, "alt": 11.91, "yaw": "2.12212657928", "lon": -95.4044172, "heading": 121, "speed": 0.04100000113248825, "roll": "-0.00287891062908"}
{"pitch": "0.00993658415973", "lat": 29.7132796, "timestamp": 1603395753.232236, "alt": 11.91, "yaw": "2.12195444107", "lon": -95.4044171, "heading": 121, "speed": 0.03800000250339508, "roll": "-0.00265888194554"}
{"pitch": "0.00982735864818", "lat": 29.7132795, "timestamp": 1603395753.743787, "alt": 11.91, "yaw": "2.12181329727", "lon": -95.4044169, "heading": 121, "speed": 0.02800000086426735, "roll": "-0.0028295039665"}
{"pitch": "0.00979186780751", "lat": 29.7132795, "timestamp": 1603395754.245096, "alt": 11.9, "yaw": "2.12173700333", "lon": -95.4044169, "heading": 121, "speed": 0.015000000596046448, "roll": "-0.00281420652755"}
{"pitch": "0.00975784286857", "lat": 29.7132796, "timestamp": 1603395754.746199, "alt": 11.89, "yaw": "2.12170004845", "lon": -95.4044169, "heading": 121, "speed": 0.024000000208616257, "roll": "-0.00287358392961"}
{"pitch": "0.00968956388533", "lat": 29.7132796, "timestamp": 1603395755.247296, "alt": 11.9, "yaw": "2.12169289589", "lon": -95.4044168, "heading": 121, "speed": 0.012000000104308128, "roll": "-0.00305222836323"}
{"pitch": "0.0095987804234", "lat": 29.7132796, "timestamp": 1603395755.748495, "alt": 11.89, "yaw": "2.12158799171", "lon": -95.4044168, "heading": 121, "speed": 0.013000000268220901, "roll": "-0.0030663383659"}
{"pitch": "0.00976942293346", "lat": 29.7132796, "timestamp": 1603395756.24984, "alt": 11.89, "yaw": "2.12139701843", "lon": -95.4044168, "heading": 121, "speed": 0.014000000432133675, "roll": "-0.00296717206948"}
{"pitch": "0.00973394885659", "lat": 29.7132797, "timestamp": 1603395756.751196, "alt": 11.88, "yaw": "2.12111091614", "lon": -95.4044167, "heading": 121, "speed": 0.003000000026077032, "roll": "-0.00286787492223"}
{"pitch": "0.00971608236432", "lat": 29.7132797, "timestamp": 1603395756.85711, "alt": 11.87, "yaw": "2.12099480629", "lon": -95.4044167, "heading": 121, "speed": 0.01600000075995922, "roll": "-0.00294134183787"}
{"pitch": "0.00968900322914", "lat": 29.7132797, "timestamp": 1603395757.252301, "alt": 11.87, "yaw": "2.12083482742", "lon": -95.4044167, "heading": 121, "speed": 0.020000001415610313, "roll": "-0.00299073499627"}
{"pitch": "0.00968900322914", "lat": 29.7132797, "timestamp": 1603395757.358912, "alt": 11.87, "yaw": "2.12083482742", "lon": -95.4044167, "heading": 121, "speed": 0.020000001415610313, "roll": "-0.00299073499627"}
{"pitch": "0.0095653552562", "lat": 29.7132797, "timestamp": 1603395757.753397, "alt": 11.87, "yaw": "2.12055778503", "lon": -95.4044165, "heading": 121, "speed": 0.004000000189989805, "roll": "-0.00285564479418"}
{"pitch": "0.0095653552562", "lat": 29.7132797, "timestamp": 1603395757.860664, "alt": 11.87, "yaw": "2.12055778503", "lon": -95.4044165, "heading": 121, "speed": 0.004000000189989805, "roll": "-0.00285564479418"}
{"pitch": "0.00950670056045", "lat": 29.7132797, "timestamp": 1603395758.254571, "alt": 11.89, "yaw": "2.12041783333", "lon": -95.4044164, "heading": 121, "speed": 0.01600000075995922, "roll": "-0.00272196461447"}
{"pitch": "0.00950670056045", "lat": 29.7132797, "timestamp": 1603395758.361988, "alt": 11.89, "yaw": "2.12041783333", "lon": -95.4044164, "heading": 121, "speed": 0.006000000052154064, "roll": "-0.00272196461447"}
{"pitch": "0.00944443047047", "lat": 29.7132797, "timestamp": 1603395758.761598, "alt": 11.92, "yaw": "2.12045168877", "lon": -95.4044163, "heading": 121, "speed": 0.015000000596046448, "roll": "-0.00265520322137"}
{"pitch": "0.00950815528631", "lat": 29.7132797, "timestamp": 1603395758.863242, "alt": 11.92, "yaw": "2.12045049667", "lon": -95.4044163, "heading": 121, "speed": 0.015000000596046448, "roll": "-0.00265344628133"}
{"pitch": "0.00964986905456", "lat": 29.7132798, "timestamp": 1603395759.262826, "alt": 11.92, "yaw": "2.12043762207", "lon": -95.4044163, "heading": 121, "speed": 0.03200000151991844, "roll": "-0.00269367848523"}
{"pitch": "0.00967182219028", "lat": 29.7132798, "timestamp": 1603395759.36455, "alt": 11.93, "yaw": "2.1203660965", "lon": -95.4044162, "heading": 121, "speed": 0.03200000151991844, "roll": "-0.00250287097879"}
{"pitch": "0.00976342149079", "lat": 29.7132797, "timestamp": 1603395759.763517, "alt": 11.94, "yaw": "2.11975383759", "lon": -95.4044162, "heading": 121, "speed": 0.026000000536441803, "roll": "-0.00242047919892"}
{"pitch": "0.00976342149079", "lat": 29.7132797, "timestamp": 1603395759.865738, "alt": 11.94, "yaw": "2.11975383759", "lon": -95.4044162, "heading": 121, "speed": 0.026000000536441803, "roll": "-0.00242047919892"}
{"pitch": "0.00384368142113", "lat": 29.7132797, "timestamp": 1603395760.265065, "alt": 11.95, "yaw": "2.0939040184", "lon": -95.4044162, "heading": 117, "speed": 0.058000002056360245, "roll": "0.00756500568241"}
{"pitch": "0.00384368142113", "lat": 29.7132796, "timestamp": 1603395760.366974, "alt": 12.05, "yaw": "2.0939040184", "lon": -95.4044162, "heading": 117, "speed": 0.058000002056360245, "roll": "0.00756500568241"}
{"pitch": "-0.0141855906695", "lat": 29.7132795, "timestamp": 1603395760.766074, "alt": 12.27, "yaw": "1.92079412937", "lon": -95.4044162, "heading": 108, "speed": 0.2150000035762787, "roll": "-0.0106251398101"}
{"pitch": "-0.0141855906695", "lat": 29.7132796, "timestamp": 1603395760.868088, "alt": 12.53, "yaw": "1.92079412937", "lon": -95.4044162, "heading": 108, "speed": 0.2150000035762787, "roll": "-0.0106251398101"}
{"pitch": "0.0107847433537", "lat": 29.7132798, "timestamp": 1603395761.267254, "alt": 12.85, "yaw": "1.85895979404", "lon": -95.4044158, "heading": 106, "speed": 0.11400000751018524, "roll": "0.00445044506341"}
{"pitch": "0.0107847433537", "lat": 29.7132798, "timestamp": 1603395761.369279, "alt": 12.85, "yaw": "1.85895979404", "lon": -95.4044158, "heading": 106, "speed": 0.04200000315904617, "roll": "0.00445044506341"}
{"pitch": "0.0163377486169", "lat": 29.7132799, "timestamp": 1603395761.768339, "alt": 13.65, "yaw": "1.86820852757", "lon": -95.4044153, "heading": 107, "speed": 0.18200001120567322, "roll": "-0.00426079332829"}
{"pitch": "0.0213592480868", "lat": 29.7132799, "timestamp": 1603395761.871203, "alt": 13.65, "yaw": "1.88376295567", "lon": -95.4044153, "heading": 107, "speed": 0.18200001120567322, "roll": "-0.019895689562"}
{"pitch": "0.0137609094381", "lat": 29.7132801, "timestamp": 1603395762.270546, "alt": 14.6, "yaw": "1.89950180054", "lon": -95.4044152, "heading": 109, "speed": 0.036000002175569534, "roll": "-0.0292319208384"}
{"pitch": "0.00386355025694", "lat": 29.7132801, "timestamp": 1603395762.373525, "alt": 14.6, "yaw": "1.91828501225", "lon": -95.4044152, "heading": 109, "speed": 0.036000002175569534, "roll": "-0.00917528197169"}
{"pitch": "0.0117259528488", "lat": 29.7132807, "timestamp": 1603395762.77249, "alt": 15.68, "yaw": "1.90579235554", "lon": -95.4044153, "heading": 109, "speed": 0.27000001072883606, "roll": "0.0100924065337"}
{"pitch": "0.0123600624502", "lat": 29.7132807, "timestamp": 1603395762.875264, "alt": 15.68, "yaw": "1.91011893749", "lon": -95.4044153, "heading": 109, "speed": 0.1680000126361847, "roll": "0.0271719694138"}
{"pitch": "0.00767751177773", "lat": 29.7132808, "timestamp": 1603395763.274595, "alt": 16.19, "yaw": "1.91478645802", "lon": -95.4044154, "heading": 109, "speed": 0.15700000524520874, "roll": "0.0310542341322"}
{"pitch": "0.00767751177773", "lat": 29.7132807, "timestamp": 1603395763.377036, "alt": 16.75, "yaw": "1.91478645802", "lon": -95.4044157, "heading": 109, "speed": 0.2070000171661377, "roll": "0.0310542341322"}
{"pitch": "-0.0131118949503", "lat": 29.7132805, "timestamp": 1603395763.798261, "alt": 17.31, "yaw": "1.91052687168", "lon": -95.404416, "heading": 109, "speed": 0.04800000041723251, "roll": "-0.00642113387585"}
{"pitch": "-0.0131118949503", "lat": 29.7132804, "timestamp": 1603395763.878772, "alt": 17.83, "yaw": "1.91052687168", "lon": -95.4044162, "heading": 109, "speed": 0.04800000041723251, "roll": "-0.00642113387585"}
{"pitch": "0.00840507261455", "lat": 29.7132803, "timestamp": 1603395764.300344, "alt": 18.37, "yaw": "1.94460201263", "lon": -95.4044162, "heading": 111, "speed": 0.18900001049041748, "roll": "-0.0113869886845"}
{"pitch": "0.00840507261455", "lat": 29.7132802, "timestamp": 1603395764.380528, "alt": 18.93, "yaw": "1.94460201263", "lon": -95.4044162, "heading": 111, "speed": 0.18900001049041748, "roll": "-0.0113869886845"}
{"pitch": "0.00450107315555", "lat": 29.7132802, "timestamp": 1603395764.802946, "alt": 19.5, "yaw": "1.95391714573", "lon": -95.4044162, "heading": 111, "speed": 0.05900000408291817, "roll": "-4.3019419536e-05"}
{"pitch": "0.00450107315555", "lat": 29.7132802, "timestamp": 1603395764.882598, "alt": 19.5, "yaw": "1.95391714573", "lon": -95.4044162, "heading": 111, "speed": 0.05900000408291817, "roll": "-4.3019419536e-05"}
{"pitch": "0.0155039466918", "lat": 29.7132804, "timestamp": 1603395765.306067, "alt": 20.7, "yaw": "1.94897007942", "lon": -95.404416, "heading": 111, "speed": 0.11000000685453415, "roll": "0.0245767515153"}
{"pitch": "0.0155039466918", "lat": 29.7132804, "timestamp": 1603395765.386666, "alt": 20.7, "yaw": "1.94897007942", "lon": -95.404416, "heading": 111, "speed": 0.11000000685453415, "roll": "0.0245767515153"}
{"pitch": "0.0159623324871", "lat": 29.7132808, "timestamp": 1603395765.807313, "alt": 21.87, "yaw": "1.94433164597", "lon": -95.4044158, "heading": 111, "speed": 0.13700000941753387, "roll": "0.0475840456784"}
{"pitch": "0.00409859279171", "lat": 29.7132808, "timestamp": 1603395765.887922, "alt": 21.87, "yaw": "1.93742537498", "lon": -95.4044158, "heading": 111, "speed": 0.13700000941753387, "roll": "0.0428963638842"}
{"pitch": "-0.00218234257773", "lat": 29.7132809, "timestamp": 1603395766.308434, "alt": 23.06, "yaw": "1.93381440639", "lon": -95.4044158, "heading": 111, "speed": 0.032999999821186066, "roll": "0.037817619741"}
{"pitch": "0.0143553987145", "lat": 29.7132809, "timestamp": 1603395766.388852, "alt": 23.06, "yaw": "1.95360767841", "lon": -95.4044158, "heading": 111, "speed": 0.032999999821186066, "roll": "0.0344645641744"}
{"pitch": "0.0161960180849", "lat": 29.7132807, "timestamp": 1603395766.81007, "alt": 24.4, "yaw": "1.96541202068", "lon": -95.4044156, "heading": 112, "speed": 0.04200000315904617, "roll": "0.027155302465"}
{"pitch": "0.0161960180849", "lat": 29.7132807, "timestamp": 1603395766.89008, "alt": 24.4, "yaw": "1.96541202068", "lon": -95.4044156, "heading": 112, "speed": 0.04200000315904617, "roll": "0.027155302465"}
{"pitch": "0.0197207126766", "lat": 29.7132806, "timestamp": 1603395767.311563, "alt": 25.08, "yaw": "1.97652614117", "lon": -95.4044156, "heading": 113, "speed": 0.10600000619888306, "roll": "0.0373349525034"}
{"pitch": "0.0197207126766", "lat": 29.7132804, "timestamp": 1603395767.391247, "alt": 25.7, "yaw": "1.97652614117", "lon": -95.4044156, "heading": 113, "speed": 0.10600000619888306, "roll": "0.0373349525034"}
{"pitch": "6.14230521023e-05", "lat": 29.7132802, "timestamp": 1603395767.812829, "alt": 26.31, "yaw": "1.97318434715", "lon": -95.4044158, "heading": 113, "speed": 0.12300000339746475, "roll": "0.0311760511249"}
{"pitch": "6.14230521023e-05", "lat": 29.7132802, "timestamp": 1603395767.892675, "alt": 26.31, "yaw": "1.97318434715", "lon": -95.4044158, "heading": 113, "speed": 0.12300000339746475, "roll": "0.0311760511249"}
{"pitch": "-0.00306785595603", "lat": 29.7132798, "timestamp": 1603395768.314461, "alt": 27.55, "yaw": "1.97683858871", "lon": -95.4044164, "heading": 113, "speed": 0.2590000033378601, "roll": "0.0265315081924"}
{"pitch": "-0.0109884850681", "lat": 29.7132798, "timestamp": 1603395768.393985, "alt": 27.55, "yaw": "1.97647309303", "lon": -95.4044164, "heading": 113, "speed": 0.2590000033378601, "roll": "0.0258239321411"}
{"pitch": "-0.010817905888", "lat": 29.7132796, "timestamp": 1603395768.821404, "alt": 28.7, "yaw": "1.97510659695", "lon": -95.4044168, "heading": 113, "speed": 0.06200000271201134, "roll": "0.0326708704233"}
{"pitch": "-0.010817905888", "lat": 29.7132796, "timestamp": 1603395768.896393, "alt": 28.7, "yaw": "1.97510659695", "lon": -95.4044168, "heading": 113, "speed": 0.06200000271201134, "roll": "0.0326708704233"}
{"pitch": "0.00774379866198", "lat": 29.7132792, "timestamp": 1603395769.32336, "alt": 29.74, "yaw": "2.00601243973", "lon": -95.4044166, "heading": 115, "speed": 0.2410000115633011, "roll": "0.0273684300482"}
{"pitch": "0.00774379866198", "lat": 29.7132792, "timestamp": 1603395769.398476, "alt": 29.74, "yaw": "2.00601243973", "lon": -95.4044166, "heading": 115, "speed": 0.2410000115633011, "roll": "0.0273684300482"}
{"pitch": "0.0112452302128", "lat": 29.713279, "timestamp": 1603395769.830455, "alt": 30.19, "yaw": "2.03267335892", "lon": -95.4044164, "heading": 116, "speed": 0.1380000114440918, "roll": "0.0204318761826"}
{"pitch": "0.0112452302128", "lat": 29.7132789, "timestamp": 1603395769.901178, "alt": 30.58, "yaw": "2.03267335892", "lon": -95.4044161, "heading": 116, "speed": 0.16300000250339508, "roll": "0.0204318761826"}
{"pitch": "0.0173158496618", "lat": 29.7132788, "timestamp": 1603395770.334487, "alt": 30.88, "yaw": "2.04353022575", "lon": -95.4044156, "heading": 116, "speed": 0.23400001227855682, "roll": "0.0411011725664"}
{"pitch": "0.0173158496618", "lat": 29.7132788, "timestamp": 1603395770.403248, "alt": 30.88, "yaw": "2.04353022575", "lon": -95.4044156, "heading": 117, "speed": 0.17500001192092896, "roll": "0.0411011725664"}
{"pitch": "0.0181587617844", "lat": 29.7132793, "timestamp": 1603395770.836383, "alt": 31.27, "yaw": "2.04533147812", "lon": -95.4044148, "heading": 117, "speed": 0.11000000685453415, "roll": "0.0526032187045"}
{"pitch": "0.00884085334837", "lat": 29.7132793, "timestamp": 1603395770.90597, "alt": 31.27, "yaw": "2.03921604156", "lon": -95.4044148, "heading": 117, "speed": 0.11000000685453415, "roll": "0.0559833534062"}
{"pitch": "-0.00227101542987", "lat": 29.7132796, "timestamp": 1603395771.339084, "alt": 31.51, "yaw": "2.0377163887", "lon": -95.4044151, "heading": 116, "speed": 0.20200000703334808, "roll": "0.0463177263737"}
{"pitch": "-0.000829302705824", "lat": 29.7132796, "timestamp": 1603395771.408247, "alt": 31.51, "yaw": "2.03876829147", "lon": -95.4044151, "heading": 116, "speed": 0.20200000703334808, "roll": "0.0391353219748"}
{"pitch": "0.00673796748742", "lat": 29.7132799, "timestamp": 1603395771.841195, "alt": 31.64, "yaw": "2.04345226288", "lon": -95.4044151, "heading": 117, "speed": 0.10600000619888306, "roll": "0.0351980105042"}
{"pitch": "0.00673796748742", "lat": 29.7132799, "timestamp": 1603395771.910754, "alt": 31.64, "yaw": "2.04345226288", "lon": -95.4044151, "heading": 117, "speed": 0.10600000619888306, "roll": "0.0351980105042"}
{"pitch": "0.00338528631255", "lat": 29.7132802, "timestamp": 1603395772.342542, "alt": 31.69, "yaw": "2.03808641434", "lon": -95.404415, "heading": 116, "speed": 0.0650000050663948, "roll": "0.0617333799601"}
{"pitch": "0.00338528631255", "lat": 29.7132805, "timestamp": 1603395772.411919, "alt": 31.72, "yaw": "2.03808641434", "lon": -95.4044147, "heading": 116, "speed": 0.05300000309944153, "roll": "0.0617333799601"}
{"pitch": "0.000950908754021", "lat": 29.7132808, "timestamp": 1603395772.84407, "alt": 31.76, "yaw": "2.03160357475", "lon": -95.4044145, "heading": 116, "speed": 0.11400000751018524, "roll": "0.0667021200061"}
{"pitch": "0.00434156740084", "lat": 29.7132808, "timestamp": 1603395772.913056, "alt": 31.76, "yaw": "2.0373301506", "lon": -95.4044145, "heading": 116, "speed": 0.11400000751018524, "roll": "0.0700709447265"}
{"pitch": "0.0196815114468", "lat": 29.7132809, "timestamp": 1603395773.345292, "alt": 31.82, "yaw": "2.04000878334", "lon": -95.404414, "heading": 117, "speed": 0.08900000154972076, "roll": "0.0824151709676"}
{"pitch": "0.0196815114468", "lat": 29.7132809, "timestamp": 1603395773.414323, "alt": 31.82, "yaw": "2.04000878334", "lon": -95.404414, "heading": 117, "speed": 0.08900000154972076, "roll": "0.0824151709676"}
{"pitch": "0.0286681111902", "lat": 29.7132807, "timestamp": 1603395773.850276, "alt": 31.84, "yaw": "2.0530796051", "lon": -95.4044143, "heading": 117, "speed": 0.11500000208616257, "roll": "0.0408820956945"}
{"pitch": "0.0286681111902", "lat": 29.7132807, "timestamp": 1603395773.915509, "alt": 31.84, "yaw": "2.0530796051", "lon": -95.4044143, "heading": 117, "speed": 0.11500000208616257, "roll": "0.0408820956945"}
{"pitch": "-0.0168732758611", "lat": 29.7132807, "timestamp": 1603395774.35118, "alt": 31.86, "yaw": "2.05761003494", "lon": -95.4044149, "heading": 117, "speed": 0.11800000816583633, "roll": "0.0392932370305"}
{"pitch": "-0.0168732758611", "lat": 29.7132807, "timestamp": 1603395774.416588, "alt": 31.87, "yaw": "2.05761003494", "lon": -95.4044152, "heading": 117, "speed": 0.05300000309944153, "roll": "0.0392932370305"}
{"pitch": "0.00622254563496", "lat": 29.7132807, "timestamp": 1603395774.852127, "alt": 31.86, "yaw": "2.04277229309", "lon": -95.4044153, "heading": 117, "speed": 0.04700000211596489, "roll": "0.0781677141786"}
{"pitch": "0.00622254563496", "lat": 29.7132806, "timestamp": 1603395774.9177, "alt": 31.86, "yaw": "2.04277229309", "lon": -95.4044151, "heading": 117, "speed": 0.04700000211596489, "roll": "0.0781677141786"}
{"pitch": "0.0256017316133", "lat": 29.7132803, "timestamp": 1603395775.353281, "alt": 31.85, "yaw": "2.05005073547", "lon": -95.404415, "heading": 117, "speed": 0.0820000022649765, "roll": "0.0790791884065"}
{"pitch": "0.0250700544566", "lat": 29.7132803, "timestamp": 1603395775.418944, "alt": 31.85, "yaw": "2.0533246994", "lon": -95.404415, "heading": 117, "speed": 0.0820000022649765, "roll": "0.0691277086735"}
{"pitch": "0.0231523960829", "lat": 29.7132795, "timestamp": 1603395775.853939, "alt": 31.84, "yaw": "2.05108833313", "lon": -95.4044154, "heading": 117, "speed": 0.1290000081062317, "roll": "0.059113137424"}
{"pitch": "0.0231523960829", "lat": 29.7132795, "timestamp": 1603395775.920077, "alt": 31.84, "yaw": "2.05108833313", "lon": -95.4044154, "heading": 117, "speed": 0.1290000081062317, "roll": "0.059113137424"}
{"pitch": "0.0156340189278", "lat": 29.7132787, "timestamp": 1603395776.355018, "alt": 31.83, "yaw": "2.04996442795", "lon": -95.4044164, "heading": 117, "speed": 0.13700000941753387, "roll": "0.066439025104"}
{"pitch": "0.0156340189278", "lat": 29.7132787, "timestamp": 1603395776.421144, "alt": 31.83, "yaw": "2.04996442795", "lon": -95.4044164, "heading": 117, "speed": 0.13700000941753387, "roll": "0.066439025104"}
{"pitch": "0.0197488181293", "lat": 29.7132783, "timestamp": 1603395776.856036, "alt": 31.83, "yaw": "2.04602003098", "lon": -95.4044172, "heading": 116, "speed": 0.21800000965595245, "roll": "0.0514843836427"}
{"pitch": "-0.0112202102318", "lat": 29.713278, "timestamp": 1603395776.922211, "alt": 31.84, "yaw": "2.04061079025", "lon": -95.4044181, "heading": 116, "speed": 0.21800000965595245, "roll": "0.0226983465254"}
{"pitch": "-0.0156417693943", "lat": 29.7132777, "timestamp": 1603395777.357095, "alt": 31.84, "yaw": "2.06050086021", "lon": -95.4044189, "heading": 118, "speed": 0.1730000078678131, "roll": "0.0304551739246"}
{"pitch": "-0.0156417693943", "lat": 29.7132777, "timestamp": 1603395777.423329, "alt": 31.84, "yaw": "2.06050086021", "lon": -95.4044189, "heading": 118, "speed": 0.1730000078678131, "roll": "0.0304551739246"}
