{"pitch": "-0.0125364400446", "lat": 29.7132905, "timestamp": 1603395868.095769, "alt": 10.86, "yaw": "2.05613398552", "lon": -95.4043656, "heading": 117, "speed": 0.027000000700354576, "roll": "-0.00417180173099"}
{"pitch": "-0.0128241647035", "lat": 29.7132906, "timestamp": 1603395868.597226, "alt": 10.85, "yaw": "2.05634021759", "lon": -95.4043666, "heading": 117, "speed": 0.010000000707805157, "roll": "-0.00420289300382"}
{"pitch": "-0.0129150357097", "lat": 29.7132905, "timestamp": 1603395869.098322, "alt": 10.85, "yaw": "2.05650353432", "lon": -95.4043671, "heading": 117, "speed": 0.015000000596046448, "roll": "-0.004209715873"}
{"pitch": "-0.0129934810102", "lat": 29.7132905, "timestamp": 1603395869.599486, "alt": 10.85, "yaw": "2.05660486221", "lon": -95.4043675, "heading": 117, "speed": 0.02500000037252903, "roll": "-0.00438250508159"}
{"pitch": "-0.0129182310775", "lat": 29.7132906, "timestamp": 1603395870.100972, "alt": 10.85, "yaw": "2.05674171448", "lon": -95.404368, "heading": 117, "speed": 0.021000001579523087, "roll": "-0.00446895137429"}
{"pitch": "-0.0129791721702", "lat": 29.7132905, "timestamp": 1603395870.60217, "alt": 10.84, "yaw": "2.05685567856", "lon": -95.4043685, "heading": 117, "speed": 0.018000001087784767, "roll": "-0.00453429389745"}
{"pitch": "-0.0131033584476", "lat": 29.7132905, "timestamp": 1603395871.103728, "alt": 10.83, "yaw": "2.05700016022", "lon": -95.4043691, "heading": 117, "speed": 0.014000000432133675, "roll": "-0.00457269512117"}
{"pitch": "-0.0132572604343", "lat": 29.7132903, "timestamp": 1603395871.605015, "alt": 10.83, "yaw": "2.0571038723", "lon": -95.4043696, "heading": 117, "speed": 0.023000001907348633, "roll": "-0.00465291831642"}
{"pitch": "-0.0132658584043", "lat": 29.7132903, "timestamp": 1603395872.10609, "alt": 10.82, "yaw": "2.05725812912", "lon": -95.4043701, "heading": 117, "speed": 0.01900000125169754, "roll": "-0.00474669504911"}
{"pitch": "-0.0131889600307", "lat": 29.7132902, "timestamp": 1603395872.607218, "alt": 10.82, "yaw": "2.05741691589", "lon": -95.4043708, "heading": 117, "speed": 0.014000000432133675, "roll": "-0.00491519644856"}
{"pitch": "-0.0131532009691", "lat": 29.7132901, "timestamp": 1603395873.108383, "alt": 10.83, "yaw": "2.05758285522", "lon": -95.4043712, "heading": 117, "speed": 0.014000000432133675, "roll": "-0.00504280347377"}
{"pitch": "-0.0131448144093", "lat": 29.71329, "timestamp": 1603395873.610054, "alt": 10.84, "yaw": "2.05780506134", "lon": -95.4043717, "heading": 117, "speed": 0.021000001579523087, "roll": "-0.0051466440782"}
{"pitch": "-0.0131958983839", "lat": 29.7132899, "timestamp": 1603395874.112586, "alt": 10.85, "yaw": "2.05802321434", "lon": -95.4043721, "heading": 117, "speed": 0.013000000268220901, "roll": "-0.00531819835305"}
{"pitch": "-0.0131366830319", "lat": 29.7132898, "timestamp": 1603395874.614778, "alt": 10.84, "yaw": "2.05808568001", "lon": -95.4043725, "heading": 117, "speed": 0.036000002175569534, "roll": "-0.00530963391066"}
{"pitch": "-0.0133771393448", "lat": 29.7132896, "timestamp": 1603395875.116411, "alt": 10.83, "yaw": "2.05837678909", "lon": -95.4043728, "heading": 117, "speed": 0.027000000700354576, "roll": "-0.00529155693948"}
{"pitch": "-0.0134228905663", "lat": 29.7132894, "timestamp": 1603395875.618007, "alt": 10.83, "yaw": "2.05879259109", "lon": -95.4043732, "heading": 117, "speed": 0.018000001087784767, "roll": "-0.00527194514871"}
{"pitch": "-0.0134645402431", "lat": 29.7132892, "timestamp": 1603395876.119163, "alt": 10.82, "yaw": "2.05914926529", "lon": -95.4043736, "heading": 117, "speed": 0.006000000052154064, "roll": "-0.00539669767022"}
{"pitch": "-0.0133762992918", "lat": 29.7132891, "timestamp": 1603395876.620759, "alt": 10.81, "yaw": "2.05930781364", "lon": -95.4043739, "heading": 117, "speed": 0.03800000250339508, "roll": "-0.00544765219092"}
{"pitch": "-0.0133553156629", "lat": 29.7132889, "timestamp": 1603395877.12191, "alt": 10.83, "yaw": "2.05936765671", "lon": -95.4043741, "heading": 117, "speed": 0.0430000014603138, "roll": "-0.00552911870182"}
{"pitch": "-0.0134650729597", "lat": 29.7132887, "timestamp": 1603395877.623146, "alt": 10.86, "yaw": "2.05950832367", "lon": -95.4043743, "heading": 117, "speed": 0.020000001415610313, "roll": "-0.00568217597902"}
{"pitch": "-0.0135037442669", "lat": 29.7132885, "timestamp": 1603395878.124364, "alt": 10.88, "yaw": "2.05984663963", "lon": -95.4043745, "heading": 118, "speed": 0.015000000596046448, "roll": "-0.00579103175551"}
{"pitch": "-0.013557901606", "lat": 29.7132884, "timestamp": 1603395878.625621, "alt": 10.91, "yaw": "2.06004333496", "lon": -95.4043746, "heading": 118, "speed": 0.02200000174343586, "roll": "-0.00587218441069"}
{"pitch": "-0.0137093104422", "lat": 29.7132882, "timestamp": 1603395879.127645, "alt": 10.96, "yaw": "2.0602517128", "lon": -95.4043748, "heading": 118, "speed": 0.02800000086426735, "roll": "-0.00598230864853"}
{"pitch": "-0.0135986506939", "lat": 29.713288, "timestamp": 1603395879.630407, "alt": 10.99, "yaw": "2.06032133102", "lon": -95.4043749, "heading": 118, "speed": 0.02800000086426735, "roll": "-0.0060585392639"}
{"pitch": "-0.0135079864413", "lat": 29.7132878, "timestamp": 1603395880.13154, "alt": 11.05, "yaw": "2.06027126312", "lon": -95.4043751, "heading": 118, "speed": 0.02200000174343586, "roll": "-0.00609563104808"}
{"pitch": "-0.0134219322354", "lat": 29.7132877, "timestamp": 1603395880.632687, "alt": 11.08, "yaw": "2.06029176712", "lon": -95.4043753, "heading": 118, "speed": 0.049000002443790436, "roll": "-0.00613682903349"}
{"pitch": "-0.01334679313", "lat": 29.7132876, "timestamp": 1603395881.133866, "alt": 11.11, "yaw": "2.06021261215", "lon": -95.4043754, "heading": 118, "speed": 0.021000001579523087, "roll": "-0.00608255900443"}
{"pitch": "-0.0130391390994", "lat": 29.7132874, "timestamp": 1603395881.635131, "alt": 11.13, "yaw": "2.06028294563", "lon": -95.4043755, "heading": 118, "speed": 0.024000000208616257, "roll": "-0.0063156588003"}
{"pitch": "-0.0130337728187", "lat": 29.7132873, "timestamp": 1603395882.13625, "alt": 11.13, "yaw": "2.06039094925", "lon": -95.4043756, "heading": 118, "speed": 0.021000001579523087, "roll": "-0.00633562449366"}
{"pitch": "-0.0129539016634", "lat": 29.7132872, "timestamp": 1603395882.63736, "alt": 11.14, "yaw": "2.06040596962", "lon": -95.4043757, "heading": 118, "speed": 0.06599999964237213, "roll": "-0.00633075647056"}
{"pitch": "-0.0127566335723", "lat": 29.7132872, "timestamp": 1603395883.138587, "alt": 11.15, "yaw": "2.06044912338", "lon": -95.4043758, "heading": 118, "speed": 0.03700000047683716, "roll": "-0.00631060451269"}
{"pitch": "-0.0126721970737", "lat": 29.7132871, "timestamp": 1603395883.639774, "alt": 11.17, "yaw": "2.06038451195", "lon": -95.4043759, "heading": 118, "speed": 0.03400000184774399, "roll": "-0.00620125234127"}
{"pitch": "-0.0125974528491", "lat": 29.713287, "timestamp": 1603395884.141144, "alt": 11.19, "yaw": "2.06043195724", "lon": -95.404376, "heading": 118, "speed": 0.021000001579523087, "roll": "-0.00622006691992"}
{"pitch": "-0.0125465784222", "lat": 29.713287, "timestamp": 1603395884.642147, "alt": 11.2, "yaw": "2.0606033802", "lon": -95.4043762, "heading": 118, "speed": 0.03700000047683716, "roll": "-0.00618757959455"}
{"pitch": "-0.0123786805198", "lat": 29.713287, "timestamp": 1603395885.144326, "alt": 11.2, "yaw": "2.06075763702", "lon": -95.4043763, "heading": 118, "speed": 0.03700000047683716, "roll": "-0.00624154321849"}
{"pitch": "-0.0124193485826", "lat": 29.713287, "timestamp": 1603395885.645951, "alt": 11.2, "yaw": "2.0610408783", "lon": -95.4043763, "heading": 118, "speed": 0.02500000037252903, "roll": "-0.00622701179236"}
{"pitch": "-0.0125021431595", "lat": 29.7132871, "timestamp": 1603395886.148996, "alt": 11.2, "yaw": "2.06131982803", "lon": -95.4043763, "heading": 118, "speed": 0.02200000174343586, "roll": "-0.00628364831209"}
{"pitch": "-0.0125803006813", "lat": 29.7132872, "timestamp": 1603395886.650182, "alt": 11.22, "yaw": "2.06128931046", "lon": -95.4043763, "heading": 118, "speed": 0.027000000700354576, "roll": "-0.0063586961478"}
{"pitch": "-0.0127132628113", "lat": 29.7132872, "timestamp": 1603395887.151278, "alt": 11.23, "yaw": "2.06134653091", "lon": -95.4043762, "heading": 118, "speed": 0.027000000700354576, "roll": "-0.0064504519105"}
{"pitch": "-0.0127642862499", "lat": 29.7132872, "timestamp": 1603395887.652433, "alt": 11.27, "yaw": "2.06137251854", "lon": -95.4043762, "heading": 118, "speed": 0.017000000923871994, "roll": "-0.00626441370696"}
{"pitch": "-0.0127246193588", "lat": 29.7132872, "timestamp": 1603395888.154425, "alt": 11.3, "yaw": "2.06140232086", "lon": -95.4043762, "heading": 118, "speed": 0.004000000189989805, "roll": "-0.00613583438098"}
{"pitch": "-0.0126451086253", "lat": 29.7132871, "timestamp": 1603395888.655701, "alt": 11.32, "yaw": "2.06162166595", "lon": -95.4043762, "heading": 118, "speed": 0.013000000268220901, "roll": "-0.00592574384063"}
{"pitch": "-0.0124737825245", "lat": 29.7132871, "timestamp": 1603395889.156855, "alt": 11.35, "yaw": "2.06172418594", "lon": -95.4043762, "heading": 118, "speed": 0.03800000250339508, "roll": "-0.00583289936185"}
{"pitch": "-0.0122884698212", "lat": 29.7132871, "timestamp": 1603395889.658082, "alt": 11.39, "yaw": "2.0616645813", "lon": -95.4043762, "heading": 118, "speed": 0.00800000037997961, "roll": "-0.00583336688578"}
{"pitch": "-0.0120822228491", "lat": 29.7132872, "timestamp": 1603395890.159194, "alt": 11.42, "yaw": "2.06172990799", "lon": -95.4043761, "heading": 118, "speed": 0.03100000135600567, "roll": "-0.00580467190593"}
{"pitch": "-0.0125628625974", "lat": 29.7132872, "timestamp": 1603395890.660299, "alt": 11.46, "yaw": "2.06167888641", "lon": -95.404376, "heading": 118, "speed": 0.036000002175569534, "roll": "-0.00592376664281"}
{"pitch": "-0.012560274452", "lat": 29.7132872, "timestamp": 1603395891.161532, "alt": 11.49, "yaw": "2.06175994873", "lon": -95.404376, "heading": 118, "speed": 0.04000000283122063, "roll": "-0.00566752627492"}
{"pitch": "-0.012337920256", "lat": 29.7132872, "timestamp": 1603395891.664132, "alt": 11.51, "yaw": "2.06187987328", "lon": -95.4043761, "heading": 118, "speed": 0.013000000268220901, "roll": "-0.00549441576004"}
{"pitch": "-0.0124371647835", "lat": 29.7132873, "timestamp": 1603395892.167621, "alt": 11.52, "yaw": "2.0619726181", "lon": -95.4043761, "heading": 118, "speed": 0.014000000432133675, "roll": "-0.0055374186486"}
{"pitch": "-0.0122044701129", "lat": 29.7132874, "timestamp": 1603395892.675068, "alt": 11.52, "yaw": "2.06202983856", "lon": -95.4043761, "heading": 118, "speed": 0.010000000707805157, "roll": "-0.00534136127681"}
{"pitch": "-0.01230058074", "lat": 29.7132874, "timestamp": 1603395893.177134, "alt": 11.51, "yaw": "2.06204938889", "lon": -95.4043762, "heading": 118, "speed": 0.020000001415610313, "roll": "-0.00513948593289"}
{"pitch": "-0.01227327995", "lat": 29.7132875, "timestamp": 1603395893.686926, "alt": 11.51, "yaw": "2.06207609177", "lon": -95.4043762, "heading": 118, "speed": 0.005000000353902578, "roll": "-0.00510071497411"}
{"pitch": "-0.0124034751207", "lat": 29.7132875, "timestamp": 1603395894.19024, "alt": 11.5, "yaw": "2.06201028824", "lon": -95.4043762, "heading": 118, "speed": 0.02200000174343586, "roll": "-0.00522140972316"}
{"pitch": "-0.0125472154468", "lat": 29.7132876, "timestamp": 1603395894.691329, "alt": 11.47, "yaw": "2.06203842163", "lon": -95.404376, "heading": 118, "speed": 0.023000001907348633, "roll": "-0.0053252261132"}
{"pitch": "-0.0126195047051", "lat": 29.7132877, "timestamp": 1603395895.192178, "alt": 11.45, "yaw": "2.06206345558", "lon": -95.404376, "heading": 118, "speed": 0.039000000804662704, "roll": "-0.00536949001253"}
{"pitch": "-0.0125066442415", "lat": 29.7132878, "timestamp": 1603395895.695572, "alt": 11.43, "yaw": "2.0621919632", "lon": -95.4043759, "heading": 118, "speed": 0.027000000700354576, "roll": "-0.00559380277991"}
{"pitch": "-0.0123885888606", "lat": 29.7132879, "timestamp": 1603395896.196704, "alt": 11.4, "yaw": "2.06221222878", "lon": -95.4043758, "heading": 118, "speed": 0.00800000037997961, "roll": "-0.00550946500152"}
{"pitch": "-0.0123513434082", "lat": 29.7132879, "timestamp": 1603395896.697831, "alt": 11.37, "yaw": "2.06237220764", "lon": -95.4043758, "heading": 118, "speed": 0.01900000125169754, "roll": "-0.00553990434855"}
{"pitch": "-0.0123463375494", "lat": 29.713288, "timestamp": 1603395897.199092, "alt": 11.35, "yaw": "2.06244802475", "lon": -95.4043758, "heading": 118, "speed": 0.024000000208616257, "roll": "-0.00556456763297"}
{"pitch": "-0.0123105365783", "lat": 29.713288, "timestamp": 1603395897.700206, "alt": 11.33, "yaw": "2.06257581711", "lon": -95.4043756, "heading": 118, "speed": 0.017000000923871994, "roll": "-0.00564913358539"}
{"pitch": "-0.0122256949544", "lat": 29.713288, "timestamp": 1603395898.201349, "alt": 11.31, "yaw": "2.06270313263", "lon": -95.4043756, "heading": 118, "speed": 0.015000000596046448, "roll": "-0.00554042868316"}
{"pitch": "-0.0121645564213", "lat": 29.7132881, "timestamp": 1603395898.703327, "alt": 11.3, "yaw": "2.06267118454", "lon": -95.4043756, "heading": 118, "speed": 0.007000000216066837, "roll": "-0.00567672867328"}
{"pitch": "-0.0121559696272", "lat": 29.7132881, "timestamp": 1603395899.205634, "alt": 11.3, "yaw": "2.06270027161", "lon": -95.4043756, "heading": 118, "speed": 0.03500000014901161, "roll": "-0.0057994350791"}
{"pitch": "-0.0121018504724", "lat": 29.7132881, "timestamp": 1603395899.706852, "alt": 11.29, "yaw": "2.06269979477", "lon": -95.4043756, "heading": 118, "speed": 0.018000001087784767, "roll": "-0.00578806176782"}
{"pitch": "-0.0121225658804", "lat": 29.713288, "timestamp": 1603395900.208416, "alt": 11.29, "yaw": "2.06270074844", "lon": -95.4043756, "heading": 118, "speed": 0.03400000184774399, "roll": "-0.00570669118315"}
{"pitch": "-0.012112384662", "lat": 29.7132881, "timestamp": 1603395900.70976, "alt": 11.26, "yaw": "2.06271266937", "lon": -95.4043756, "heading": 118, "speed": 0.018000001087784767, "roll": "-0.00568430684507"}
{"pitch": "-0.0121140629053", "lat": 29.7132882, "timestamp": 1603395901.210866, "alt": 11.25, "yaw": "2.06271839142", "lon": -95.4043756, "heading": 118, "speed": 0.04400000348687172, "roll": "-0.0055080531165"}
{"pitch": "-0.0122091732919", "lat": 29.7132883, "timestamp": 1603395901.711995, "alt": 11.24, "yaw": "2.06292533875", "lon": -95.4043756, "heading": 118, "speed": 0.03700000047683716, "roll": "-0.00539791584015"}
{"pitch": "-0.0121250189841", "lat": 29.7132884, "timestamp": 1603395902.213169, "alt": 11.23, "yaw": "2.06291294098", "lon": -95.4043757, "heading": 118, "speed": 0.02800000086426735, "roll": "-0.00525547657162"}
{"pitch": "-0.0121862925589", "lat": 29.7132884, "timestamp": 1603395902.714319, "alt": 11.22, "yaw": "2.06286239624", "lon": -95.4043757, "heading": 118, "speed": 0.02800000086426735, "roll": "-0.00513777881861"}
{"pitch": "-0.0123113356531", "lat": 29.7132884, "timestamp": 1603395903.215526, "alt": 11.23, "yaw": "2.06297874451", "lon": -95.4043757, "heading": 118, "speed": 0.036000002175569534, "roll": "-0.00513567682356"}
{"pitch": "-0.0125112468377", "lat": 29.7132885, "timestamp": 1603395903.717677, "alt": 11.24, "yaw": "2.06307172775", "lon": -95.4043756, "heading": 118, "speed": 0.020000001415610313, "roll": "-0.00532551668584"}
{"pitch": "-0.0126636689529", "lat": 29.7132886, "timestamp": 1603395904.219157, "alt": 11.24, "yaw": "2.06318163872", "lon": -95.4043756, "heading": 118, "speed": 0.014000000432133675, "roll": "-0.00531140714884"}
{"pitch": "-0.0125744035468", "lat": 29.7132887, "timestamp": 1603395904.720396, "alt": 11.23, "yaw": "2.06300449371", "lon": -95.4043756, "heading": 118, "speed": 0.012000000104308128, "roll": "-0.00528648775071"}
{"pitch": "-0.0124647384509", "lat": 29.7132889, "timestamp": 1603395905.221582, "alt": 11.21, "yaw": "2.06299567223", "lon": -95.4043756, "heading": 118, "speed": 0.02200000174343586, "roll": "-0.00534174032509"}
{"pitch": "-0.0122789181769", "lat": 29.7132891, "timestamp": 1603395905.722783, "alt": 11.2, "yaw": "2.06311774254", "lon": -95.4043756, "heading": 118, "speed": 0.026000000536441803, "roll": "-0.00525738298893"}
{"pitch": "-0.0122093390673", "lat": 29.7132893, "timestamp": 1603395906.223992, "alt": 11.2, "yaw": "2.06310081482", "lon": -95.4043756, "heading": 118, "speed": 0.012000000104308128, "roll": "-0.00524447672069"}
{"pitch": "-0.012220479548", "lat": 29.7132894, "timestamp": 1603395906.72529, "alt": 11.19, "yaw": "2.06314277649", "lon": -95.4043755, "heading": 118, "speed": 0.03200000151991844, "roll": "-0.00520212296396"}
{"pitch": "-0.0122606772929", "lat": 29.7132894, "timestamp": 1603395907.227076, "alt": 11.18, "yaw": "2.06322908401", "lon": -95.4043755, "heading": 118, "speed": 0.014000000432133675, "roll": "-0.00515486579388"}
{"pitch": "-0.0123950932175", "lat": 29.7132895, "timestamp": 1603395907.728332, "alt": 11.19, "yaw": "2.06324386597", "lon": -95.4043754, "heading": 118, "speed": 0.024000000208616257, "roll": "-0.00524542666972"}
{"pitch": "-0.0125878704712", "lat": 29.7132895, "timestamp": 1603395908.22946, "alt": 11.2, "yaw": "2.06331419945", "lon": -95.4043752, "heading": 118, "speed": 0.04100000113248825, "roll": "-0.00514615047723"}
{"pitch": "-0.0126673169434", "lat": 29.7132896, "timestamp": 1603395908.730697, "alt": 11.21, "yaw": "2.06341576576", "lon": -95.404375, "heading": 118, "speed": 0.013000000268220901, "roll": "-0.0051466152072"}
{"pitch": "-0.0124923586845", "lat": 29.7132896, "timestamp": 1603395909.231908, "alt": 11.22, "yaw": "2.06357479095", "lon": -95.4043749, "heading": 118, "speed": 0.02800000086426735, "roll": "-0.0052119474858"}
{"pitch": "-0.0124798128381", "lat": 29.7132897, "timestamp": 1603395909.733069, "alt": 11.23, "yaw": "2.06359362602", "lon": -95.4043748, "heading": 118, "speed": 0.039000000804662704, "roll": "-0.00518553517759"}
{"pitch": "-0.0124548990279", "lat": 29.7132898, "timestamp": 1603395910.233944, "alt": 11.23, "yaw": "2.06370687485", "lon": -95.4043747, "heading": 118, "speed": 0.036000002175569534, "roll": "-0.00512396264821"}
{"pitch": "-0.0123366918415", "lat": 29.7132898, "timestamp": 1603395910.735145, "alt": 11.23, "yaw": "2.06374239922", "lon": -95.4043746, "heading": 118, "speed": 0.04200000315904617, "roll": "-0.00520884804428"}
{"pitch": "-0.0123602906242", "lat": 29.7132899, "timestamp": 1603395911.236263, "alt": 11.24, "yaw": "2.06365013123", "lon": -95.4043746, "heading": 118, "speed": 0.017000000923871994, "roll": "-0.00520050805062"}
{"pitch": "-0.01241046004", "lat": 29.71329, "timestamp": 1603395911.737373, "alt": 11.26, "yaw": "2.06358242035", "lon": -95.4043745, "heading": 118, "speed": 0.021000001579523087, "roll": "-0.00529256090522"}
{"pitch": "-0.0123632606119", "lat": 29.7132901, "timestamp": 1603395912.238495, "alt": 11.26, "yaw": "2.06368112564", "lon": -95.4043744, "heading": 118, "speed": 0.010000000707805157, "roll": "-0.00540553685278"}
{"pitch": "-0.0124367587268", "lat": 29.7132902, "timestamp": 1603395912.740573, "alt": 11.26, "yaw": "2.06374382973", "lon": -95.4043743, "heading": 118, "speed": 0.026000000536441803, "roll": "-0.0056035220623"}
{"pitch": "-0.0123164718971", "lat": 29.7132903, "timestamp": 1603395913.244388, "alt": 11.29, "yaw": "2.06389427185", "lon": -95.4043742, "heading": 118, "speed": 0.02200000174343586, "roll": "-0.00571198109537"}
{"pitch": "-0.0122733591124", "lat": 29.7132904, "timestamp": 1603395913.746337, "alt": 11.3, "yaw": "2.06390714645", "lon": -95.4043741, "heading": 118, "speed": 0.006000000052154064, "roll": "-0.00561705324799"}
{"pitch": "-0.0122311543673", "lat": 29.7132905, "timestamp": 1603395914.24857, "alt": 11.31, "yaw": "2.06399536133", "lon": -95.404374, "heading": 118, "speed": 0.026000000536441803, "roll": "-0.00573624763638"}
{"pitch": "-0.0121457548812", "lat": 29.7132907, "timestamp": 1603395914.749722, "alt": 11.3, "yaw": "2.06409740448", "lon": -95.4043738, "heading": 118, "speed": 0.018000001087784767, "roll": "-0.00590703077614"}
{"pitch": "-0.0121338833123", "lat": 29.7132907, "timestamp": 1603395915.250866, "alt": 11.29, "yaw": "2.06404590607", "lon": -95.4043738, "heading": 118, "speed": 0.013000000268220901, "roll": "-0.00613075308502"}
{"pitch": "-0.0121383648366", "lat": 29.713291, "timestamp": 1603395915.752138, "alt": 11.26, "yaw": "2.06416082382", "lon": -95.4043736, "heading": 118, "speed": 0.03200000151991844, "roll": "-0.0061793262139"}
{"pitch": "-0.0122354598716", "lat": 29.7132912, "timestamp": 1603395916.253334, "alt": 11.26, "yaw": "2.06443166733", "lon": -95.4043735, "heading": 118, "speed": 0.02200000174343586, "roll": "-0.00626603141427"}
{"pitch": "-0.0123531222343", "lat": 29.7132913, "timestamp": 1603395916.754438, "alt": 11.25, "yaw": "2.06458854675", "lon": -95.4043734, "heading": 118, "speed": 0.026000000536441803, "roll": "-0.0061317095533"}
{"pitch": "-0.0122524984181", "lat": 29.7132914, "timestamp": 1603395917.255575, "alt": 11.25, "yaw": "2.06480932236", "lon": -95.4043734, "heading": 118, "speed": 0.021000001579523087, "roll": "-0.00608951132745"}
{"pitch": "-0.0121320830658", "lat": 29.7132915, "timestamp": 1603395917.756807, "alt": 11.25, "yaw": "2.0649023056", "lon": -95.4043733, "heading": 118, "speed": 0.04000000283122063, "roll": "-0.00613404717296"}
{"pitch": "-0.0121541470289", "lat": 29.7132917, "timestamp": 1603395918.257996, "alt": 11.25, "yaw": "2.06488442421", "lon": -95.4043733, "heading": 118, "speed": 0.03200000151991844, "roll": "-0.00630307011306"}
{"pitch": "-0.0120777636766", "lat": 29.7132918, "timestamp": 1603395918.747166, "alt": 11.24, "yaw": "2.06502962112", "lon": -95.4043733, "heading": 118, "speed": 0.017000000923871994, "roll": "-0.00635026302189"}
{"pitch": "-0.0120777636766", "lat": 29.7132918, "timestamp": 1603395918.759223, "alt": 11.24, "yaw": "2.06502962112", "lon": -95.4043733, "heading": 118, "speed": 0.017000000923871994, "roll": "-0.00635026302189"}
{"pitch": "-0.0121518112719", "lat": 29.713292, "timestamp": 1603395919.247981, "alt": 11.24, "yaw": "2.0651884079", "lon": -95.4043732, "heading": 118, "speed": 0.018000001087784767, "roll": "-0.00621561985463"}
{"pitch": "-0.0121518112719", "lat": 29.713292, "timestamp": 1603395919.260433, "alt": 11.24, "yaw": "2.0651884079", "lon": -95.4043732, "heading": 118, "speed": 0.018000001087784767, "roll": "-0.00621561985463"}
{"pitch": "-0.0121105462313", "lat": 29.7132921, "timestamp": 1603395919.749072, "alt": 11.25, "yaw": "2.06527853012", "lon": -95.4043733, "heading": 118, "speed": 0.00800000037997961, "roll": "-0.00619862228632"}
{"pitch": "-0.0121105462313", "lat": 29.7132921, "timestamp": 1603395919.761571, "alt": 11.25, "yaw": "2.06527853012", "lon": -95.4043733, "heading": 118, "speed": 0.00800000037997961, "roll": "-0.00619862228632"}
{"pitch": "-0.01213143114", "lat": 29.7132922, "timestamp": 1603395920.250173, "alt": 11.26, "yaw": "2.06542062759", "lon": -95.4043734, "heading": 118, "speed": 0.003000000026077032, "roll": "-0.00592871569097"}
{"pitch": "-0.01213143114", "lat": 29.7132922, "timestamp": 1603395920.262838, "alt": 11.26, "yaw": "2.06542062759", "lon": -95.4043734, "heading": 118, "speed": 0.003000000026077032, "roll": "-0.00592871569097"}
{"pitch": "-0.0122277531773", "lat": 29.7132923, "timestamp": 1603395920.751416, "alt": 11.26, "yaw": "2.06557703018", "lon": -95.4043735, "heading": 118, "speed": 0.018000001087784767, "roll": "-0.00597818009555"}
{"pitch": "-0.0122277531773", "lat": 29.7132923, "timestamp": 1603395920.764128, "alt": 11.26, "yaw": "2.06557703018", "lon": -95.4043735, "heading": 118, "speed": 0.018000001087784767, "roll": "-0.00597818009555"}
{"pitch": "-0.0122607853264", "lat": 29.7132924, "timestamp": 1603395921.252705, "alt": 11.26, "yaw": "2.0655374527", "lon": -95.4043735, "heading": 118, "speed": 0.0020000000949949026, "roll": "-0.00587964430451"}
{"pitch": "-0.0122607853264", "lat": 29.7132924, "timestamp": 1603395921.265329, "alt": 11.26, "yaw": "2.0655374527", "lon": -95.4043736, "heading": 118, "speed": 0.0020000000949949026, "roll": "-0.00587964430451"}
{"pitch": "-0.0122820604593", "lat": 29.7132924, "timestamp": 1603395921.753875, "alt": 11.26, "yaw": "2.06419968605", "lon": -95.4043736, "heading": 118, "speed": 0.01900000125169754, "roll": "-0.0053597940132"}
{"pitch": "-0.0122820604593", "lat": 29.7132924, "timestamp": 1603395921.766433, "alt": 11.26, "yaw": "2.06419968605", "lon": -95.4043736, "heading": 118, "speed": 0.01900000125169754, "roll": "-0.0053597940132"}
{"pitch": "-0.0321317315102", "lat": 29.7132923, "timestamp": 1603395922.254941, "alt": 11.34, "yaw": "1.92966973782", "lon": -95.4043737, "heading": 112, "speed": 0.049000002443790436, "roll": "-0.00853804778308"}
{"pitch": "-0.0321317315102", "lat": 29.7132923, "timestamp": 1603395922.267293, "alt": 11.34, "yaw": "1.92966973782", "lon": -95.4043737, "heading": 112, "speed": 0.049000002443790436, "roll": "-0.00853804778308"}
{"pitch": "-0.0356663577259", "lat": 29.713292, "timestamp": 1603395922.756358, "alt": 11.78, "yaw": "1.837490201", "lon": -95.4043729, "heading": 106, "speed": 0.33000001311302185, "roll": "-0.0110098458827"}
{"pitch": "0.0029502264224", "lat": 29.713292, "timestamp": 1603395922.768414, "alt": 11.78, "yaw": "1.77375090122", "lon": -95.4043729, "heading": 101, "speed": 0.320000022649765, "roll": "-0.00718088727444"}
{"pitch": "0.0288958270103", "lat": 29.7132918, "timestamp": 1603395923.257689, "alt": 12.39, "yaw": "1.74126458168", "lon": -95.4043711, "heading": 99, "speed": 0.26100000739097595, "roll": "-0.0157763715833"}
{"pitch": "0.0288958270103", "lat": 29.7132918, "timestamp": 1603395923.269866, "alt": 12.39, "yaw": "1.74126458168", "lon": -95.4043711, "heading": 99, "speed": 0.26100000739097595, "roll": "-0.0157763715833"}
{"pitch": "0.0410106964409", "lat": 29.713292, "timestamp": 1603395923.758635, "alt": 13.24, "yaw": "1.74559056759", "lon": -95.4043703, "heading": 99, "speed": 0.17400000989437103, "roll": "-0.0219266470522"}
{"pitch": "0.0410106964409", "lat": 29.713292, "timestamp": 1603395923.770864, "alt": 13.24, "yaw": "1.74559056759", "lon": -95.4043703, "heading": 99, "speed": 0.17400000989437103, "roll": "-0.0219266470522"}
{"pitch": "0.0297289993614", "lat": 29.7132925, "timestamp": 1603395924.268932, "alt": 14.22, "yaw": "1.82375299931", "lon": -95.4043703, "heading": 104, "speed": 0.17600001394748688, "roll": "-0.00106084044091"}
{"pitch": "0.0297289993614", "lat": 29.7132925, "timestamp": 1603395924.271703, "alt": 14.22, "yaw": "1.82375299931", "lon": -95.4043703, "heading": 104, "speed": 0.17600001394748688, "roll": "-0.00106084044091"}
{"pitch": "0.00133140478283", "lat": 29.7132929, "timestamp": 1603395924.770277, "alt": 14.76, "yaw": "1.84636127949", "lon": -95.4043705, "heading": 105, "speed": 0.1860000044107437, "roll": "0.00759782735258"}
{"pitch": "0.00133140478283", "lat": 29.7132929, "timestamp": 1603395924.773141, "alt": 14.76, "yaw": "1.84636127949", "lon": -95.4043705, "heading": 105, "speed": 0.1860000044107437, "roll": "0.00759782735258"}
{"pitch": "0.000168119557202", "lat": 29.7132938, "timestamp": 1603395925.271392, "alt": 15.86, "yaw": "1.8280544281", "lon": -95.404371, "heading": 104, "speed": 0.15300001204013824, "roll": "0.0449586808681"}
{"pitch": "0.000168119557202", "lat": 29.7132938, "timestamp": 1603395925.274131, "alt": 15.86, "yaw": "1.8280544281", "lon": -95.404371, "heading": 104, "speed": 0.15300001204013824, "roll": "0.0449586808681"}
{"pitch": "0.0307381618768", "lat": 29.7132936, "timestamp": 1603395925.7724, "alt": 17.0, "yaw": "1.83160042763", "lon": -95.4043712, "heading": 104, "speed": 0.030000001192092896, "roll": "0.0338265746832"}
{"pitch": "0.0307381618768", "lat": 29.7132936, "timestamp": 1603395925.775305, "alt": 17.0, "yaw": "1.83160042763", "lon": -95.4043712, "heading": 104, "speed": 0.030000001192092896, "roll": "0.0338265746832"}
{"pitch": "0.000282476656139", "lat": 29.7132935, "timestamp": 1603395926.27369, "alt": 18.24, "yaw": "1.86578404903", "lon": -95.4043726, "heading": 107, "speed": 0.28200000524520874, "roll": "0.00435270834714"}
{"pitch": "0.000282476656139", "lat": 29.7132935, "timestamp": 1603395926.276616, "alt": 18.24, "yaw": "1.86578404903", "lon": -95.4043726, "heading": 107, "speed": 0.28200000524520874, "roll": "0.00435270834714"}
{"pitch": "-0.0365530997515", "lat": 29.7132935, "timestamp": 1603395926.775801, "alt": 19.5, "yaw": "1.87696874142", "lon": -95.4043739, "heading": 107, "speed": 0.33000001311302185, "roll": "0.0115906782448"}
{"pitch": "-0.0365530997515", "lat": 29.7132935, "timestamp": 1603395926.778254, "alt": 19.5, "yaw": "1.87696874142", "lon": -95.4043739, "heading": 107, "speed": 0.33000001311302185, "roll": "0.0115906782448"}
{"pitch": "-0.045421268791", "lat": 29.7132935, "timestamp": 1603395927.278307, "alt": 20.15, "yaw": "1.8975943327", "lon": -95.4043741, "heading": 109, "speed": 0.030000001192092896, "roll": "0.0184702686965"}
{"pitch": "-0.045421268791", "lat": 29.7132935, "timestamp": 1603395927.281028, "alt": 20.15, "yaw": "1.8975943327", "lon": -95.4043741, "heading": 109, "speed": 0.030000001192092896, "roll": "0.0184702686965"}
{"pitch": "0.0156506355852", "lat": 29.7132928, "timestamp": 1603395927.781615, "alt": 21.41, "yaw": "1.92544424534", "lon": -95.4043734, "heading": 110, "speed": 0.16200000047683716, "roll": "0.0208689440042"}
{"pitch": "0.0156506355852", "lat": 29.7132928, "timestamp": 1603395927.783817, "alt": 21.41, "yaw": "1.92544424534", "lon": -95.4043734, "heading": 110, "speed": 0.16200000047683716, "roll": "0.0208689440042"}
{"pitch": "0.0298532973975", "lat": 29.7132922, "timestamp": 1603395928.284177, "alt": 22.58, "yaw": "1.9274033308", "lon": -95.4043729, "heading": 110, "speed": 0.09000000357627869, "roll": "-0.0105238445103"}
{"pitch": "0.0298532973975", "lat": 29.7132922, "timestamp": 1603395928.285624, "alt": 22.58, "yaw": "1.9274033308", "lon": -95.4043729, "heading": 110, "speed": 0.09000000357627869, "roll": "-0.0105238445103"}
{"pitch": "0.0149416532367", "lat": 29.7132924, "timestamp": 1603395928.787037, "alt": 23.76, "yaw": "1.90884113312", "lon": -95.4043727, "heading": 109, "speed": 0.03700000047683716, "roll": "0.0263805054128"}
{"pitch": "0.0149416532367", "lat": 29.7132924, "timestamp": 1603395928.788557, "alt": 23.76, "yaw": "1.90884113312", "lon": -95.4043727, "heading": 109, "speed": 0.03700000047683716, "roll": "0.0263805054128"}
{"pitch": "0.00719954585657", "lat": 29.7132927, "timestamp": 1603395929.298171, "alt": 25.01, "yaw": "1.91652977467", "lon": -95.4043727, "heading": 109, "speed": 0.04000000283122063, "roll": "0.042511086911"}
{"pitch": "0.00719954585657", "lat": 29.7132927, "timestamp": 1603395929.298734, "alt": 25.01, "yaw": "1.91652977467", "lon": -95.4043727, "heading": 109, "speed": 0.04000000283122063, "roll": "0.042511086911"}
{"pitch": "0.0287554692477", "lat": 29.7132926, "timestamp": 1603395929.799289, "alt": 26.26, "yaw": "1.92681384087", "lon": -95.4043728, "heading": 110, "speed": 0.012000000104308128, "roll": "0.0481876395643"}
{"pitch": "0.0287554692477", "lat": 29.7132926, "timestamp": 1603395929.799931, "alt": 26.26, "yaw": "1.92681384087", "lon": -95.4043728, "heading": 110, "speed": 0.012000000104308128, "roll": "0.0481876395643"}
{"pitch": "-0.0139864981174", "lat": 29.7132925, "timestamp": 1603395930.300484, "alt": 26.87, "yaw": "1.92670857906", "lon": -95.404373, "heading": 110, "speed": 0.11400000751018524, "roll": "0.0331158451736"}
{"pitch": "-0.0139864981174", "lat": 29.7132925, "timestamp": 1603395930.301078, "alt": 26.87, "yaw": "1.92670857906", "lon": -95.404373, "heading": 110, "speed": 0.11400000751018524, "roll": "0.0331158451736"}
{"pitch": "0.00284921238199", "lat": 29.7132921, "timestamp": 1603395930.802058, "alt": 28.03, "yaw": "1.94659745693", "lon": -95.4043731, "heading": 111, "speed": 0.06400000303983688, "roll": "0.0222161896527"}
{"pitch": "0.00284921238199", "lat": 29.7132921, "timestamp": 1603395930.802652, "alt": 28.03, "yaw": "1.94659745693", "lon": -95.4043731, "heading": 111, "speed": 0.06400000303983688, "roll": "0.0222161896527"}
{"pitch": "0.0293531436473", "lat": 29.7132918, "timestamp": 1603395931.303223, "alt": 29.16, "yaw": "1.97594165802", "lon": -95.4043724, "heading": 113, "speed": 0.1730000078678131, "roll": "0.0235474612564"}
{"pitch": "0.0293531436473", "lat": 29.7132918, "timestamp": 1603395931.303815, "alt": 29.16, "yaw": "1.97594165802", "lon": -95.4043724, "heading": 113, "speed": 0.1730000078678131, "roll": "0.0235474612564"}
{"pitch": "0.0272374544293", "lat": 29.7132921, "timestamp": 1603395931.804405, "alt": 30.01, "yaw": "2.00689339638", "lon": -95.4043714, "heading": 114, "speed": 0.17800000309944153, "roll": "0.0515229068696"}
{"pitch": "0.0272374544293", "lat": 29.7132921, "timestamp": 1603395931.805089, "alt": 30.01, "yaw": "2.00689339638", "lon": -95.4043714, "heading": 114, "speed": 0.17800000309944153, "roll": "0.0515229068696"}
{"pitch": "0.0274082217366", "lat": 29.7132926, "timestamp": 1603395932.305933, "alt": 30.53, "yaw": "2.00009155273", "lon": -95.4043709, "heading": 114, "speed": 0.07800000160932541, "roll": "0.077130176127"}
{"pitch": "0.0274082217366", "lat": 29.7132926, "timestamp": 1603395932.306487, "alt": 30.53, "yaw": "2.00009155273", "lon": -95.4043709, "heading": 114, "speed": 0.07800000160932541, "roll": "0.077130176127"}
{"pitch": "0.0304837208241", "lat": 29.7132927, "timestamp": 1603395932.807627, "alt": 30.8, "yaw": "1.98239409924", "lon": -95.404371, "heading": 113, "speed": 0.1210000067949295, "roll": "0.0546875149012"}{"pitch": "0.0304837208241", "lat": 29.7132927, "timestamp": 1603395932.808254, "alt": 30.8, "yaw": "1.98239409924", "lon": -95.404371, "heading": 113, "speed": 0.1210000067949295, "roll": "0.0546875149012"}

{"pitch": "-0.00155519321561", "lat": 29.7132929, "timestamp": 1603395933.309118, "alt": 30.9, "yaw": "1.98237109184", "lon": -95.4043714, "heading": 113, "speed": 0.2580000162124634, "roll": "0.0538207218051"}
{"pitch": "-0.00155519321561", "lat": 29.7132929, "timestamp": 1603395933.309685, "alt": 30.9, "yaw": "1.98237109184", "lon": -95.4043714, "heading": 113, "speed": 0.2580000162124634, "roll": "0.0538207218051"}
{"pitch": "0.00940516218543", "lat": 29.7132933, "timestamp": 1603395933.810027, "alt": 31.07, "yaw": "1.97080302238", "lon": -95.4043721, "heading": 113, "speed": 0.14000000059604645, "roll": "0.0615361444652"}
{"pitch": "0.00940516218543", "lat": 29.7132933, "timestamp": 1603395933.810819, "alt": 31.07, "yaw": "1.97080302238", "lon": -95.4043721, "heading": 113, "speed": 0.14000000059604645, "roll": "0.0615361444652"}
{"pitch": "-0.0153086930513", "lat": 29.7132932, "timestamp": 1603395934.317954, "alt": 31.16, "yaw": "1.9614726305", "lon": -95.4043729, "heading": 112, "speed": 0.16300000250339508, "roll": "0.0266128685325"}
{"pitch": "-0.0153086930513", "lat": 29.7132932, "timestamp": 1603395934.318594, "alt": 31.16, "yaw": "1.9614726305", "lon": -95.4043729, "heading": 112, "speed": 0.16300000250339508, "roll": "0.0266128685325"}
{"pitch": "-0.0242578070611", "lat": 29.7132932, "timestamp": 1603395934.819137, "alt": 31.23, "yaw": "1.97951555252", "lon": -95.4043734, "heading": 113, "speed": 0.1210000067949295, "roll": "0.0418375916779"}
{"pitch": "-0.0242578070611", "lat": 29.7132932, "timestamp": 1603395934.819827, "alt": 31.23, "yaw": "1.97951555252", "lon": -95.4043734, "heading": 113, "speed": 0.1210000067949295, "roll": "0.0418375916779"}
{"pitch": "0.00323718367144", "lat": 29.713293, "timestamp": 1603395935.321151, "alt": 31.25, "yaw": "2.01149868965", "lon": -95.4043737, "heading": 115, "speed": 0.03200000151991844, "roll": "0.0417275764048"}
{"pitch": "0.00323718367144", "lat": 29.713293, "timestamp": 1603395935.320399, "alt": 31.25, "yaw": "2.01149868965", "lon": -95.4043737, "heading": 115, "speed": 0.03200000151991844, "roll": "0.0417275764048"}
{"pitch": "-0.0112220104784", "lat": 29.713293, "timestamp": 1603395935.822315, "alt": 31.25, "yaw": "2.00814199448", "lon": -95.4043738, "heading": 115, "speed": 0.05700000375509262, "roll": "0.0471494421363"}
{"pitch": "-0.0112220104784", "lat": 29.713293, "timestamp": 1603395935.823255, "alt": 31.25, "yaw": "2.00814199448", "lon": -95.4043738, "heading": 115, "speed": 0.05700000375509262, "roll": "0.0471494421363"}
{"pitch": "-0.00795176718384", "lat": 29.713293, "timestamp": 1603395936.323793, "alt": 31.24, "yaw": "2.00375056267", "lon": -95.4043742, "heading": 114, "speed": 0.05300000309944153, "roll": "0.0613646842539"}
{"pitch": "-0.00795176718384", "lat": 29.713293, "timestamp": 1603395936.324437, "alt": 31.24, "yaw": "2.00375056267", "lon": -95.4043742, "heading": 114, "speed": 0.05300000309944153, "roll": "0.0613646842539"}
{"pitch": "-0.01441696845", "lat": 29.7132926, "timestamp": 1603395936.82499, "alt": 31.23, "yaw": "2.00300073624", "lon": -95.4043748, "heading": 114, "speed": 0.13600000739097595, "roll": "0.0493471138179"}
{"pitch": "-0.01441696845", "lat": 29.7132926, "timestamp": 1603395936.825632, "alt": 31.23, "yaw": "2.00300073624", "lon": -95.4043748, "heading": 114, "speed": 0.13600000739097595, "roll": "0.0493471138179"}
{"pitch": "-0.0288660433143", "lat": 29.713292, "timestamp": 1603395937.326259, "alt": 31.23, "yaw": "2.01440954208", "lon": -95.404375, "heading": 115, "speed": 0.07200000435113907, "roll": "0.0270564854145"}
{"pitch": "-0.0288660433143", "lat": 29.713292, "timestamp": 1603395937.32687, "alt": 31.23, "yaw": "2.01440954208", "lon": -95.404375, "heading": 115, "speed": 0.07200000435113907, "roll": "0.0270564854145"}
{"pitch": "-0.00194137636572", "lat": 29.7132917, "timestamp": 1603395937.82741, "alt": 31.23, "yaw": "2.04219985008", "lon": -95.4043747, "heading": 116, "speed": 0.14400000870227814, "roll": "0.0530256666243"}
{"pitch": "-0.00194137636572", "lat": 29.7132917, "timestamp": 1603395937.828048, "alt": 31.23, "yaw": "2.04219985008", "lon": -95.4043747, "heading": 116, "speed": 0.14400000870227814, "roll": "0.0530256666243"}
{"pitch": "-0.0220424700528", "lat": 29.7132914, "timestamp": 1603395938.328659, "alt": 31.23, "yaw": "2.02198600769", "lon": -95.4043748, "heading": 116, "speed": 0.11900000274181366, "roll": "0.0526777356863"}
{"pitch": "-0.0220424700528", "lat": 29.7132914, "timestamp": 1603395938.329355, "alt": 31.23, "yaw": "2.02198600769", "lon": -95.4043748, "heading": 116, "speed": 0.11900000274181366, "roll": "0.0526777356863"}
{"pitch": "-0.0450006276369", "lat": 29.7132905, "timestamp": 1603395938.82996, "alt": 31.23, "yaw": "2.00800442696", "lon": -95.4043752, "heading": 115, "speed": 0.1860000044107437, "roll": "0.0177270714194"}
{"pitch": "-0.0450006276369", "lat": 29.7132905, "timestamp": 1603395938.830691, "alt": 31.23, "yaw": "2.00800442696", "lon": -95.4043752, "heading": 115, "speed": 0.1860000044107437, "roll": "0.0177270714194"}
{"pitch": "-0.0132013428956", "lat": 29.7132896, "timestamp": 1603395939.330788, "alt": 31.2, "yaw": "2.02303695679", "lon": -95.4043744, "heading": 116, "speed": 0.24500000476837158, "roll": "0.00785486865789"}
{"pitch": "-0.0132013428956", "lat": 29.7132896, "timestamp": 1603395939.331704, "alt": 31.2, "yaw": "2.02303695679", "lon": -95.4043744, "heading": 116, "speed": 0.24500000476837158, "roll": "0.00785486865789"}
{"pitch": "0.0275310147554", "lat": 29.7132892, "timestamp": 1603395939.831956, "alt": 31.18, "yaw": "2.02898597717", "lon": -95.4043735, "heading": 116, "speed": 0.164000004529953, "roll": "0.0367955043912"}
{"pitch": "0.0275310147554", "lat": 29.7132892, "timestamp": 1603395939.832709, "alt": 31.18, "yaw": "2.02898597717", "lon": -95.4043735, "heading": 116, "speed": 0.164000004529953, "roll": "0.0367955043912"}
{"pitch": "-0.00680188043043", "lat": 29.7132893, "timestamp": 1603395940.332903, "alt": 31.18, "yaw": "2.01804161072", "lon": -95.4043735, "heading": 115, "speed": 0.04000000283122063, "roll": "0.0200631581247"}
{"pitch": "-0.00680188043043", "lat": 29.7132893, "timestamp": 1603395940.333658, "alt": 31.18, "yaw": "2.01804161072", "lon": -95.4043735, "heading": 115, "speed": 0.04000000283122063, "roll": "0.0200631581247"}
{"pitch": "-0.0123712290078", "lat": 29.7132895, "timestamp": 1603395940.833723, "alt": 31.17, "yaw": "2.02410125732", "lon": -95.4043736, "heading": 115, "speed": 0.08400000631809235, "roll": "0.0224756915122"}
{"pitch": "-0.0123712290078", "lat": 29.7132895, "timestamp": 1603395940.834583, "alt": 31.17, "yaw": "2.02410125732", "lon": -95.4043736, "heading": 115, "speed": 0.08400000631809235, "roll": "0.0224756915122"}
{"pitch": "-0.0193241499364", "lat": 29.71329, "timestamp": 1603395941.334972, "alt": 31.17, "yaw": "2.02700662613", "lon": -95.4043737, "heading": 116, "speed": 0.05300000309944153, "roll": "0.0316682569683"}
{"pitch": "-0.0193241499364", "lat": 29.71329, "timestamp": 1603395941.335693, "alt": 31.17, "yaw": "2.02700662613", "lon": -95.4043737, "heading": 116, "speed": 0.05300000309944153, "roll": "0.0316682569683"}
{"pitch": "-0.00212524132803", "lat": 29.7132902, "timestamp": 1603395941.836133, "alt": 31.17, "yaw": "2.0422873497", "lon": -95.4043738, "heading": 116, "speed": 0.11000000685453415, "roll": "0.00959683954716"}
{"pitch": "-0.00212524132803", "lat": 29.7132902, "timestamp": 1603395941.836768, "alt": 31.17, "yaw": "2.0422873497", "lon": -95.4043738, "heading": 116, "speed": 0.11000000685453415, "roll": "0.00959683954716"}
{"pitch": "-0.0292099509388", "lat": 29.7132904, "timestamp": 1603395942.337082, "alt": 31.18, "yaw": "2.03242206573", "lon": -95.404374, "heading": 116, "speed": 0.0950000062584877, "roll": "0.0137427989393"}
{"pitch": "-0.0292099509388", "lat": 29.7132904, "timestamp": 1603395942.337795, "alt": 31.18, "yaw": "2.03242206573", "lon": -95.404374, "heading": 116, "speed": 0.0950000062584877, "roll": "0.0137427989393"}
{"pitch": "-0.012379154563", "lat": 29.7132908, "timestamp": 1603395942.838352, "alt": 31.21, "yaw": "2.02865195274", "lon": -95.4043738, "heading": 116, "speed": 0.08700000494718552, "roll": "0.0248823873699"}
{"pitch": "-0.012379154563", "lat": 29.7132908, "timestamp": 1603395942.83897, "alt": 31.21, "yaw": "2.02865195274", "lon": -95.4043738, "heading": 116, "speed": 0.08700000494718552, "roll": "0.0248823873699"}
{"pitch": "-0.0236815884709", "lat": 29.7132912, "timestamp": 1603395943.340121, "alt": 31.22, "yaw": "2.06976222992", "lon": -95.4043737, "heading": 117, "speed": 0.11900000274181366, "roll": "0.0226870533079"}
{"pitch": "-0.0236815884709", "lat": 29.7132912, "timestamp": 1603395943.340718, "alt": 31.22, "yaw": "2.06976222992", "lon": -95.4043737, "heading": 117, "speed": 0.11900000274181366, "roll": "0.0226870533079"}
{"pitch": "-0.0245683081448", "lat": 29.7132913, "timestamp": 1603395943.841138, "alt": 31.23, "yaw": "2.06924152374", "lon": -95.4043738, "heading": 118, "speed": 0.0820000022649765, "roll": "0.0340021662414"}
{"pitch": "-0.0245683081448", "lat": 29.7132913, "timestamp": 1603395943.841802, "alt": 31.23, "yaw": "2.06924152374", "lon": -95.4043738, "heading": 118, "speed": 0.0820000022649765, "roll": "0.0340021662414"}
{"pitch": "-0.0351141802967", "lat": 29.7132914, "timestamp": 1603395944.342283, "alt": 31.24, "yaw": "2.04372549057", "lon": -95.4043738, "heading": 116, "speed": 0.013000000268220901, "roll": "0.0175422448665"}
{"pitch": "-0.0351141802967", "lat": 29.7132914, "timestamp": 1603395944.342876, "alt": 31.24, "yaw": "2.04372549057", "lon": -95.4043738, "heading": 116, "speed": 0.013000000268220901, "roll": "0.0175422448665"}
{"pitch": "-0.0221171397716", "lat": 29.7132913, "timestamp": 1603395944.843436, "alt": 31.23, "yaw": "2.03001046181", "lon": -95.4043735, "heading": 116, "speed": 0.05700000375509262, "roll": "0.0110125467181"}
{"pitch": "-0.0221171397716", "lat": 29.7132913, "timestamp": 1603395944.844127, "alt": 31.23, "yaw": "2.03001046181", "lon": -95.4043735, "heading": 116, "speed": 0.05700000375509262, "roll": "0.0110125467181"}
{"pitch": "-0.00650155125186", "lat": 29.7132915, "timestamp": 1603395945.345422, "alt": 31.22, "yaw": "2.0372672081", "lon": -95.4043728, "heading": 116, "speed": 0.08800000697374344, "roll": "0.0233606826514"}
{"pitch": "-0.00650155125186", "lat": 29.7132915, "timestamp": 1603395945.346279, "alt": 31.22, "yaw": "2.0372672081", "lon": -95.4043728, "heading": 116, "speed": 0.08800000697374344, "roll": "0.0233606826514"}
{"pitch": "0.00675098923966", "lat": 29.7132919, "timestamp": 1603395945.847446, "alt": 31.2, "yaw": "2.03932189941", "lon": -95.4043722, "heading": 116, "speed": 0.11700000613927841, "roll": "0.0389435738325"}
{"pitch": "0.00675098923966", "lat": 29.7132919, "timestamp": 1603395945.848877, "alt": 31.2, "yaw": "2.03932189941", "lon": -95.4043722, "heading": 116, "speed": 0.11700000613927841, "roll": "0.0389435738325"}
{"pitch": "-0.00306703103706", "lat": 29.7132925, "timestamp": 1603395946.351584, "alt": 31.2, "yaw": "2.02707147598", "lon": -95.4043722, "heading": 115, "speed": 0.10900000482797623, "roll": "0.0337083004415"}
{"pitch": "-0.00306703103706", "lat": 29.7132925, "timestamp": 1603395946.354054, "alt": 31.2, "yaw": "2.02707147598", "lon": -95.4043722, "heading": 115, "speed": 0.10900000482797623, "roll": "0.0337083004415"}
{"pitch": "-0.0145515277982", "lat": 29.7132928, "timestamp": 1603395946.85694, "alt": 31.2, "yaw": "2.01072120667", "lon": -95.4043722, "heading": 115, "speed": 0.10900000482797623, "roll": "0.0338136292994"}
{"pitch": "-0.0145515277982", "lat": 29.7132928, "timestamp": 1603395946.858564, "alt": 31.2, "yaw": "2.01072120667", "lon": -95.4043722, "heading": 115, "speed": 0.10900000482797623, "roll": "0.0338136292994"}
{"pitch": "0.000334959942847", "lat": 29.7132933, "timestamp": 1603395947.359174, "alt": 31.19, "yaw": "2.02869796753", "lon": -95.4043722, "heading": 116, "speed": 0.12800000607967377, "roll": "0.0303462222219"}
{"pitch": "0.000334959942847", "lat": 29.7132933, "timestamp": 1603395947.360676, "alt": 31.19, "yaw": "2.02869796753", "lon": -95.4043722, "heading": 116, "speed": 0.12800000607967377, "roll": "0.0303462222219"}
{"pitch": "-0.0274444483221", "lat": 29.713294, "timestamp": 1603395947.861344, "alt": 31.21, "yaw": "2.0247938633", "lon": -95.4043725, "heading": 116, "speed": 0.15700000524520874, "roll": "0.0418311245739"}
{"pitch": "-0.0274444483221", "lat": 29.713294, "timestamp": 1603395947.86237, "alt": 31.21, "yaw": "2.0247938633", "lon": -95.4043725, "heading": 116, "speed": 0.15700000524520874, "roll": "0.0418311245739"}
{"pitch": "-0.0406414605677", "lat": 29.7132945, "timestamp": 1603395948.364495, "alt": 31.24, "yaw": "2.01636123657", "lon": -95.4043726, "heading": 115, "speed": 0.13600000739097595, "roll": "0.0517954304814"}
{"pitch": "-0.0406414605677", "lat": 29.7132945, "timestamp": 1603395948.365206, "alt": 31.24, "yaw": "2.01636123657", "lon": -95.4043726, "heading": 115, "speed": 0.13600000739097595, "roll": "0.0517954304814"}
{"pitch": "-0.017192767933", "lat": 29.7132943, "timestamp": 1603395948.867306, "alt": 31.25, "yaw": "2.02615046501", "lon": -95.4043723, "heading": 116, "speed": 0.06700000166893005, "roll": "0.0330371186137"}
{"pitch": "-0.017192767933", "lat": 29.7132943, "timestamp": 1603395948.868879, "alt": 31.25, "yaw": "2.02615046501", "lon": -95.4043723, "heading": 116, "speed": 0.06700000166893005, "roll": "0.0330371186137"}
{"pitch": "0.00750574236736", "lat": 29.7132937, "timestamp": 1603395949.370844, "alt": 31.23, "yaw": "2.01864171028", "lon": -95.4043722, "heading": 116, "speed": 0.055000003427267075, "roll": "0.0554024614394"}
{"pitch": "0.00750574236736", "lat": 29.7132937, "timestamp": 1603395949.374533, "alt": 31.23, "yaw": "2.01864171028", "lon": -95.4043722, "heading": 115, "speed": 0.10700000822544098, "roll": "0.0554024614394"}
{"pitch": "-0.0129104349762", "lat": 29.7132933, "timestamp": 1603395949.871932, "alt": 31.23, "yaw": "2.01272249222", "lon": -95.4043723, "heading": 114, "speed": 0.08900000154972076, "roll": "0.0271943211555"}
{"pitch": "-0.0129104349762", "lat": 29.7132933, "timestamp": 1603395949.875557, "alt": 31.23, "yaw": "2.01272249222", "lon": -95.4043723, "heading": 114, "speed": 0.08900000154972076, "roll": "0.0271943211555"}
{"pitch": "-0.0266066808254", "lat": 29.7132926, "timestamp": 1603395950.373054, "alt": 31.23, "yaw": "2.03464984894", "lon": -95.4043724, "heading": 116, "speed": 0.055000003427267075, "roll": "0.00534369098023"}
{"pitch": "-0.0266066808254", "lat": 29.7132926, "timestamp": 1603395950.376504, "alt": 31.23, "yaw": "2.03464984894", "lon": -95.4043724, "heading": 116, "speed": 0.055000003427267075, "roll": "0.00534369098023"}
{"pitch": "0.000477590132505", "lat": 29.7132925, "timestamp": 1603395950.874287, "alt": 31.25, "yaw": "2.05729007721", "lon": -95.404372, "heading": 117, "speed": 0.05000000074505806, "roll": "0.0355882197618"}
{"pitch": "0.000477590132505", "lat": 29.7132925, "timestamp": 1603395950.87754, "alt": 31.25, "yaw": "2.05729007721", "lon": -95.404372, "heading": 117, "speed": 0.05000000074505806, "roll": "0.0355882197618"}
{"pitch": "0.00844752043486", "lat": 29.7132925, "timestamp": 1603395951.374945, "alt": 31.24, "yaw": "2.05631780624", "lon": -95.4043715, "heading": 117, "speed": 0.08700000494718552, "roll": "0.0580840036273"}
{"pitch": "0.00844752043486", "lat": 29.7132925, "timestamp": 1603395951.378845, "alt": 31.24, "yaw": "2.05631780624", "lon": -95.4043715, "heading": 117, "speed": 0.08700000494718552, "roll": "0.0580840036273"}
{"pitch": "-0.00325127830729", "lat": 29.7132921, "timestamp": 1603395951.875716, "alt": 31.24, "yaw": "2.04916238785", "lon": -95.4043717, "heading": 117, "speed": 0.014000000432133675, "roll": "0.0433411560953"}
{"pitch": "-0.00325127830729", "lat": 29.7132921, "timestamp": 1603395951.880001, "alt": 31.24, "yaw": "2.04916238785", "lon": -95.4043717, "heading": 117, "speed": 0.014000000432133675, "roll": "0.0433411560953"}
{"pitch": "0.00589750846848", "lat": 29.7132918, "timestamp": 1603395952.376906, "alt": 31.24, "yaw": "2.04982471466", "lon": -95.4043718, "heading": 117, "speed": 0.07400000095367432, "roll": "0.031823605299"}
{"pitch": "0.00589750846848", "lat": 29.7132918, "timestamp": 1603395952.380938, "alt": 31.24, "yaw": "2.04982471466", "lon": -95.4043718, "heading": 117, "speed": 0.07400000095367432, "roll": "0.031823605299"}
{"pitch": "0.0128897242248", "lat": 29.7132914, "timestamp": 1603395952.878302, "alt": 31.23, "yaw": "2.04819107056", "lon": -95.4043722, "heading": 117, "speed": 0.0560000017285347, "roll": "0.0289707463235"}
{"pitch": "0.011492587626", "lat": 29.7132914, "timestamp": 1603395952.882262, "alt": 31.23, "yaw": "2.04436349869", "lon": -95.4043722, "heading": 117, "speed": 0.0560000017285347, "roll": "0.032418616116"}
{"pitch": "0.0016057905741", "lat": 29.7132911, "timestamp": 1603395953.379372, "alt": 31.23, "yaw": "2.04678535461", "lon": -95.4043728, "heading": 117, "speed": 0.06400000303983688, "roll": "0.0403092652559"}
{"pitch": "0.0016057905741", "lat": 29.7132911, "timestamp": 1603395953.383308, "alt": 31.23, "yaw": "2.04678535461", "lon": -95.4043728, "heading": 117, "speed": 0.06400000303983688, "roll": "0.0403092652559"}
{"pitch": "-0.00224816030823", "lat": 29.7132908, "timestamp": 1603395953.880654, "alt": 31.23, "yaw": "2.04769086838", "lon": -95.4043736, "heading": 117, "speed": 0.10500000417232513, "roll": "0.0205222666264"}
{"pitch": "-0.00224816030823", "lat": 29.7132908, "timestamp": 1603395953.884429, "alt": 31.23, "yaw": "2.04769086838", "lon": -95.4043736, "heading": 117, "speed": 0.10500000417232513, "roll": "0.0205222666264"}
{"pitch": "-0.000916931312531", "lat": 29.7132908, "timestamp": 1603395954.392323, "alt": 31.22, "yaw": "2.04869055748", "lon": -95.4043741, "heading": 117, "speed": 0.1300000101327896, "roll": "0.0210700687021"}{"pitch": "-0.000916931312531", "lat": 29.7132908, "timestamp": 1603395954.391834, "alt": 31.22, "yaw": "2.04869055748", "lon": -95.4043741, "heading": 117, "speed": 0.1300000101327896, "roll": "0.0210700687021"}

{"pitch": "-0.00445920648053", "lat": 29.7132908, "timestamp": 1603395954.894031, "alt": 31.21, "yaw": "2.0476307869", "lon": -95.4043744, "heading": 117, "speed": 0.1080000028014183, "roll": "0.0310633517802"}
{"pitch": "-0.00445920648053", "lat": 29.7132908, "timestamp": 1603395954.894776, "alt": 31.21, "yaw": "2.0476307869", "lon": -95.4043744, "heading": 117, "speed": 0.1080000028014183, "roll": "0.0310633517802"}
{"pitch": "-0.00421471754089", "lat": 29.7132909, "timestamp": 1603395955.395319, "alt": 31.2, "yaw": "2.0468275547", "lon": -95.4043746, "heading": 117, "speed": 0.0690000057220459, "roll": "0.0105287823826"}
{"pitch": "-0.00421471754089", "lat": 29.7132909, "timestamp": 1603395955.39583, "alt": 31.2, "yaw": "2.0468275547", "lon": -95.4043746, "heading": 117, "speed": 0.0690000057220459, "roll": "0.0105287823826"}
{"pitch": "0.000182687770575", "lat": 29.713291, "timestamp": 1603395955.896492, "alt": 31.18, "yaw": "2.0637075901", "lon": -95.4043744, "heading": 118, "speed": 0.07200000435113907, "roll": "0.0185932815075"}
{"pitch": "0.000182687770575", "lat": 29.713291, "timestamp": 1603395955.897059, "alt": 31.18, "yaw": "2.0637075901", "lon": -95.4043744, "heading": 118, "speed": 0.07200000435113907, "roll": "0.0185932815075"}
{"pitch": "0.0116210095584", "lat": 29.7132912, "timestamp": 1603395956.397368, "alt": 31.19, "yaw": "2.07918190956", "lon": -95.404374, "heading": 119, "speed": 0.10300000756978989, "roll": "0.0386906415224"}
{"pitch": "0.0116210095584", "lat": 29.7132912, "timestamp": 1603395956.398129, "alt": 31.19, "yaw": "2.07918190956", "lon": -95.404374, "heading": 119, "speed": 0.10300000756978989, "roll": "0.0386906415224"}
{"pitch": "0.0166522152722", "lat": 29.7132912, "timestamp": 1603395956.89858, "alt": 31.2, "yaw": "2.06620907784", "lon": -95.404374, "heading": 118, "speed": 0.055000003427267075, "roll": "0.0373226106167"}
{"pitch": "0.0166522152722", "lat": 29.7132912, "timestamp": 1603395956.899127, "alt": 31.2, "yaw": "2.06620907784", "lon": -95.404374, "heading": 118, "speed": 0.055000003427267075, "roll": "0.0373226106167"}
{"pitch": "0.000135931186378", "lat": 29.7132912, "timestamp": 1603395957.400201, "alt": 31.2, "yaw": "2.03141927719", "lon": -95.4043742, "heading": 116, "speed": 0.055000003427267075, "roll": "0.0169548448175"}
{"pitch": "0.000135931186378", "lat": 29.7132912, "timestamp": 1603395957.401317, "alt": 31.2, "yaw": "2.03141927719", "lon": -95.4043742, "heading": 116, "speed": 0.055000003427267075, "roll": "0.0169548448175"}
{"pitch": "0.0026670913212", "lat": 29.7132912, "timestamp": 1603395957.902761, "alt": 31.2, "yaw": "2.02869176865", "lon": -95.4043742, "heading": 116, "speed": 0.05700000375509262, "roll": "0.00491593033075"}
{"pitch": "0.0026670913212", "lat": 29.7132912, "timestamp": 1603395957.90352, "alt": 31.2, "yaw": "2.02869176865", "lon": -95.4043742, "heading": 116, "speed": 0.05700000375509262, "roll": "0.00491593033075"}
{"pitch": "0.00539259007201", "lat": 29.7132917, "timestamp": 1603395958.404992, "alt": 31.21, "yaw": "2.07398271561", "lon": -95.4043739, "heading": 117, "speed": 0.14400000870227814, "roll": "0.0183983091265"}
{"pitch": "0.00539259007201", "lat": 29.7132917, "timestamp": 1603395958.405601, "alt": 31.21, "yaw": "2.07398271561", "lon": -95.4043739, "heading": 117, "speed": 0.14400000870227814, "roll": "0.0183983091265"}
{"pitch": "0.0100111011416", "lat": 29.7132923, "timestamp": 1603395958.906176, "alt": 31.22, "yaw": "2.07667636871", "lon": -95.4043737, "heading": 119, "speed": 0.10100000351667404, "roll": "0.0435731709003"}
{"pitch": "0.0100111011416", "lat": 29.7132923, "timestamp": 1603395958.907093, "alt": 31.22, "yaw": "2.07667636871", "lon": -95.4043737, "heading": 119, "speed": 0.10100000351667404, "roll": "0.0435731709003"}
{"pitch": "-0.0324459522963", "lat": 29.7132928, "timestamp": 1603395959.422697, "alt": 31.23, "yaw": "2.04687833786", "lon": -95.4043737, "heading": 117, "speed": 0.06300000101327896, "roll": "0.00199646805413"}
{"pitch": "-0.0324459522963", "lat": 29.7132928, "timestamp": 1603395959.423258, "alt": 31.23, "yaw": "2.04687833786", "lon": -95.4043737, "heading": 117, "speed": 0.06300000101327896, "roll": "0.00199646805413"}
{"pitch": "-0.0152623765171", "lat": 29.7132932, "timestamp": 1603395959.925344, "alt": 31.23, "yaw": "2.04813718796", "lon": -95.4043733, "heading": 117, "speed": 0.22700001299381256, "roll": "0.0304100010544"}
{"pitch": "-0.0152623765171", "lat": 29.7132932, "timestamp": 1603395959.924073, "alt": 31.23, "yaw": "2.04813718796", "lon": -95.4043733, "heading": 117, "speed": 0.22700001299381256, "roll": "0.0304100010544"}
{"pitch": "0.0278676468879", "lat": 29.7132936, "timestamp": 1603395960.427116, "alt": 31.23, "yaw": "2.05308175087", "lon": -95.4043722, "heading": 117, "speed": 0.15000000596046448, "roll": "0.0544232204556"}
{"pitch": "0.0278676468879", "lat": 29.7132936, "timestamp": 1603395960.428604, "alt": 31.23, "yaw": "2.05308175087", "lon": -95.4043722, "heading": 117, "speed": 0.15000000596046448, "roll": "0.0544232204556"}
{"pitch": "0.0101627353579", "lat": 29.7132937, "timestamp": 1603395960.929245, "alt": 31.24, "yaw": "2.05771517754", "lon": -95.4043721, "heading": 117, "speed": 0.11600000411272049, "roll": "0.0323320180178"}
{"pitch": "0.0101627353579", "lat": 29.7132937, "timestamp": 1603395960.931348, "alt": 31.24, "yaw": "2.05771517754", "lon": -95.4043721, "heading": 117, "speed": 0.11600000411272049, "roll": "0.0323320180178"}
{"pitch": "0.0121799744666", "lat": 29.7132941, "timestamp": 1603395961.435663, "alt": 31.24, "yaw": "2.05844736099", "lon": -95.4043719, "heading": 118, "speed": 0.11100000888109207, "roll": "0.0584040656686"}
{"pitch": "0.0121799744666", "lat": 29.7132941, "timestamp": 1603395961.437857, "alt": 31.24, "yaw": "2.05844736099", "lon": -95.4043719, "heading": 118, "speed": 0.11100000888109207, "roll": "0.0584040656686"}
{"pitch": "0.00203067110851", "lat": 29.7132944, "timestamp": 1603395961.9382, "alt": 31.24, "yaw": "2.05583119392", "lon": -95.4043718, "heading": 117, "speed": 0.07500000298023224, "roll": "0.0655487701297"}
{"pitch": "0.00203067110851", "lat": 29.7132944, "timestamp": 1603395961.939556, "alt": 31.24, "yaw": "2.05583119392", "lon": -95.4043718, "heading": 117, "speed": 0.07500000298023224, "roll": "0.0655487701297"}
{"pitch": "-0.00295617710799", "lat": 29.7132944, "timestamp": 1603395962.440068, "alt": 31.27, "yaw": "2.05724048615", "lon": -95.4043718, "heading": 117, "speed": 0.05700000375509262, "roll": "0.0676263570786"}
{"pitch": "-0.00295617710799", "lat": 29.7132944, "timestamp": 1603395962.441079, "alt": 31.27, "yaw": "2.05724048615", "lon": -95.4043718, "heading": 117, "speed": 0.05700000375509262, "roll": "0.0676263570786"}
{"pitch": "0.0118853356689", "lat": 29.7132943, "timestamp": 1603395962.949545, "alt": 31.28, "yaw": "2.07005977631", "lon": -95.4043719, "heading": 118, "speed": 0.039000000804662704, "roll": "0.0483065471053"}
{"pitch": "0.0118853356689", "lat": 29.7132943, "timestamp": 1603395962.950996, "alt": 31.28, "yaw": "2.07005977631", "lon": -95.4043719, "heading": 118, "speed": 0.039000000804662704, "roll": "0.0483065471053"}
{"pitch": "0.000517887528986", "lat": 29.7132942, "timestamp": 1603395963.451443, "alt": 31.28, "yaw": "2.06533408165", "lon": -95.4043721, "heading": 118, "speed": 0.0990000069141388, "roll": "0.083358541131"}
{"pitch": "0.000517887528986", "lat": 29.7132942, "timestamp": 1603395963.452834, "alt": 31.28, "yaw": "2.06533408165", "lon": -95.4043721, "heading": 118, "speed": 0.0990000069141388, "roll": "0.083358541131"}
{"pitch": "0.0183652415872", "lat": 29.7132937, "timestamp": 1603395963.952669, "alt": 31.27, "yaw": "2.06023931503", "lon": -95.4043721, "heading": 118, "speed": 0.22100001573562622, "roll": "0.066724203527"}
